"Interval|""ms""|0|0|1","Utc|""ms""|0|0|1","AccelX|""G""|-3.0|3.0|50","AccelY|""G""|-3.0|3.0|50","AccelZ|""G""|-3.0|3.0|50","Yaw|""Deg/Sec""|-120|120|50","Pitch|""Deg/Sec""|-120|120|50","Roll|""Deg/Sec""|-120|120|50","FTTS1|""""|0.0|1000.0|50","FTTS2|""""|0.0|1000.0|50","FTTS3|""""|0.0|1000.0|50","FTTS4|""""|0.0|1000.0|50","FR|""""|0.0|1000.0|50","TPS|""""|0.0|1000.0|50","FBPS|""""|0.0|1000.0|50","STR|""""|0.0|1000.0|50","MPUAccX|""""|-20.0|20.0|50","MPUAccY|""""|-20.0|20.0|50","MPUAccZ|""""|-20.0|20.0|50","YawMPU|""""|-20.0|20.0|50","PitchMPU|""""|-20.0|20.0|50","RollMPU|""""|-20.0|20.0|50"," RSTR|""""|0.0|1000.0|50"," RL|""""|0.0|1000.0|50"," RBPS|""""|0.0|1000.0|50"," RR |""""|0.0|1000.0|50","Latitude|""Degrees""|-180.0|180.0|10","Longitude|""Degrees""|-180.0|180.0|10","Speed|""mph""|0.0|150.0|10","Altitude|""ft""|0.0|4000.0|10","GPSSats|""""|0|20|10","LapCount|""""|0|0|10","LapTime|""Min""|0.0|0.0|10","Sector|""""|0|0|10","SectorTime|""Min""|0.0|0.0|10","PredTime|""Min""|0.0|0.0|10","ElapsedTime|""Min""|0.0|0.0|10","CurrentLap|""""|0|0|10"
2163477,1.58326E+12,0.94,0.06,-0.06,0,0,0,0,0,0,0,0,0.83,1.25,2.89,0,0,0,0,0,0,0,0,0,0,12.992236,80.230309,0,30.2,10,0,0,-1,0,0,0,0
2163497,1.58326E+12,0.94,0.06,-0.06,0,0,0,0,0,0,0,0,0.83,1.25,2.89,0,0,0,0,0,0,0,0,0,0,NaN,NaN,NaN,NaN,NaN,NaN,NaN,NaN,NaN,NaN,NaN,NaN
2163517,1.58326E+12,0.94,0.06,-0.06,0,0,0,0,0,0,0,0,0.83,1.25,2.89,0,0,0,0,0,0,0,0,0,0,NaN,NaN,NaN,NaN,NaN,NaN,NaN,NaN,NaN,NaN,NaN,NaN
2163537,1.58326E+12,0.94,0.06,-0.06,0,0,0,0,0,0,0,0,0.83,1.25,2.89,0,0,0,0,0,0,0,0,0,0,NaN,NaN,NaN,NaN,NaN,NaN,NaN,NaN,NaN,NaN,NaN,NaN
2163557,1.58326E+12,0.94,0.06,-0.06,0,0,0,0,0,0,0,0,0.83,1.25,2.89,0,0,0,0,0,0,0,0,0,0,NaN,NaN,NaN,NaN,NaN,NaN,NaN,NaN,NaN,NaN,NaN,NaN
2163577,1.58326E+12,0.94,0.06,-0.06,0,0,0,0,0,0,0,0,0.83,1.25,2.89,0,0,0,0,0,0,0,0,0,0,12.992236,80.230309,0,30.2,10,0,0,-1,0,0,0,0
2163597,1.58326E+12,0.94,0.06,-0.06,0,0,0,0,0,0,0,0,0.83,1.25,2.89,0,0,0,0,0,0,0,0,0,0,NaN,NaN,NaN,NaN,NaN,NaN,NaN,NaN,NaN,NaN,NaN,NaN
2163617,1.58326E+12,0.94,0.06,-0.06,0,0,0,0,0,0,0,0,0.83,1.25,2.89,0,0,0,0,0,0,0,0,0,0,NaN,NaN,NaN,NaN,NaN,NaN,NaN,NaN,NaN,NaN,NaN,NaN
2163637,1.58326E+12,0.94,0.06,-0.06,0,0,0,0,0,0,0,0,0.83,1.25,2.89,0,0,0,0,0,0,0,0,0,0,NaN,NaN,NaN,NaN,NaN,NaN,NaN,NaN,NaN,NaN,NaN,NaN
2163657,1.58326E+12,0.94,0.06,-0.06,0,0,0,0,0,0,0,0,0.83,1.25,2.89,0,0,0,0,0,0,0,0,0,0,NaN,NaN,NaN,NaN,NaN,NaN,NaN,NaN,NaN,NaN,NaN,NaN
2163677,1.58326E+12,0.94,0.06,-0.06,0,0,0,0,0,0,0,0,0.83,1.25,2.89,0,0,0,0,0,0,0,0,0,0,12.992236,80.230309,0,30.2,10,0,0,-1,0,0,0,0
2163697,1.58326E+12,0.94,0.06,-0.06,0,0,0,0,0,0,0,0,0.83,1.25,2.89,0,0,0,0,0,0,0,0,0,0,NaN,NaN,NaN,NaN,NaN,NaN,NaN,NaN,NaN,NaN,NaN,NaN
2163717,1.58326E+12,0.94,0.06,-0.06,0,0,0,0,0,0,0,0,0.83,1.25,2.89,0,0,0,0,0,0,0,0,0,0,NaN,NaN,NaN,NaN,NaN,NaN,NaN,NaN,NaN,NaN,NaN,NaN
2163737,1.58326E+12,0.94,0.06,-0.06,0,0,0,0,0,0,0,0,0.83,1.25,2.89,0,0,0,0,0,0,0,0,0,0,NaN,NaN,NaN,NaN,NaN,NaN,NaN,NaN,NaN,NaN,NaN,NaN
2163757,1.58326E+12,0.94,0.06,-0.06,0,0,0,0,0,0,0,0,0.83,1.25,2.89,0,0,0,0,0,0,0,0,0,0,NaN,NaN,NaN,NaN,NaN,NaN,NaN,NaN,NaN,NaN,NaN,NaN
2163777,1.58326E+12,0.94,0.06,-0.06,0,0,0,0,0,0,0,0,0.83,1.25,2.89,0,0,0,0,0,0,0,0,0,0,12.992236,80.230309,0,30.2,10,0,0,-1,0,0,0,0
2163797,1.58326E+12,0.94,0.06,-0.06,0,0,0,0,0,0,0,0,0.83,1.25,2.89,0,0,0,0,0,0,0,0,0,0,NaN,NaN,NaN,NaN,NaN,NaN,NaN,NaN,NaN,NaN,NaN,NaN
2163817,1.58326E+12,0.94,0.06,-0.06,0,0,0,0,0,0,0,0,0.83,1.25,2.89,0,0,0,0,0,0,0,0,0,0,NaN,NaN,NaN,NaN,NaN,NaN,NaN,NaN,NaN,NaN,NaN,NaN
2163837,1.58326E+12,0.94,0.06,-0.06,0,0,0,0,0,0,0,0,0.83,1.25,2.89,0,0,0,0,0,0,0,0,0,0,NaN,NaN,NaN,NaN,NaN,NaN,NaN,NaN,NaN,NaN,NaN,NaN
2163857,1.58326E+12,0.94,0.06,-0.06,0,0,0,0,0,0,0,0,0.83,1.25,2.89,0,0,0,0,0,0,0,0,0,0,NaN,NaN,NaN,NaN,NaN,NaN,NaN,NaN,NaN,NaN,NaN,NaN
2163877,1.58326E+12,0.94,0.06,-0.06,0,0,0,0,0,0,0,0,0.83,1.25,2.89,0,0,0,0,0,0,0,0,0,0,12.992236,80.230309,0,30.2,10,0,0,-1,0,0,0,0
2163897,1.58326E+12,0.94,0.06,-0.06,0,0,0,0,0,0,0,0,0.83,1.25,2.89,0,0,0,0,0,0,0,0,0,0,NaN,NaN,NaN,NaN,NaN,NaN,NaN,NaN,NaN,NaN,NaN,NaN
2163917,1.58326E+12,0.94,0.06,-0.06,0,0,0,0,0,0,0,0,0.83,1.25,2.89,0,0,0,0,0,0,0,0,0,0,NaN,NaN,NaN,NaN,NaN,NaN,NaN,NaN,NaN,NaN,NaN,NaN
2163937,1.58326E+12,0.94,0.06,-0.06,0,0,0,0,0,0,0,0,0.83,1.25,2.89,0,0,0,0,0,0,0,0,0,0,NaN,NaN,NaN,NaN,NaN,NaN,NaN,NaN,NaN,NaN,NaN,NaN
2163957,1.58326E+12,0.94,0.06,-0.06,0,0,0,0,0,0,0,0,0.83,1.25,2.89,0,0,0,0,0,0,0,0,0,0,NaN,NaN,NaN,NaN,NaN,NaN,NaN,NaN,NaN,NaN,NaN,NaN
2163977,1.58326E+12,0.94,0.06,-0.06,0,0,0,0,0,0,0,0,0.83,1.25,2.89,0,0,0,0,0,0,0,0,0,0,12.992236,80.230309,0,30.2,10,0,0,-1,0,0,0,0
2163997,1.58326E+12,0.94,0.06,-0.06,0,0,0,0,0,0,0,0,0.83,1.25,2.89,0,0,0,0,0,0,0,0,0,0,NaN,NaN,NaN,NaN,NaN,NaN,NaN,NaN,NaN,NaN,NaN,NaN
2164017,1.58326E+12,0.94,0.06,-0.06,0,0,0,0,0,0,0,0,0.83,1.25,2.89,0,0,0,0,0,0,0,0,0,0,NaN,NaN,NaN,NaN,NaN,NaN,NaN,NaN,NaN,NaN,NaN,NaN
2164037,1.58326E+12,0.94,0.06,-0.06,0,0,0,0,0,0,0,0,0.83,1.25,2.89,0,0,0,0,0,0,0,0,0,0,NaN,NaN,NaN,NaN,NaN,NaN,NaN,NaN,NaN,NaN,NaN,NaN
2164057,1.58326E+12,0.94,0.06,-0.06,0,0,0,0,0,0,0,0,0.83,1.25,2.89,0,0,0,0,0,0,0,0,0,0,NaN,NaN,NaN,NaN,NaN,NaN,NaN,NaN,NaN,NaN,NaN,NaN
2164077,1.58326E+12,0.94,0.06,-0.06,0,0,0,0,0,0,0,0,0.83,1.25,2.89,0,0,0,0,0,0,0,0,0,0,12.992236,80.230309,0,30.2,10,0,0,-1,0,0,0,0
2164097,1.58326E+12,0.94,0.06,-0.06,0,0,0,0,0,0,0,0,0.83,1.25,2.89,0,0,0,0,0,0,0,0,0,0,NaN,NaN,NaN,NaN,NaN,NaN,NaN,NaN,NaN,NaN,NaN,NaN
2164117,1.58326E+12,0.94,0.06,-0.06,0,0,0,0,0,0,0,0,0.83,1.25,2.89,0,0,0,0,0,0,0,0,0,0,NaN,NaN,NaN,NaN,NaN,NaN,NaN,NaN,NaN,NaN,NaN,NaN
2164137,1.58326E+12,0.94,0.06,-0.06,0,0,0,0,0,0,0,0,0.83,1.25,2.89,0,0,0,0,0,0,0,0,0,0,NaN,NaN,NaN,NaN,NaN,NaN,NaN,NaN,NaN,NaN,NaN,NaN
2164157,1.58326E+12,0.94,0.06,-0.06,0,0,0,0,0,0,0,0,0.83,1.25,2.9,0,0,0,0,0,0,0,0,0,0,NaN,NaN,NaN,NaN,NaN,NaN,NaN,NaN,NaN,NaN,NaN,NaN
2164177,1.58326E+12,0.94,0.06,-0.06,0,0,0,0,0,0,0,0,0.83,1.25,2.9,0,0,0,0,0,0,0,0,0,0,12.992236,80.230309,0,30.2,10,0,0,-1,0,0,0,0
2164197,1.58326E+12,0.94,0.06,-0.06,0,0,0,0,0,0,0,0,0.83,1.25,2.9,0,0,0,0,0,0,0,0,0,0,NaN,NaN,NaN,NaN,NaN,NaN,NaN,NaN,NaN,NaN,NaN,NaN
2164217,1.58326E+12,0.94,0.06,-0.06,0,0,0,0,0,0,0,0,0.83,1.25,2.9,0,0,0,0,0,0,0,0,0,0,NaN,NaN,NaN,NaN,NaN,NaN,NaN,NaN,NaN,NaN,NaN,NaN
2164237,1.58326E+12,0.94,0.06,-0.06,0,0,0,0,0,0,0,0,0.83,1.25,2.9,0,0,0,0,0,0,0,0,0,0,NaN,NaN,NaN,NaN,NaN,NaN,NaN,NaN,NaN,NaN,NaN,NaN
2164257,1.58326E+12,0.94,0.06,-0.06,0,0,0,0,0,0,0,0,0.83,1.25,2.89,0,0,0,0,0,0,0,0,0,0,NaN,NaN,NaN,NaN,NaN,NaN,NaN,NaN,NaN,NaN,NaN,NaN
2164277,1.58326E+12,0.94,0.06,-0.06,0,0,0,0,0,0,0,0,0.83,1.25,2.89,0,0,0,0,0,0,0,0,0,0,12.992236,80.230309,0,30.2,10,0,0,-1,0,0,0,0
2164297,1.58326E+12,0.94,0.06,-0.06,0,0,0,0,0,0,0,0,0.83,1.25,2.89,0,0,0,0,0,0,0,0,0,0,NaN,NaN,NaN,NaN,NaN,NaN,NaN,NaN,NaN,NaN,NaN,NaN
2164317,1.58326E+12,0.94,0.06,-0.06,0,0,0,0,0,0,0,0,0.83,1.25,2.89,0,0,0,0,0,0,0,0,0,0,NaN,NaN,NaN,NaN,NaN,NaN,NaN,NaN,NaN,NaN,NaN,NaN
2164337,1.58326E+12,0.94,0.06,-0.06,0,0,0,0,0,0,0,0,0.83,1.25,2.89,0,0,0,0,0,0,0,0,0,0,NaN,NaN,NaN,NaN,NaN,NaN,NaN,NaN,NaN,NaN,NaN,NaN
2164357,1.58326E+12,0.94,0.06,-0.06,0,0,0,0,0,0,0,0,0.83,1.25,2.88,0,0,0,0,0,0,0,0,0,0,NaN,NaN,NaN,NaN,NaN,NaN,NaN,NaN,NaN,NaN,NaN,NaN
2164377,1.58326E+12,0.94,0.06,-0.06,0,0,0,0,0,0,0,0,0.83,1.25,2.88,0,0,0,0,0,0,0,0,0,0,12.992236,80.230309,0,30.2,10,0,0,-1,0,0,0,0
2164397,1.58326E+12,0.94,0.06,-0.06,0,0,0,0,0,0,0,0,0.83,1.25,2.88,0,0,0,0,0,0,0,0,0,0,NaN,NaN,NaN,NaN,NaN,NaN,NaN,NaN,NaN,NaN,NaN,NaN
2164417,1.58326E+12,0.94,0.06,-0.07,0,0,0,0,0,0,0,0,0.83,1.25,2.88,0,0,0,0,0,0,0,0,0,0,NaN,NaN,NaN,NaN,NaN,NaN,NaN,NaN,NaN,NaN,NaN,NaN
2164437,1.58326E+12,0.94,0.05,-0.07,0,0,0,0,0,0,0,0,0.83,1.25,2.88,0,0,0,0,0,0,0,0,0,0,NaN,NaN,NaN,NaN,NaN,NaN,NaN,NaN,NaN,NaN,NaN,NaN
2164457,1.58326E+12,0.94,0.05,-0.07,0,-1,0,0,0,0,0,0,0.84,1.25,2.89,0,0,0,0,0,0,0,0,0,0,NaN,NaN,NaN,NaN,NaN,NaN,NaN,NaN,NaN,NaN,NaN,NaN
2164477,1.58326E+12,0.95,0.05,-0.07,0,-1,0,0,0,0,0,0,0.84,1.25,2.89,0,0,0,0,0,0,0,0,0,0,12.992236,80.230309,0,30.2,10,0,0,-1,0,0,0,0
2164497,1.58326E+12,0.95,0.05,-0.07,0,-1,0,0,0,0,0,0,0.84,1.25,2.89,0,0,0,0,0,0,0,0,0,0,NaN,NaN,NaN,NaN,NaN,NaN,NaN,NaN,NaN,NaN,NaN,NaN
2164517,1.58326E+12,0.95,0.05,-0.06,0,-1,0,0,0,0,0,0,0.84,1.25,2.89,0,0,0,0,0,0,0,0,0,0,NaN,NaN,NaN,NaN,NaN,NaN,NaN,NaN,NaN,NaN,NaN,NaN
2164537,1.58326E+12,0.95,0.06,-0.05,0,-1,0,0,0,0,0,0,0.84,1.25,2.89,0,0,0,0,0,0,0,0,0,0,NaN,NaN,NaN,NaN,NaN,NaN,NaN,NaN,NaN,NaN,NaN,NaN
2164557,1.58326E+12,0.96,0.06,-0.05,0,-1,0,0,0,0,0,0,0.84,1.25,2.89,0,0,0,0,0,0,0,0,0,0,NaN,NaN,NaN,NaN,NaN,NaN,NaN,NaN,NaN,NaN,NaN,NaN
2164577,1.58326E+12,0.96,0.07,-0.05,0,-1,0,0,0,0,0,0,0.84,1.25,2.89,0,0,0,0,0,0,0,0,0,0,12.992236,80.230309,0,30.2,10,0,0,-1,0,0,0,0
2164597,1.58326E+12,0.96,0.06,-0.05,0,-1,0,0,0,0,0,0,0.84,1.25,2.89,0,0,0,0,0,0,0,0,0,0,NaN,NaN,NaN,NaN,NaN,NaN,NaN,NaN,NaN,NaN,NaN,NaN
2164617,1.58326E+12,0.95,0.06,-0.05,0,-1,0,0,0,0,0,0,0.84,1.25,2.89,0,0,0,0,0,0,0,0,0,0,NaN,NaN,NaN,NaN,NaN,NaN,NaN,NaN,NaN,NaN,NaN,NaN
2164637,1.58326E+12,0.95,0.06,-0.05,0,-1,0,0,0,0,0,0,0.84,1.25,2.89,0,0,0,0,0,0,0,0,0,0,NaN,NaN,NaN,NaN,NaN,NaN,NaN,NaN,NaN,NaN,NaN,NaN
2164657,1.58326E+12,0.95,0.06,-0.05,0,-1,0,0,0,0,0,0,0.83,1.27,2.88,0,0,0,0,0,0,0,0,0,0,NaN,NaN,NaN,NaN,NaN,NaN,NaN,NaN,NaN,NaN,NaN,NaN
2164677,1.58326E+12,0.95,0.06,-0.04,0,-1,0,0,0,0,0,0,0.83,1.27,2.88,0,0,0,0,0,0,0,0,0,0,12.992236,80.230309,0,30.2,10,0,0,-1,0,0,0,0
2164697,1.58326E+12,0.95,0.06,-0.04,0,0,0,0,0,0,0,0,0.83,1.27,2.88,0,0,0,0,0,0,0,0,0,0,NaN,NaN,NaN,NaN,NaN,NaN,NaN,NaN,NaN,NaN,NaN,NaN
2164717,1.58326E+12,0.95,0.05,-0.04,0,0,0,0,0,0,0,0,0.83,1.27,2.88,0,0,0,0,0,0,0,0,0,0,NaN,NaN,NaN,NaN,NaN,NaN,NaN,NaN,NaN,NaN,NaN,NaN
2164737,1.58326E+12,0.95,0.05,-0.05,0,0,0,0,0,0,0,0,0.83,1.27,2.88,0,0,0,0,0,0,0,0,0,0,NaN,NaN,NaN,NaN,NaN,NaN,NaN,NaN,NaN,NaN,NaN,NaN
2164757,1.58326E+12,0.94,0.05,-0.05,0,0,0,0,0,0,0,0,0.83,1.27,2.88,0,0,0,0,0,0,0,0,0,0,NaN,NaN,NaN,NaN,NaN,NaN,NaN,NaN,NaN,NaN,NaN,NaN
2164777,1.58326E+12,0.94,0.06,-0.05,0,0,0,0,0,0,0,0,0.83,1.3,2.89,0,0,0,0,0,0,0,0,0,0,12.992236,80.230309,0,30.2,10,0,0,-1,0,0,0,0
2164797,1.58326E+12,0.95,0.06,-0.04,0,0,0,0,0,0,0,0,0.83,1.3,2.89,0,0,0,0,0,0,0,0,0,0,NaN,NaN,NaN,NaN,NaN,NaN,NaN,NaN,NaN,NaN,NaN,NaN
2164817,1.58326E+12,0.95,0.06,-0.04,0,0,0,0,0,0,0,0,0.83,1.3,2.89,0,0,0,0,0,0,0,0,0,0,NaN,NaN,NaN,NaN,NaN,NaN,NaN,NaN,NaN,NaN,NaN,NaN
2164837,1.58326E+12,0.94,0.06,-0.03,0,0,0,0,0,0,0,0,0.83,1.3,2.89,0,0,0,0,0,0,0,0,0,0,NaN,NaN,NaN,NaN,NaN,NaN,NaN,NaN,NaN,NaN,NaN,NaN
2164857,1.58326E+12,0.94,0.06,-0.03,0,0,0,0,0,0,0,0,0.83,1.3,2.89,0,0,0,0,0,0,0,0,0,0,NaN,NaN,NaN,NaN,NaN,NaN,NaN,NaN,NaN,NaN,NaN,NaN
2164877,1.58326E+12,0.94,0.06,-0.04,0,0,0,0,0,0,0,0,0.83,1.32,2.89,0,0,0,0,0,0,0,0,0,0,12.992236,80.230309,0,30.2,10,0,0,-1,0,0,0,0
2164897,1.58326E+12,0.94,0.06,-0.04,0,0,0,0,0,0,0,0,0.83,1.32,2.89,0,0,0,0,0,0,0,0,0,0,NaN,NaN,NaN,NaN,NaN,NaN,NaN,NaN,NaN,NaN,NaN,NaN
2164917,1.58326E+12,0.94,0.07,-0.05,0,0,0,0,0,0,0,0,0.83,1.32,2.89,0,0,0,0,0,0,0,0,0,0,NaN,NaN,NaN,NaN,NaN,NaN,NaN,NaN,NaN,NaN,NaN,NaN
2164937,1.58326E+12,0.93,0.07,-0.05,0,0,0,0,0,0,0,0,0.83,1.32,2.89,0,0,0,0,0,0,0,0,0,0,NaN,NaN,NaN,NaN,NaN,NaN,NaN,NaN,NaN,NaN,NaN,NaN
2164957,1.58326E+12,0.93,0.07,-0.05,0,0,0,0,0,0,0,0,0.83,1.32,2.89,0,0,0,0,0,0,0,0,0,0,NaN,NaN,NaN,NaN,NaN,NaN,NaN,NaN,NaN,NaN,NaN,NaN
2164977,1.58326E+12,0.93,0.07,-0.05,0,0,0,0,0,0,0,0,0.83,1.34,2.89,0,0,0,0,0,0,0,0,0,0,12.992236,80.230309,0,30.2,10,0,0,-1,0,0,0,0
2164997,1.58326E+12,0.94,0.07,-0.05,0,0,0,0,0,0,0,0,0.83,1.34,2.89,0,0,0,0,0,0,0,0,0,0,NaN,NaN,NaN,NaN,NaN,NaN,NaN,NaN,NaN,NaN,NaN,NaN
2165017,1.58326E+12,0.94,0.07,-0.05,0,0,0,0,0,0,0,0,0.83,1.34,2.89,0,0,0,0,0,0,0,0,0,0,NaN,NaN,NaN,NaN,NaN,NaN,NaN,NaN,NaN,NaN,NaN,NaN
2165037,1.58326E+12,0.93,0.07,-0.06,0,0,0,0,0,0,0,0,0.83,1.34,2.89,0,0,0,0,0,0,0,0,0,0,NaN,NaN,NaN,NaN,NaN,NaN,NaN,NaN,NaN,NaN,NaN,NaN
2165057,1.58326E+12,0.93,0.06,-0.06,0,0,0,0,0,0,0,0,0.83,1.34,2.89,0,0,0,0,0,0,0,0,0,0,NaN,NaN,NaN,NaN,NaN,NaN,NaN,NaN,NaN,NaN,NaN,NaN
2165077,1.58326E+12,0.93,0.06,-0.07,0,0,0,0,0,0,0,0,1.03,1.36,3.1,0,0,0,0,0,0,0,0,0,0,12.992236,80.230309,0,30.2,10,0,0,-1,0,0,0,0
2165097,1.58326E+12,0.93,0.06,-0.07,0,0,0,0,0,0,0,0,1.03,1.36,3.1,0,0,0,0,0,0,0,0,0,0,NaN,NaN,NaN,NaN,NaN,NaN,NaN,NaN,NaN,NaN,NaN,NaN
2165117,1.58326E+12,0.93,0.06,-0.07,0,0,0,0,0,0,0,0,1.03,1.36,3.1,0,0,0,0,0,0,0,0,0,0,NaN,NaN,NaN,NaN,NaN,NaN,NaN,NaN,NaN,NaN,NaN,NaN
2165137,1.58326E+12,0.93,0.06,-0.08,0,0,0,0,0,0,0,0,1.03,1.36,3.1,0,0,0,0,0,0,0,0,0,0,NaN,NaN,NaN,NaN,NaN,NaN,NaN,NaN,NaN,NaN,NaN,NaN
2165157,1.58326E+12,0.93,0.06,-0.07,0,-1,0,0,0,0,0,0,1.03,1.36,3.1,0,0,0,0,0,0,0,0,0,0,NaN,NaN,NaN,NaN,NaN,NaN,NaN,NaN,NaN,NaN,NaN,NaN
2165177,1.58326E+12,0.93,0.06,-0.08,0,-1,0,0,0,0,0,0,0.93,1.36,2.99,0,0,0,0,0,0,0,0,0,0,12.992236,80.230309,0,30.2,10,0,0,-1,0,0,0,0
2165197,1.58326E+12,0.94,0.06,-0.07,0,-1,0,0,0,0,0,0,0.93,1.36,2.99,0,0,0,0,0,0,0,0,0,0,NaN,NaN,NaN,NaN,NaN,NaN,NaN,NaN,NaN,NaN,NaN,NaN
2165217,1.58326E+12,0.94,0.07,-0.05,0,-1,0,0,0,0,0,0,0.93,1.36,2.99,0,0,0,0,0,0,0,0,0,0,NaN,NaN,NaN,NaN,NaN,NaN,NaN,NaN,NaN,NaN,NaN,NaN
2165237,1.58326E+12,0.93,0.07,0,0,-1,0,0,0,0,0,0,0.93,1.36,2.99,0,0,0,0,0,0,0,0,0,0,NaN,NaN,NaN,NaN,NaN,NaN,NaN,NaN,NaN,NaN,NaN,NaN
2165257,1.58326E+12,0.94,0.06,0,0,1,0,0,0,0,0,0,0.93,1.36,2.99,0,0,0,0,0,0,0,0,0,0,NaN,NaN,NaN,NaN,NaN,NaN,NaN,NaN,NaN,NaN,NaN,NaN
2165277,1.58326E+12,0.93,0.06,0,0,2,0,0,0,0,0,0,0.98,1.37,3.04,0,0,0,0,0,0,0,0,0,0,12.992236,80.230309,0,30.2,10,0,0,-1,0,0,0,0
2165297,1.58326E+12,0.93,0.07,0,0,2,0,0,0,0,0,0,0.98,1.37,3.04,0,0,0,0,0,0,0,0,0,0,NaN,NaN,NaN,NaN,NaN,NaN,NaN,NaN,NaN,NaN,NaN,NaN
2165317,1.58326E+12,0.97,0.06,-0.06,0,1,0,0,0,0,0,0,0.98,1.37,3.04,0,0,0,0,0,0,0,0,0,0,NaN,NaN,NaN,NaN,NaN,NaN,NaN,NaN,NaN,NaN,NaN,NaN
2165337,1.58326E+12,1,0.06,-0.03,0,2,0,0,0,0,0,0,0.98,1.37,3.04,0,0,0,0,0,0,0,0,0,0,NaN,NaN,NaN,NaN,NaN,NaN,NaN,NaN,NaN,NaN,NaN,NaN
2165357,1.58326E+12,0.98,0.07,-0.01,0,2,0,0,0,0,0,0,0.98,1.37,3.04,0,0,0,0,0,0,0,0,0,0,NaN,NaN,NaN,NaN,NaN,NaN,NaN,NaN,NaN,NaN,NaN,NaN
2165377,1.58326E+12,0.99,0.07,-0.01,0,2,0,0,0,0,0,0,0.9,1.41,2.95,0,0,0,0,0,0,0,0,0,0,12.992236,80.230309,0,30.2,10,0,0,-1,0,0,0,0
2165397,1.58326E+12,0.98,0.07,-0.01,0,1,0,0,0,0,0,0,0.9,1.41,2.95,0,0,0,0,0,0,0,0,0,0,NaN,NaN,NaN,NaN,NaN,NaN,NaN,NaN,NaN,NaN,NaN,NaN
2165417,1.58326E+12,0.97,0.06,-0.02,0,1,0,0,0,0,0,0,0.9,1.41,2.95,0,0,0,0,0,0,0,0,0,0,NaN,NaN,NaN,NaN,NaN,NaN,NaN,NaN,NaN,NaN,NaN,NaN
2165437,1.58326E+12,0.97,0.06,-0.03,0,1,0,0,0,0,0,0,0.9,1.41,2.95,0,0,0,0,0,0,0,0,0,0,NaN,NaN,NaN,NaN,NaN,NaN,NaN,NaN,NaN,NaN,NaN,NaN
2165457,1.58326E+12,0.97,0.07,-0.04,0,1,0,0,0,0,0,0,0.9,1.41,2.95,0,0,0,0,0,0,0,0,0,0,NaN,NaN,NaN,NaN,NaN,NaN,NaN,NaN,NaN,NaN,NaN,NaN
2165477,1.58326E+12,0.97,0.08,-0.03,0,1,0,0,0,0,0,0,0.89,1.43,2.95,0,0,0,0,0,0,0,0,0,0,12.992236,80.230309,0,30.2,10,0,0,-1,0,0,0,0
2165497,1.58326E+12,0.96,0.08,-0.03,0,1,0,0,0,0,0,0,0.89,1.43,2.95,0,0,0,0,0,0,0,0,0,0,NaN,NaN,NaN,NaN,NaN,NaN,NaN,NaN,NaN,NaN,NaN,NaN
2165517,1.58326E+12,0.96,0.08,-0.04,0,0,0,0,0,0,0,0,0.89,1.43,2.95,0,0,0,0,0,0,0,0,0,0,NaN,NaN,NaN,NaN,NaN,NaN,NaN,NaN,NaN,NaN,NaN,NaN
2165537,1.58326E+12,0.96,0.07,-0.04,0,1,0,0,0,0,0,0,0.89,1.43,2.95,0,0,0,0,0,0,0,0,0,0,NaN,NaN,NaN,NaN,NaN,NaN,NaN,NaN,NaN,NaN,NaN,NaN
2165557,1.58326E+12,0.95,0.08,-0.04,0,1,0,0,0,0,0,0,0.89,1.43,2.95,0,0,0,0,0,0,0,0,0,0,NaN,NaN,NaN,NaN,NaN,NaN,NaN,NaN,NaN,NaN,NaN,NaN
2165577,1.58326E+12,0.95,0.08,-0.03,0,1,0,0,0,0,0,0,0.96,1.43,3.02,0,0,0,0,0,0,0,0,0,0,12.992236,80.230309,0,30.2,10,0,0,-1,0,0,0,0
2165597,1.58326E+12,0.95,0.07,-0.04,0,1,0,0,0,0,0,0,0.96,1.43,3.02,0,0,0,0,0,0,0,0,0,0,NaN,NaN,NaN,NaN,NaN,NaN,NaN,NaN,NaN,NaN,NaN,NaN
2165617,1.58326E+12,0.95,0.06,-0.04,0,1,0,0,0,0,0,0,0.96,1.43,3.02,0,0,0,0,0,0,0,0,0,0,NaN,NaN,NaN,NaN,NaN,NaN,NaN,NaN,NaN,NaN,NaN,NaN
2165637,1.58326E+12,0.95,0.06,-0.05,0,1,0,0,0,0,0,0,0.96,1.43,3.02,0,0,0,0,0,0,0,0,0,0,NaN,NaN,NaN,NaN,NaN,NaN,NaN,NaN,NaN,NaN,NaN,NaN
2165657,1.58326E+12,0.94,0.06,-0.05,0,1,0,0,0,0,0,0,0.96,1.43,3.02,0,0,0,0,0,0,0,0,0,0,NaN,NaN,NaN,NaN,NaN,NaN,NaN,NaN,NaN,NaN,NaN,NaN
2165677,1.58326E+12,0.94,0.06,-0.05,0,1,0,0,0,0,0,0,0.89,1.43,2.94,0,0,0,0,0,0,0,0,0,0,12.992236,80.230309,0,30.2,10,0,0,-1,0,0,0,0
2165697,1.58326E+12,0.94,0.06,-0.06,0,0,0,0,0,0,0,0,0.89,1.43,2.94,0,0,0,0,0,0,0,0,0,0,NaN,NaN,NaN,NaN,NaN,NaN,NaN,NaN,NaN,NaN,NaN,NaN
2165717,1.58326E+12,0.94,0.06,-0.06,0,0,0,0,0,0,0,0,0.89,1.43,2.94,0,0,0,0,0,0,0,0,0,0,NaN,NaN,NaN,NaN,NaN,NaN,NaN,NaN,NaN,NaN,NaN,NaN
2165737,1.58326E+12,0.94,0.06,-0.06,0,0,0,0,0,0,0,0,0.89,1.43,2.94,0,0,0,0,0,0,0,0,0,0,NaN,NaN,NaN,NaN,NaN,NaN,NaN,NaN,NaN,NaN,NaN,NaN
2165757,1.58326E+12,0.94,0.06,-0.06,0,0,0,0,0,0,0,0,0.89,1.43,2.94,0,0,0,0,0,0,0,0,0,0,NaN,NaN,NaN,NaN,NaN,NaN,NaN,NaN,NaN,NaN,NaN,NaN
2165777,1.58326E+12,0.95,0.06,-0.06,0,0,0,0,0,0,0,0,0.89,1.43,2.95,0,0,0,0,0,0,0,0,0,0,12.992236,80.230309,0,30.2,10,0,0,-1,0,0,0,0
2165797,1.58326E+12,0.95,0.07,-0.08,0,0,0,0,0,0,0,0,0.89,1.43,2.95,0,0,0,0,0,0,0,0,0,0,NaN,NaN,NaN,NaN,NaN,NaN,NaN,NaN,NaN,NaN,NaN,NaN
2165817,1.58326E+12,0.95,0.07,-0.1,0,0,0,0,0,0,0,0,0.89,1.43,2.95,0,0,0,0,0,0,0,0,0,0,NaN,NaN,NaN,NaN,NaN,NaN,NaN,NaN,NaN,NaN,NaN,NaN
2165837,1.58326E+12,0.93,0.07,-0.12,0,-1,0,0,0,0,0,0,0.89,1.43,2.95,0,0,0,0,0,0,0,0,0,0,NaN,NaN,NaN,NaN,NaN,NaN,NaN,NaN,NaN,NaN,NaN,NaN
2165857,1.58326E+12,0.92,0.07,-0.12,0,-1,0,0,0,0,0,0,0.89,1.43,2.95,0,0,0,0,0,0,0,0,0,0,NaN,NaN,NaN,NaN,NaN,NaN,NaN,NaN,NaN,NaN,NaN,NaN
2165877,1.58326E+12,0.92,0.07,-0.12,0,-1,0,0,0,0,0,0,0.93,1.44,2.98,0,0,0,0,0,0,0,0,0,0,12.992236,80.230309,0,30.2,10,0,0,-1,0,0,0,0
2165897,1.58326E+12,0.91,0.03,-0.11,0,-1,0,0,0,0,0,0,0.93,1.44,2.98,0,0,0,0,0,0,0,0,0,0,NaN,NaN,NaN,NaN,NaN,NaN,NaN,NaN,NaN,NaN,NaN,NaN
2165917,1.58326E+12,0.89,0.05,-0.12,0,0,0,0,0,0,0,0,0.93,1.44,2.98,0,0,0,0,0,0,0,0,0,0,NaN,NaN,NaN,NaN,NaN,NaN,NaN,NaN,NaN,NaN,NaN,NaN
2165937,1.58326E+12,0.89,0.04,-0.11,0,-1,0,0,0,0,0,0,0.93,1.44,2.98,0,0,0,0,0,0,0,0,0,0,NaN,NaN,NaN,NaN,NaN,NaN,NaN,NaN,NaN,NaN,NaN,NaN
2165957,1.58326E+12,0.88,0.04,-0.12,0,0,0,0,0,0,0,0,0.93,1.44,2.98,0,0,0,0,0,0,0,0,0,0,NaN,NaN,NaN,NaN,NaN,NaN,NaN,NaN,NaN,NaN,NaN,NaN
2165977,1.58326E+12,0.89,0.04,-0.12,0,0,0,0,0,0,0,0,0.93,1.44,2.98,0,0,0,0,0,0,0,0,0,0,12.992236,80.230309,0,30.2,10,0,0,-1,0,0,0,0
2165997,1.58326E+12,0.89,0.04,-0.11,0,0,0,0,0,0,0,0,0.93,1.44,2.98,0,0,0,0,0,0,0,0,0,0,NaN,NaN,NaN,NaN,NaN,NaN,NaN,NaN,NaN,NaN,NaN,NaN
2166017,1.58326E+12,0.9,0.04,-0.12,0,0,0,0,0,0,0,0,1,1.43,3.05,0,0,0,0,0,0,0,0,0,0,NaN,NaN,NaN,NaN,NaN,NaN,NaN,NaN,NaN,NaN,NaN,NaN
2166037,1.58326E+12,0.91,0.05,-0.11,0,0,0,0,0,0,0,0,1,1.43,3.05,0,0,0,0,0,0,0,0,0,0,NaN,NaN,NaN,NaN,NaN,NaN,NaN,NaN,NaN,NaN,NaN,NaN
2166057,1.58326E+12,0.91,0.06,-0.11,0,0,0,0,0,0,0,0,1,1.43,3.05,0,0,0,0,0,0,0,0,0,0,NaN,NaN,NaN,NaN,NaN,NaN,NaN,NaN,NaN,NaN,NaN,NaN
2166077,1.58326E+12,0.91,0.06,-0.1,0,0,0,0,0,0,0,0,1,1.43,3.05,0,0,0,0,0,0,0,0,0,0,12.992236,80.230309,0,30.2,10,0,0,-1,0,0,0,0
2166097,1.58326E+12,0.91,0.05,-0.1,0,0,0,0,0,0,0,0,1,1.43,3.05,0,0,0,0,0,0,0,0,0,0,NaN,NaN,NaN,NaN,NaN,NaN,NaN,NaN,NaN,NaN,NaN,NaN
2166117,1.58326E+12,0.92,0.06,-0.09,0,0,0,0,0,0,0,0,0.99,1.45,3.06,0,0,0,0,0,0,0,0,0,0,NaN,NaN,NaN,NaN,NaN,NaN,NaN,NaN,NaN,NaN,NaN,NaN
2166137,1.58326E+12,0.92,0.06,-0.06,0,0,0,0,0,0,0,0,0.99,1.45,3.06,0,0,0,0,0,0,0,0,0,0,NaN,NaN,NaN,NaN,NaN,NaN,NaN,NaN,NaN,NaN,NaN,NaN
2166157,1.58326E+12,0.93,0.06,-0.07,0,0,0,0,0,0,0,0,0.99,1.45,3.06,0,0,0,0,0,0,0,0,0,0,NaN,NaN,NaN,NaN,NaN,NaN,NaN,NaN,NaN,NaN,NaN,NaN
2166177,1.58326E+12,0.94,0.05,-0.07,0,0,0,0,0,0,0,0,0.99,1.45,3.06,0,0,0,0,0,0,0,0,0,0,12.992236,80.230309,0,30.2,10,0,0,-1,0,0,0,0
2166197,1.58326E+12,0.94,0.05,-0.07,0,0,0,0,0,0,0,0,0.99,1.45,3.06,0,0,0,0,0,0,0,0,0,0,NaN,NaN,NaN,NaN,NaN,NaN,NaN,NaN,NaN,NaN,NaN,NaN
2166217,1.58326E+12,0.94,0.05,-0.07,0,0,0,0,0,0,0,0,0.91,1.44,2.96,0,0,0,0,0,0,0,0,0,0,NaN,NaN,NaN,NaN,NaN,NaN,NaN,NaN,NaN,NaN,NaN,NaN
2166237,1.58326E+12,0.94,0.05,-0.07,0,0,0,0,0,0,0,0,0.91,1.44,2.96,0,0,0,0,0,0,0,0,0,0,NaN,NaN,NaN,NaN,NaN,NaN,NaN,NaN,NaN,NaN,NaN,NaN
2166257,1.58326E+12,0.94,0.05,-0.07,0,0,0,0,0,0,0,0,0.91,1.44,2.96,0,0,0,0,0,0,0,0,0,0,NaN,NaN,NaN,NaN,NaN,NaN,NaN,NaN,NaN,NaN,NaN,NaN
2166277,1.58326E+12,0.94,0.05,-0.07,0,0,0,0,0,0,0,0,0.91,1.44,2.96,0,0,0,0,0,0,0,0,0,0,12.992236,80.230309,0,30.2,10,0,0,-1,0,0,0,0
2166297,1.58326E+12,0.94,0.05,-0.08,0,0,0,0,0,0,0,0,0.91,1.44,2.96,0,0,0,0,0,0,0,0,0,0,NaN,NaN,NaN,NaN,NaN,NaN,NaN,NaN,NaN,NaN,NaN,NaN
2166317,1.58326E+12,0.93,0.05,-0.08,0,0,0,0,0,0,0,0,0.91,1.45,2.95,0,0,0,0,0,0,0,0,0,0,NaN,NaN,NaN,NaN,NaN,NaN,NaN,NaN,NaN,NaN,NaN,NaN
2166337,1.58326E+12,0.94,0.05,-0.08,0,0,0,0,0,0,0,0,0.91,1.45,2.95,0,0,0,0,0,0,0,0,0,0,NaN,NaN,NaN,NaN,NaN,NaN,NaN,NaN,NaN,NaN,NaN,NaN
2166357,1.58326E+12,0.94,0.06,-0.08,0,-1,0,0,0,0,0,0,0.91,1.45,2.95,0,0,0,0,0,0,0,0,0,0,NaN,NaN,NaN,NaN,NaN,NaN,NaN,NaN,NaN,NaN,NaN,NaN
2166377,1.58326E+12,0.93,0.06,-0.07,0,0,0,0,0,0,0,0,0.91,1.45,2.95,0,0,0,0,0,0,0,0,0,0,12.992236,80.230309,0,30.2,10,0,0,-1,0,0,0,0
2166397,1.58326E+12,0.93,0.06,-0.06,0,0,0,0,0,0,0,0,0.91,1.45,2.95,0,0,0,0,0,0,0,0,0,0,NaN,NaN,NaN,NaN,NaN,NaN,NaN,NaN,NaN,NaN,NaN,NaN
2166417,1.58326E+12,0.94,0.06,-0.08,0,0,0,0,0,0,0,0,0.99,1.44,3.05,0,0,0,0,0,0,0,0,0,0,NaN,NaN,NaN,NaN,NaN,NaN,NaN,NaN,NaN,NaN,NaN,NaN
2166437,1.58326E+12,0.95,0.06,-0.08,0,0,0,0,0,0,0,0,0.99,1.44,3.05,0,0,0,0,0,0,0,0,0,0,NaN,NaN,NaN,NaN,NaN,NaN,NaN,NaN,NaN,NaN,NaN,NaN
2166457,1.58326E+12,0.95,0.06,-0.07,0,0,0,0,0,0,0,0,0.99,1.44,3.05,0,0,0,0,0,0,0,0,0,0,NaN,NaN,NaN,NaN,NaN,NaN,NaN,NaN,NaN,NaN,NaN,NaN
2166477,1.58326E+12,0.95,0.06,-0.06,0,0,0,0,0,0,0,0,0.99,1.44,3.05,0,0,0,0,0,0,0,0,0,0,12.992236,80.230309,0,30.2,10,0,0,-1,0,0,0,0
2166497,1.58326E+12,0.95,0.05,-0.07,0,0,0,0,0,0,0,0,0.99,1.44,3.05,0,0,0,0,0,0,0,0,0,0,NaN,NaN,NaN,NaN,NaN,NaN,NaN,NaN,NaN,NaN,NaN,NaN
2166517,1.58326E+12,0.94,0.05,-0.07,0,0,0,0,0,0,0,0,0.91,1.44,2.94,0,0,0,0,0,0,0,0,0,0,NaN,NaN,NaN,NaN,NaN,NaN,NaN,NaN,NaN,NaN,NaN,NaN
2166537,1.58326E+12,0.94,0.06,-0.07,0,0,0,0,0,0,0,0,0.91,1.44,2.94,0,0,0,0,0,0,0,0,0,0,NaN,NaN,NaN,NaN,NaN,NaN,NaN,NaN,NaN,NaN,NaN,NaN
2166557,1.58326E+12,0.93,0.06,-0.07,0,0,0,0,0,0,0,0,0.91,1.44,2.94,0,0,0,0,0,0,0,0,0,0,NaN,NaN,NaN,NaN,NaN,NaN,NaN,NaN,NaN,NaN,NaN,NaN
2166577,1.58326E+12,0.93,0.06,-0.07,0,0,0,0,0,0,0,0,0.91,1.44,2.94,0,0,0,0,0,0,0,0,0,0,12.992236,80.230309,0,30.2,10,0,0,-1,0,0,0,0
2166597,1.58326E+12,0.92,0.06,-0.08,0,0,0,0,0,0,0,0,0.91,1.44,2.94,0,0,0,0,0,0,0,0,0,0,NaN,NaN,NaN,NaN,NaN,NaN,NaN,NaN,NaN,NaN,NaN,NaN
2166617,1.58326E+12,0.92,0.06,-0.08,0,0,0,0,0,0,0,0,1,1.44,3.04,0,0,0,0,0,0,0,0,0,0,NaN,NaN,NaN,NaN,NaN,NaN,NaN,NaN,NaN,NaN,NaN,NaN
2166637,1.58326E+12,0.92,0.07,-0.09,0,0,0,0,0,0,0,0,1,1.44,3.04,0,0,0,0,0,0,0,0,0,0,NaN,NaN,NaN,NaN,NaN,NaN,NaN,NaN,NaN,NaN,NaN,NaN
2166657,1.58326E+12,0.91,0.07,-0.09,0,0,0,0,0,0,0,0,1,1.44,3.04,0,0,0,0,0,0,0,0,0,0,NaN,NaN,NaN,NaN,NaN,NaN,NaN,NaN,NaN,NaN,NaN,NaN
2166677,1.58326E+12,0.92,0.07,-0.08,0,1,0,0,0,0,0,0,1,1.44,3.04,0,0,0,0,0,0,0,0,0,0,12.992236,80.230309,0,30.2,10,0,0,-1,0,0,0,0
2166697,1.58326E+12,0.91,0.06,-0.09,0,1,0,0,0,0,0,0,1,1.44,3.04,0,0,0,0,0,0,0,0,0,0,NaN,NaN,NaN,NaN,NaN,NaN,NaN,NaN,NaN,NaN,NaN,NaN
2166717,1.58326E+12,0.9,0.06,-0.1,0,1,0,0,0,0,0,0,0.94,1.44,2.98,0,0,0,0,0,0,0,0,0,0,NaN,NaN,NaN,NaN,NaN,NaN,NaN,NaN,NaN,NaN,NaN,NaN
2166737,1.58326E+12,0.91,0.05,-0.09,0,0,0,0,0,0,0,0,0.94,1.44,2.98,0,0,0,0,0,0,0,0,0,0,NaN,NaN,NaN,NaN,NaN,NaN,NaN,NaN,NaN,NaN,NaN,NaN
2166757,1.58326E+12,0.92,0.04,-0.14,0,0,0,0,0,0,0,0,0.94,1.44,2.98,0,0,0,0,0,0,0,0,0,0,NaN,NaN,NaN,NaN,NaN,NaN,NaN,NaN,NaN,NaN,NaN,NaN
2166777,1.58326E+12,0.9,0.04,-0.16,0,0,0,0,0,0,0,0,0.94,1.44,2.98,0,0,0,0,0,0,0,0,0,0,12.992236,80.230309,0,30.2,10,0,0,-1,0,0,0,0
2166797,1.58326E+12,0.91,0.02,-0.21,0,0,0,0,0,0,0,0,0.94,1.44,2.98,0,0,0,0,0,0,0,0,0,0,NaN,NaN,NaN,NaN,NaN,NaN,NaN,NaN,NaN,NaN,NaN,NaN
2166817,1.58326E+12,0.88,0.06,-0.34,0,0,0,0,0,0,0,0,0.91,1.44,2.94,0,0,0,0,0,0,0,0,0,0,NaN,NaN,NaN,NaN,NaN,NaN,NaN,NaN,NaN,NaN,NaN,NaN
2166837,1.58326E+12,0.85,0.07,-0.33,0,-2,0,0,0,0,0,0,0.91,1.44,2.94,0,0,0,0,0,0,0,0,0,0,NaN,NaN,NaN,NaN,NaN,NaN,NaN,NaN,NaN,NaN,NaN,NaN
2166857,1.58326E+12,0.85,0.04,-0.32,-1,-3,0,0,0,0,0,0,0.91,1.44,2.94,0,0,0,0,0,0,0,0,0,0,NaN,NaN,NaN,NaN,NaN,NaN,NaN,NaN,NaN,NaN,NaN,NaN
2166877,1.58326E+12,0.87,0.03,-0.4,0,-2,-1,0,0,0,0,0,0.91,1.44,2.94,0,0,0,0,0,0,0,0,0,0,12.992236,80.230309,0,30.2,10,0,0,-1,0,0,0,0
2166897,1.58326E+12,0.87,-0.01,-0.26,0,-1,-2,0,0,0,0,0,0.91,1.44,2.94,0,0,0,0,0,0,0,0,0,0,NaN,NaN,NaN,NaN,NaN,NaN,NaN,NaN,NaN,NaN,NaN,NaN
2166917,1.58326E+12,0.88,-0.04,-0.31,0,-3,0,0,0,0,0,0,0.9,1.45,2.94,0,0,0,0,0,0,0,0,0,0,NaN,NaN,NaN,NaN,NaN,NaN,NaN,NaN,NaN,NaN,NaN,NaN
2166937,1.58326E+12,0.85,-0.01,-0.2,0,-1,-1,0,0,0,0,0,0.9,1.45,2.94,0,0,0,0,0,0,0,0,0,0,NaN,NaN,NaN,NaN,NaN,NaN,NaN,NaN,NaN,NaN,NaN,NaN
2166957,1.58326E+12,0.93,0,-0.32,0,-2,1,0,0,0,0,0,0.9,1.45,2.94,0,0,0,0,0,0,0,0,0,0,NaN,NaN,NaN,NaN,NaN,NaN,NaN,NaN,NaN,NaN,NaN,NaN
2166977,1.58326E+12,0.89,-0.04,-0.2,0,-2,-1,0,0,0,0,0,0.9,1.45,2.94,0,0,0,0,0,0,0,0,0,0,12.992236,80.230309,0,30.2,10,0,0,-1,0,0,0,0
2166997,1.58326E+12,0.94,-0.06,-0.28,0,-2,1,0,0,0,0,0,0.9,1.45,2.94,0,0,0,0,0,0,0,0,0,0,NaN,NaN,NaN,NaN,NaN,NaN,NaN,NaN,NaN,NaN,NaN,NaN
2167017,1.58326E+12,0.96,-0.05,-0.25,0,1,0,0,0,0,0,0,0.9,1.45,2.94,0,0,0,0,0,0,0,0,0,0,NaN,NaN,NaN,NaN,NaN,NaN,NaN,NaN,NaN,NaN,NaN,NaN
2167037,1.58326E+12,0.91,0,-0.15,0,1,0,0,0,0,0,0,0.94,1.44,2.99,0,0,0,0,0,0,0,0,0,0,NaN,NaN,NaN,NaN,NaN,NaN,NaN,NaN,NaN,NaN,NaN,NaN
2167057,1.58326E+12,0.85,0.02,-0.11,0,-1,0,0,0,0,0,0,0.94,1.44,2.99,0,0,0,0,0,0,0,0,0,0,NaN,NaN,NaN,NaN,NaN,NaN,NaN,NaN,NaN,NaN,NaN,NaN
2167077,1.58326E+12,0.88,0.04,-0.19,0,-2,0,0,0,0,0,0,0.94,1.44,2.99,0,0,0,0,0,0,0,0,0,0,12.992236,80.230309,0,30.2,10,0,0,-1,0,0,0,0
2167097,1.58326E+12,0.9,0.03,-0.28,0,-3,1,0,0,0,0,0,0.94,1.44,2.99,0,0,0,0,0,0,0,0,0,0,NaN,NaN,NaN,NaN,NaN,NaN,NaN,NaN,NaN,NaN,NaN,NaN
2167117,1.58326E+12,0.91,0.05,-0.29,0,-4,0,0,0,0,0,0,0.94,1.44,2.99,0,0,0,0,0,0,0,0,0,0,NaN,NaN,NaN,NaN,NaN,NaN,NaN,NaN,NaN,NaN,NaN,NaN
2167137,1.58326E+12,0.94,0.07,-0.28,0,-5,1,0,0,0,0,0,0.9,1.45,2.94,0,0,0,0,0,0,0,0,0,0,NaN,NaN,NaN,NaN,NaN,NaN,NaN,NaN,NaN,NaN,NaN,NaN
2167157,1.58326E+12,0.96,0.09,-0.23,0,-5,1,0,0,0,0,0,0.9,1.45,2.94,0,0,0,0,0,0,0,0,0,0,NaN,NaN,NaN,NaN,NaN,NaN,NaN,NaN,NaN,NaN,NaN,NaN
2167177,1.58326E+12,1,0.08,-0.24,0,-4,1,0,0,0,0,0,0.9,1.45,2.94,0,0,0,0,0,0,0,0,0,0,12.992236,80.230309,0,30.2,10,0,0,-1,0,0,0,0
2167197,1.58326E+12,1.02,0.1,-0.27,0,-3,1,0,0,0,0,0,0.9,1.45,2.94,0,0,0,0,0,0,0,0,0,0,NaN,NaN,NaN,NaN,NaN,NaN,NaN,NaN,NaN,NaN,NaN,NaN
2167217,1.58326E+12,1.04,0.09,-0.27,0,-3,2,0,0,0,0,0,0.9,1.45,2.94,0,0,0,0,0,0,0,0,0,0,NaN,NaN,NaN,NaN,NaN,NaN,NaN,NaN,NaN,NaN,NaN,NaN
2167237,1.58326E+12,1.04,0.08,-0.28,0,-3,2,0,0,0,0,0,0.92,1.44,2.97,0,0,0,0,0,0,0,0,0,0,NaN,NaN,NaN,NaN,NaN,NaN,NaN,NaN,NaN,NaN,NaN,NaN
2167257,1.58326E+12,1.03,0.07,-0.23,0,-4,1,0,0,0,0,0,0.92,1.44,2.97,0,0,0,0,0,0,0,0,0,0,NaN,NaN,NaN,NaN,NaN,NaN,NaN,NaN,NaN,NaN,NaN,NaN
2167277,1.58326E+12,1.02,0.06,-0.18,0,-4,1,0,0,0,0,0,0.92,1.44,2.97,0,0,0,0,0,0,0,0,0,0,12.992236,80.230309,0,30.2,10,0,0,-1,0,0,0,0
2167297,1.58326E+12,1.03,0.03,-0.18,0,-4,1,0,0,0,0,0,0.92,1.44,2.97,0,0,0,0,0,0,0,0,0,0,NaN,NaN,NaN,NaN,NaN,NaN,NaN,NaN,NaN,NaN,NaN,NaN
2167317,1.58326E+12,1.05,0.04,-0.18,0,-2,1,0,0,0,0,0,0.92,1.44,2.97,0,0,0,0,0,0,0,0,0,0,NaN,NaN,NaN,NaN,NaN,NaN,NaN,NaN,NaN,NaN,NaN,NaN
2167337,1.58326E+12,1.04,0.04,-0.12,0,-3,0,0,0,0,0,0,0.92,1.45,2.95,0,0,0,0,0,0,0,0,0,0,NaN,NaN,NaN,NaN,NaN,NaN,NaN,NaN,NaN,NaN,NaN,NaN
2167357,1.58326E+12,1.01,0,-0.09,0,-4,1,0,0,0,0,0,0.92,1.45,2.95,0,0,0,0,0,0,0,0,0,0,NaN,NaN,NaN,NaN,NaN,NaN,NaN,NaN,NaN,NaN,NaN,NaN
2167377,1.58326E+12,1.01,-0.01,-0.06,0,-4,0,0,0,0,0,0,0.92,1.45,2.95,0,0,0,0,0,0,0,0,0,0,12.992236,80.230309,0,30.2,10,0,0,-1,0,0,0,0
2167397,1.58326E+12,0.98,0.02,-0.05,0,-4,0,0,0,0,0,0,0.92,1.45,2.95,0,0,0,0,0,0,0,0,0,0,NaN,NaN,NaN,NaN,NaN,NaN,NaN,NaN,NaN,NaN,NaN,NaN
2167417,1.58326E+12,0.98,0.01,-0.06,0,-3,0,0,0,0,0,0,0.92,1.45,2.95,0,0,0,0,0,0,0,0,0,0,NaN,NaN,NaN,NaN,NaN,NaN,NaN,NaN,NaN,NaN,NaN,NaN
2167437,1.58326E+12,0.97,-0.01,-0.02,0,-3,-1,0,0,0,0,0,0.86,1.45,2.9,0,0,0,0,0,0,0,0,0,0,NaN,NaN,NaN,NaN,NaN,NaN,NaN,NaN,NaN,NaN,NaN,NaN
2167457,1.58326E+12,0.96,-0.01,0,0,-3,0,0,0,0,0,0,0.86,1.45,2.9,0,0,0,0,0,0,0,0,0,0,NaN,NaN,NaN,NaN,NaN,NaN,NaN,NaN,NaN,NaN,NaN,NaN
2167477,1.58326E+12,0.95,-0.01,0.04,0,-2,-1,0,0,0,0,0,0.86,1.45,2.9,0,0,0,0,0,0,0,0,0,0,12.992236,80.230309,0,30.2,10,0,0,-1,0,0,0,0
2167497,1.58326E+12,0.94,-0.02,0.03,0,-1,-1,0,0,0,0,0,0.86,1.45,2.9,0,0,0,0,0,0,0,0,0,0,NaN,NaN,NaN,NaN,NaN,NaN,NaN,NaN,NaN,NaN,NaN,NaN
2167517,1.58326E+12,0.94,-0.05,0.07,0,0,-2,0,0,0,0,0,0.86,1.45,2.9,0,0,0,0,0,0,0,0,0,0,NaN,NaN,NaN,NaN,NaN,NaN,NaN,NaN,NaN,NaN,NaN,NaN
2167537,1.58326E+12,0.94,-0.07,0.06,0,0,-2,0,0,0,0,0,0.86,1.45,2.89,0,0,0,0,0,0,0,0,0,0,NaN,NaN,NaN,NaN,NaN,NaN,NaN,NaN,NaN,NaN,NaN,NaN
2167557,1.58326E+12,0.93,-0.08,0.11,0,1,-3,0,0,0,0,0,0.86,1.45,2.89,0,0,0,0,0,0,0,0,0,0,NaN,NaN,NaN,NaN,NaN,NaN,NaN,NaN,NaN,NaN,NaN,NaN
2167577,1.58326E+12,0.91,-0.09,0.15,0,1,-2,0,0,0,0,0,0.86,1.45,2.89,0,0,0,0,0,0,0,0,0,0,12.992236,80.230309,0,30.2,10,0,0,-1,0,0,0,0
2167597,1.58326E+12,0.91,-0.09,0.16,0,0,-2,0,0,0,0,0,0.86,1.45,2.89,0,0,0,0,0,0,0,0,0,0,NaN,NaN,NaN,NaN,NaN,NaN,NaN,NaN,NaN,NaN,NaN,NaN
2167617,1.58326E+12,0.91,-0.09,0.16,0,1,-2,0,0,0,0,0,0.86,1.45,2.89,0,0,0,0,0,0,0,0,0,0,NaN,NaN,NaN,NaN,NaN,NaN,NaN,NaN,NaN,NaN,NaN,NaN
2167637,1.58326E+12,0.93,-0.09,0.09,0,3,-1,0,0,0,0,0,0.85,1.45,2.89,0,0,0,0,0,0,0,0,0,0,NaN,NaN,NaN,NaN,NaN,NaN,NaN,NaN,NaN,NaN,NaN,NaN
2167657,1.58326E+12,0.94,-0.06,0.04,0,4,-1,0,0,0,0,0,0.85,1.45,2.89,0,0,0,0,0,0,0,0,0,0,NaN,NaN,NaN,NaN,NaN,NaN,NaN,NaN,NaN,NaN,NaN,NaN
2167677,1.58326E+12,0.96,-0.02,-0.05,0,6,0,0,0,0,0,0,0.85,1.45,2.89,0,0,0,0,0,0,0,0,0,0,12.992236,80.230309,0,30.2,10,0,0,-1,0,0,0,0
2167697,1.58326E+12,0.97,-0.02,-0.14,0,8,-1,0,0,0,0,0,0.85,1.45,2.89,0,0,0,0,0,0,0,0,0,0,NaN,NaN,NaN,NaN,NaN,NaN,NaN,NaN,NaN,NaN,NaN,NaN
2167717,1.58326E+12,0.98,-0.03,-0.19,0,9,-1,0,0,0,0,0,0.85,1.45,2.89,0,0,0,0,0,0,0,0,0,0,NaN,NaN,NaN,NaN,NaN,NaN,NaN,NaN,NaN,NaN,NaN,NaN
2167737,1.58326E+12,0.98,-0.02,-0.26,0,9,-1,0,0,0,0,0,0.83,1.44,2.84,0,0,0,0,0,0,0,0,0,0,NaN,NaN,NaN,NaN,NaN,NaN,NaN,NaN,NaN,NaN,NaN,NaN
2167757,1.58326E+12,0.95,-0.02,-0.29,0,9,-1,0,0,0,0,0,0.83,1.44,2.84,0,0,0,0,0,0,0,0,0,0,NaN,NaN,NaN,NaN,NaN,NaN,NaN,NaN,NaN,NaN,NaN,NaN
2167777,1.58326E+12,0.95,0.01,-0.36,0,9,0,0,0,0,0,0,0.83,1.44,2.84,0,0,0,0,0,0,0,0,0,0,12.992236,80.230309,0,30.2,10,0,0,-1,0,0,0,0
2167797,1.58326E+12,0.91,0.06,-0.35,0,7,0,0,0,0,0,0,0.83,1.44,2.84,0,0,0,0,0,0,0,0,0,0,NaN,NaN,NaN,NaN,NaN,NaN,NaN,NaN,NaN,NaN,NaN,NaN
2167817,1.58326E+12,0.87,0.06,-0.31,0,5,0,0,0,0,0,0,0.83,1.44,2.84,0,0,0,0,0,0,0,0,0,0,NaN,NaN,NaN,NaN,NaN,NaN,NaN,NaN,NaN,NaN,NaN,NaN
2167837,1.58326E+12,0.83,0.07,-0.27,0,3,0,0,0,0,0,0,0.83,1.45,2.82,0,0,0,0,0,0,0,0,0,0,NaN,NaN,NaN,NaN,NaN,NaN,NaN,NaN,NaN,NaN,NaN,NaN
2167857,1.58326E+12,0.8,0.06,-0.21,0,0,-1,0,0,0,0,0,0.83,1.45,2.82,0,0,0,0,0,0,0,0,0,0,NaN,NaN,NaN,NaN,NaN,NaN,NaN,NaN,NaN,NaN,NaN,NaN
2167877,1.58326E+12,0.8,0.06,-0.19,0,-2,-1,0,0,0,0,0,0.83,1.45,2.82,0,0,0,0,0,0,0,0,0,0,12.992236,80.230309,0,30.2,10,0,0,-1,0,0,0,0
2167897,1.58326E+12,0.77,0.06,-0.13,0,-4,-1,0,0,0,0,0,0.83,1.45,2.82,0,0,0,0,0,0,0,0,0,0,NaN,NaN,NaN,NaN,NaN,NaN,NaN,NaN,NaN,NaN,NaN,NaN
2167917,1.58326E+12,0.77,0.06,-0.11,0,-5,-1,0,0,0,0,0,0.83,1.45,2.82,0,0,0,0,0,0,0,0,0,0,NaN,NaN,NaN,NaN,NaN,NaN,NaN,NaN,NaN,NaN,NaN,NaN
2167937,1.58326E+12,0.75,0.06,-0.06,0,-6,-1,0,0,0,0,0,0.82,1.44,2.83,0,0,0,0,0,0,0,0,0,0,NaN,NaN,NaN,NaN,NaN,NaN,NaN,NaN,NaN,NaN,NaN,NaN
2167957,1.58326E+12,0.75,0.05,-0.02,0,-7,-1,0,0,0,0,0,0.82,1.44,2.83,0,0,0,0,0,0,0,0,0,0,NaN,NaN,NaN,NaN,NaN,NaN,NaN,NaN,NaN,NaN,NaN,NaN
2167977,1.58326E+12,0.74,0.05,0.01,0,-7,-1,0,0,0,0,0,0.82,1.44,2.83,0,0,0,0,0,0,0,0,0,0,12.992236,80.230309,0,30.2,10,0,0,-1,0,0,0,0
2167997,1.58326E+12,0.74,0.05,0.04,0,-6,-1,0,0,0,0,0,0.82,1.44,2.83,0,0,0,0,0,0,0,0,0,0,NaN,NaN,NaN,NaN,NaN,NaN,NaN,NaN,NaN,NaN,NaN,NaN
2168017,1.58326E+12,0.74,0.05,0.04,0,-6,-1,0,0,0,0,0,0.82,1.44,2.83,0,0,0,0,0,0,0,0,0,0,NaN,NaN,NaN,NaN,NaN,NaN,NaN,NaN,NaN,NaN,NaN,NaN
2168037,1.58326E+12,0.74,0.05,0.09,0,-6,-1,0,0,0,0,0,0.83,1.45,2.82,0,0,0,0,0,0,0,0,0,0,NaN,NaN,NaN,NaN,NaN,NaN,NaN,NaN,NaN,NaN,NaN,NaN
2168057,1.58326E+12,0.74,0.05,0.09,0,-5,-1,0,0,0,0,0,0.83,1.45,2.82,0,0,0,0,0,0,0,0,0,0,NaN,NaN,NaN,NaN,NaN,NaN,NaN,NaN,NaN,NaN,NaN,NaN
2168077,1.58326E+12,0.73,0.05,0.12,0,-5,-1,0,0,0,0,0,0.83,1.45,2.82,0,0,0,0,0,0,0,0,0,0,12.992236,80.230309,0,30.2,10,0,0,-1,0,0,0,0
2168097,1.58326E+12,0.73,0.05,0.13,0,-4,-1,0,0,0,0,0,0.83,1.45,2.82,0,0,0,0,0,0,0,0,0,0,NaN,NaN,NaN,NaN,NaN,NaN,NaN,NaN,NaN,NaN,NaN,NaN
2168117,1.58326E+12,0.72,0.06,0.16,0,-4,-1,0,0,0,0,0,0.83,1.45,2.82,0,0,0,0,0,0,0,0,0,0,NaN,NaN,NaN,NaN,NaN,NaN,NaN,NaN,NaN,NaN,NaN,NaN
2168137,1.58326E+12,0.71,0.05,0.17,0,-5,-1,0,0,0,0,0,0.82,1.45,2.83,0,0,0,0,0,0,0,0,0,0,NaN,NaN,NaN,NaN,NaN,NaN,NaN,NaN,NaN,NaN,NaN,NaN
2168157,1.58326E+12,0.71,0.06,0.18,0,-6,-1,0,0,0,0,0,0.82,1.45,2.83,0,0,0,0,0,0,0,0,0,0,NaN,NaN,NaN,NaN,NaN,NaN,NaN,NaN,NaN,NaN,NaN,NaN
2168177,1.58326E+12,0.7,0.05,0.19,0,-6,-1,0,0,0,0,0,0.82,1.45,2.83,0,0,0,0,0,0,0,0,0,0,12.992236,80.230309,0,30.2,10,0,0,-1,0,0,0,0
2168197,1.58326E+12,0.7,0.06,0.2,0,-7,-1,0,0,0,0,0,0.82,1.45,2.83,0,0,0,0,0,0,0,0,0,0,NaN,NaN,NaN,NaN,NaN,NaN,NaN,NaN,NaN,NaN,NaN,NaN
2168217,1.58326E+12,0.73,0.07,0.15,0,-6,-1,0,0,0,0,0,0.82,1.45,2.83,0,0,0,0,0,0,0,0,0,0,NaN,NaN,NaN,NaN,NaN,NaN,NaN,NaN,NaN,NaN,NaN,NaN
2168237,1.58326E+12,0.75,0.1,0.1,0,-5,-1,0,0,0,0,0,0.82,1.44,2.83,0,0,0,0,0,0,0,0,0,0,NaN,NaN,NaN,NaN,NaN,NaN,NaN,NaN,NaN,NaN,NaN,NaN
2168257,1.58326E+12,0.79,0.09,0.05,0,-4,0,0,0,0,0,0,0.82,1.44,2.83,0,0,0,0,0,0,0,0,0,0,NaN,NaN,NaN,NaN,NaN,NaN,NaN,NaN,NaN,NaN,NaN,NaN
2168277,1.58326E+12,0.82,0.07,0.01,0,-3,0,0,0,0,0,0,0.82,1.44,2.83,0,0,0,0,0,0,0,0,0,0,12.992236,80.230309,0,30.2,10,0,0,-1,0,0,0,0
2168297,1.58326E+12,0.85,0.05,-0.04,0,-2,0,0,0,0,0,0,0.82,1.44,2.83,0,0,0,0,0,0,0,0,0,0,NaN,NaN,NaN,NaN,NaN,NaN,NaN,NaN,NaN,NaN,NaN,NaN
2168317,1.58326E+12,0.88,0.04,-0.1,0,-1,0,0,0,0,0,0,0.82,1.44,2.83,0,0,0,0,0,0,0,0,0,0,NaN,NaN,NaN,NaN,NaN,NaN,NaN,NaN,NaN,NaN,NaN,NaN
2168337,1.58326E+12,0.88,0.04,-0.13,0,-1,0,0,0,0,0,0,0.82,1.44,2.83,0,0,0,0,0,0,0,0,0,0,NaN,NaN,NaN,NaN,NaN,NaN,NaN,NaN,NaN,NaN,NaN,NaN
2168357,1.58326E+12,0.9,0.06,-0.15,-1,-2,0,0,0,0,0,0,0.82,1.44,2.83,0,0,0,0,0,0,0,0,0,0,NaN,NaN,NaN,NaN,NaN,NaN,NaN,NaN,NaN,NaN,NaN,NaN
2168377,1.58326E+12,0.9,0.07,-0.14,-1,-2,0,0,0,0,0,0,0.82,1.44,2.83,0,0,0,0,0,0,0,0,0,0,12.992236,80.230309,0,30.2,10,0,0,-1,0,0,0,0
2168397,1.58326E+12,0.9,0.06,-0.19,-1,-3,0,0,0,0,0,0,0.82,1.44,2.83,0,0,0,0,0,0,0,0,0,0,NaN,NaN,NaN,NaN,NaN,NaN,NaN,NaN,NaN,NaN,NaN,NaN
2168417,1.58326E+12,0.89,0.06,-0.16,-1,-2,-1,0,0,0,0,0,0.82,1.44,2.83,0,0,0,0,0,0,0,0,0,0,NaN,NaN,NaN,NaN,NaN,NaN,NaN,NaN,NaN,NaN,NaN,NaN
2168437,1.58326E+12,0.89,0.03,-0.14,-1,-3,0,0,0,0,0,0,0.81,1.42,2.83,0,0,0,0,0,0,0,0,0,0,NaN,NaN,NaN,NaN,NaN,NaN,NaN,NaN,NaN,NaN,NaN,NaN
2168457,1.58326E+12,0.89,0.04,-0.12,-1,-2,-1,0,0,0,0,0,0.81,1.42,2.83,0,0,0,0,0,0,0,0,0,0,NaN,NaN,NaN,NaN,NaN,NaN,NaN,NaN,NaN,NaN,NaN,NaN
2168477,1.58326E+12,0.88,0.01,-0.09,-1,-2,0,0,0,0,0,0,0.81,1.42,2.83,0,0,0,0,0,0,0,0,0,0,12.992236,80.230309,0,30.2,10,0,0,-1,0,0,0,0
2168497,1.58326E+12,0.88,0.03,-0.09,-1,-1,-1,0,0,0,0,0,0.81,1.42,2.83,0,0,0,0,0,0,0,0,0,0,NaN,NaN,NaN,NaN,NaN,NaN,NaN,NaN,NaN,NaN,NaN,NaN
2168517,1.58326E+12,0.89,0.01,-0.14,-1,0,0,0,0,0,0,0,0.81,1.42,2.83,0,0,0,0,0,0,0,0,0,0,NaN,NaN,NaN,NaN,NaN,NaN,NaN,NaN,NaN,NaN,NaN,NaN
2168537,1.58326E+12,0.9,0.04,-0.16,-1,1,-1,0,0,0,0,0,0.81,1.41,2.83,0,0,0,0,0,0,0,0,0,0,NaN,NaN,NaN,NaN,NaN,NaN,NaN,NaN,NaN,NaN,NaN,NaN
2168557,1.58326E+12,0.92,0.06,-0.23,-1,2,0,0,0,0,0,0,0.81,1.41,2.83,0,0,0,0,0,0,0,0,0,0,NaN,NaN,NaN,NaN,NaN,NaN,NaN,NaN,NaN,NaN,NaN,NaN
2168577,1.58326E+12,0.92,0.08,-0.3,-1,3,0,0,0,0,0,0,0.81,1.41,2.83,0,0,0,0,0,0,0,0,0,0,12.992236,80.230309,0,30.2,10,0,0,-1,0,0,0,0
2168597,1.58326E+12,0.94,0.08,-0.32,-1,4,0,0,0,0,0,0,0.81,1.41,2.83,0,0,0,0,0,0,0,0,0,0,NaN,NaN,NaN,NaN,NaN,NaN,NaN,NaN,NaN,NaN,NaN,NaN
2168617,1.58326E+12,0.94,0.07,-0.36,-1,5,0,0,0,0,0,0,0.81,1.41,2.83,0,0,0,0,0,0,0,0,0,0,NaN,NaN,NaN,NaN,NaN,NaN,NaN,NaN,NaN,NaN,NaN,NaN
2168637,1.58326E+12,0.94,0.05,-0.41,-1,5,0,0,0,0,0,0,0.83,1.41,2.82,0,0,0,0,0,0,0,0,0,0,NaN,NaN,NaN,NaN,NaN,NaN,NaN,NaN,NaN,NaN,NaN,NaN
2168657,1.58326E+12,0.94,0.04,-0.47,-1,5,0,0,0,0,0,0,0.83,1.41,2.82,0,0,0,0,0,0,0,0,0,0,NaN,NaN,NaN,NaN,NaN,NaN,NaN,NaN,NaN,NaN,NaN,NaN
2168677,1.58326E+12,0.93,0.03,-0.47,-1,5,-1,0,0,0,0,0,0.83,1.41,2.82,0,0,0,0,0,0,0,0,0,0,12.992236,80.230309,0,30.2,10,0,0,-1,0,0,0,0
2168697,1.58326E+12,0.93,0.05,-0.51,-1,5,0,0,0,0,0,0,0.83,1.41,2.82,0,0,0,0,0,0,0,0,0,0,NaN,NaN,NaN,NaN,NaN,NaN,NaN,NaN,NaN,NaN,NaN,NaN
2168717,1.58326E+12,0.91,0.08,-0.47,-1,5,0,0,0,0,0,0,0.83,1.41,2.82,0,0,0,0,0,0,0,0,0,0,NaN,NaN,NaN,NaN,NaN,NaN,NaN,NaN,NaN,NaN,NaN,NaN
2168737,1.58326E+12,0.91,0.09,-0.5,-1,5,0,0,0,0,0,0,0.82,1.41,2.83,0,0,0,0,0,0,0,0,0,0,NaN,NaN,NaN,NaN,NaN,NaN,NaN,NaN,NaN,NaN,NaN,NaN
2168757,1.58326E+12,0.88,0.12,-0.45,-1,4,0,0,0,0,0,0,0.82,1.41,2.83,0,0,0,0,0,0,0,0,0,0,NaN,NaN,NaN,NaN,NaN,NaN,NaN,NaN,NaN,NaN,NaN,NaN
2168777,1.58326E+12,0.85,0.12,-0.39,0,3,0,0,0,0,0,0,0.82,1.41,2.83,0,0,0,0,0,0,0,0,0,0,12.992236,80.230309,0,30.2,10,0,0,-1,0,0,0,0
2168797,1.58326E+12,0.82,0.13,-0.34,-1,1,0,0,0,0,0,0,0.82,1.41,2.83,0,0,0,0,0,0,0,0,0,0,NaN,NaN,NaN,NaN,NaN,NaN,NaN,NaN,NaN,NaN,NaN,NaN
2168817,1.58326E+12,0.79,0.13,-0.27,-1,-2,0,0,0,0,0,0,0.82,1.41,2.83,0,0,0,0,0,0,0,0,0,0,NaN,NaN,NaN,NaN,NaN,NaN,NaN,NaN,NaN,NaN,NaN,NaN
2168837,1.58326E+12,0.79,0.12,-0.25,-1,-5,0,0,0,0,0,0,0.82,1.41,2.83,0,0,0,0,0,0,0,0,0,0,NaN,NaN,NaN,NaN,NaN,NaN,NaN,NaN,NaN,NaN,NaN,NaN
2168857,1.58326E+12,0.78,0.14,-0.22,-1,-7,0,0,0,0,0,0,0.82,1.41,2.83,0,0,0,0,0,0,0,0,0,0,NaN,NaN,NaN,NaN,NaN,NaN,NaN,NaN,NaN,NaN,NaN,NaN
2168877,1.58326E+12,0.81,0.15,-0.21,0,-9,0,0,0,0,0,0,0.82,1.41,2.83,0,0,0,0,0,0,0,0,0,0,12.992236,80.230309,0,30.2,10,0,0,-1,0,0,0,0
2168897,1.58326E+12,0.84,0.13,-0.21,0,-10,0,0,0,0,0,0,0.82,1.41,2.83,0,0,0,0,0,0,0,0,0,0,NaN,NaN,NaN,NaN,NaN,NaN,NaN,NaN,NaN,NaN,NaN,NaN
2168917,1.58326E+12,0.88,0.13,-0.24,0,-10,0,0,0,0,0,0,0.82,1.41,2.83,0,0,0,0,0,0,0,0,0,0,NaN,NaN,NaN,NaN,NaN,NaN,NaN,NaN,NaN,NaN,NaN,NaN
2168937,1.58326E+12,0.93,0.12,-0.28,0,-9,1,0,0,0,0,0,0.82,1.41,2.84,0,0,0,0,0,0,0,0,0,0,NaN,NaN,NaN,NaN,NaN,NaN,NaN,NaN,NaN,NaN,NaN,NaN
2168957,1.58326E+12,0.97,0.11,-0.2,0,-8,0,0,0,0,0,0,0.82,1.41,2.84,0,0,0,0,0,0,0,0,0,0,NaN,NaN,NaN,NaN,NaN,NaN,NaN,NaN,NaN,NaN,NaN,NaN
2168977,1.58326E+12,0.99,0.08,-0.09,0,-7,0,0,0,0,0,0,0.82,1.41,2.84,0,0,0,0,0,0,0,0,0,0,12.992236,80.230309,0,30.2,10,0,0,-1,0,0,0,0
2168997,1.58326E+12,0.97,0.06,0.07,0,-7,0,0,0,0,0,0,0.82,1.41,2.84,0,0,0,0,0,0,0,0,0,0,NaN,NaN,NaN,NaN,NaN,NaN,NaN,NaN,NaN,NaN,NaN,NaN
2169017,1.58326E+12,0.97,0.05,0.17,0,-7,-1,0,0,0,0,0,0.82,1.41,2.84,0,0,0,0,0,0,0,0,0,0,NaN,NaN,NaN,NaN,NaN,NaN,NaN,NaN,NaN,NaN,NaN,NaN
2169037,1.58326E+12,0.98,0.05,0.23,0,-5,0,0,0,0,0,0,0.82,1.4,2.83,0,0,0,0,0,0,0,0,0,0,NaN,NaN,NaN,NaN,NaN,NaN,NaN,NaN,NaN,NaN,NaN,NaN
2169057,1.58326E+12,1.02,0.07,0.13,0,0,1,0,0,0,0,0,0.82,1.4,2.83,0,0,0,0,0,0,0,0,0,0,NaN,NaN,NaN,NaN,NaN,NaN,NaN,NaN,NaN,NaN,NaN,NaN
2169077,1.58326E+12,1.05,0.06,0.03,0,5,1,0,0,0,0,0,0.82,1.4,2.83,0,0,0,0,0,0,0,0,0,0,12.992236,80.230309,0,30.2,10,0,0,-1,0,0,0,0
2169097,1.58326E+12,0.98,0.09,0.03,0,6,0,0,0,0,0,0,0.82,1.4,2.83,0,0,0,0,0,0,0,0,0,0,NaN,NaN,NaN,NaN,NaN,NaN,NaN,NaN,NaN,NaN,NaN,NaN
2169117,1.58326E+12,0.9,0.13,0.02,0,3,0,0,0,0,0,0,0.82,1.4,2.83,0,0,0,0,0,0,0,0,0,0,NaN,NaN,NaN,NaN,NaN,NaN,NaN,NaN,NaN,NaN,NaN,NaN
2169137,1.58326E+12,0.9,0.14,-0.12,0,1,1,0,0,0,0,0,0.82,1.41,2.83,0,0,0,0,0,0,0,0,0,0,NaN,NaN,NaN,NaN,NaN,NaN,NaN,NaN,NaN,NaN,NaN,NaN
2169157,1.58326E+12,0.92,0.15,-0.28,0,-1,1,0,0,0,0,0,0.82,1.41,2.83,0,0,0,0,0,0,0,0,0,0,NaN,NaN,NaN,NaN,NaN,NaN,NaN,NaN,NaN,NaN,NaN,NaN
2169177,1.58326E+12,0.93,0.12,-0.28,0,-4,0,0,0,0,0,0,0.82,1.41,2.83,0,0,0,0,0,0,0,0,0,0,12.992236,80.230309,0,30.2,10,0,0,-1,0,0,0,0
2169197,1.58326E+12,0.92,0.11,-0.06,0,-7,-1,0,0,0,0,0,0.82,1.41,2.83,0,0,0,0,0,0,0,0,0,0,NaN,NaN,NaN,NaN,NaN,NaN,NaN,NaN,NaN,NaN,NaN,NaN
2169217,1.58326E+12,0.96,0.1,0.06,0,-8,0,0,0,0,0,0,0.82,1.41,2.83,0,0,0,0,0,0,0,0,0,0,NaN,NaN,NaN,NaN,NaN,NaN,NaN,NaN,NaN,NaN,NaN,NaN
2169237,1.58326E+12,1.03,0.1,0.02,0,-3,1,0,0,0,0,0,0.82,1.4,2.83,0,0,0,0,0,0,0,0,0,0,NaN,NaN,NaN,NaN,NaN,NaN,NaN,NaN,NaN,NaN,NaN,NaN
2169257,1.58326E+12,1.05,0.11,-0.05,0,3,1,0,0,0,0,0,0.82,1.4,2.83,0,0,0,0,0,0,0,0,0,0,NaN,NaN,NaN,NaN,NaN,NaN,NaN,NaN,NaN,NaN,NaN,NaN
2169277,1.58326E+12,0.96,0.15,0,0,5,0,0,0,0,0,0,0.82,1.4,2.83,0,0,0,0,0,0,0,0,0,0,12.992236,80.230309,0,30.2,10,0,0,-1,0,0,0,0
2169297,1.58326E+12,0.93,0.14,-0.06,0,3,0,0,0,0,0,0,0.82,1.4,2.83,0,0,0,0,0,0,0,0,0,0,NaN,NaN,NaN,NaN,NaN,NaN,NaN,NaN,NaN,NaN,NaN,NaN
2169317,1.58326E+12,0.96,0.14,-0.25,0,2,0,0,0,0,0,0,0.82,1.4,2.83,0,0,0,0,0,0,0,0,0,0,NaN,NaN,NaN,NaN,NaN,NaN,NaN,NaN,NaN,NaN,NaN,NaN
2169337,1.58326E+12,0.93,0.09,-0.2,0,0,-1,0,0,0,0,0,0.82,1.4,2.84,0,0,0,0,0,0,0,0,0,0,NaN,NaN,NaN,NaN,NaN,NaN,NaN,NaN,NaN,NaN,NaN,NaN
2169357,1.58326E+12,0.89,0.07,-0.02,0,-5,0,0,0,0,0,0,0.82,1.4,2.84,0,0,0,0,0,0,0,0,0,0,NaN,NaN,NaN,NaN,NaN,NaN,NaN,NaN,NaN,NaN,NaN,NaN
2169377,1.58326E+12,0.97,0.07,-0.08,0,-4,1,0,0,0,0,0,0.82,1.4,2.84,0,0,0,0,0,0,0,0,0,0,12.992236,80.230309,0,30.2,10,0,0,-1,0,0,0,0
2169397,1.58326E+12,0.98,0.08,-0.06,0,0,1,0,0,0,0,0,0.82,1.4,2.84,0,0,0,0,0,0,0,0,0,0,NaN,NaN,NaN,NaN,NaN,NaN,NaN,NaN,NaN,NaN,NaN,NaN
2169417,1.58326E+12,0.93,0.14,0.07,0,1,1,0,0,0,0,0,0.82,1.4,2.84,0,0,0,0,0,0,0,0,0,0,NaN,NaN,NaN,NaN,NaN,NaN,NaN,NaN,NaN,NaN,NaN,NaN
2169437,1.58326E+12,0.93,0.13,-0.01,0,0,1,0,0,0,0,0,0.82,1.4,2.83,0,0,0,0,0,0,0,0,0,0,NaN,NaN,NaN,NaN,NaN,NaN,NaN,NaN,NaN,NaN,NaN,NaN
2169457,1.58326E+12,0.96,0.15,-0.18,0,1,1,0,0,0,0,0,0.82,1.4,2.83,0,0,0,0,0,0,0,0,0,0,NaN,NaN,NaN,NaN,NaN,NaN,NaN,NaN,NaN,NaN,NaN,NaN
2169477,1.58326E+12,0.92,0.11,-0.09,0,-1,0,0,0,0,0,0,0.82,1.4,2.83,0,0,0,0,0,0,0,0,0,0,12.992236,80.230309,0,30.2,10,0,0,-1,0,0,0,0
2169497,1.58326E+12,0.88,0.09,0,0,-5,1,0,0,0,0,0,0.82,1.4,2.83,0,0,0,0,0,0,0,0,0,0,NaN,NaN,NaN,NaN,NaN,NaN,NaN,NaN,NaN,NaN,NaN,NaN
2169517,1.58326E+12,0.96,0.09,-0.09,0,-2,1,0,0,0,0,0,0.82,1.4,2.83,0,0,0,0,0,0,0,0,0,0,NaN,NaN,NaN,NaN,NaN,NaN,NaN,NaN,NaN,NaN,NaN,NaN
2169537,1.58326E+12,0.96,0.09,-0.11,0,1,1,0,0,0,0,0,0.82,1.41,2.84,0,0,0,0,0,0,0,0,0,0,NaN,NaN,NaN,NaN,NaN,NaN,NaN,NaN,NaN,NaN,NaN,NaN
2169557,1.58326E+12,0.91,0.14,0.06,0,0,1,0,0,0,0,0,0.82,1.41,2.84,0,0,0,0,0,0,0,0,0,0,NaN,NaN,NaN,NaN,NaN,NaN,NaN,NaN,NaN,NaN,NaN,NaN
2169577,1.58326E+12,0.93,0.14,-0.09,-1,1,2,0,0,0,0,0,0.82,1.41,2.84,0,0,0,0,0,0,0,0,0,0,12.992236,80.230309,0,30.2,10,0,0,-1,0,0,0,0
2169597,1.58326E+12,0.94,0.12,-0.1,0,1,1,0,0,0,0,0,0.82,1.41,2.84,0,0,0,0,0,0,0,0,0,0,NaN,NaN,NaN,NaN,NaN,NaN,NaN,NaN,NaN,NaN,NaN,NaN
2169617,1.58326E+12,0.9,0.11,0.02,0,-3,0,0,0,0,0,0,0.82,1.41,2.84,0,0,0,0,0,0,0,0,0,0,NaN,NaN,NaN,NaN,NaN,NaN,NaN,NaN,NaN,NaN,NaN,NaN
2169637,1.58326E+12,0.9,0.08,0.05,0,-5,1,0,0,0,0,0,0.82,1.4,2.83,0,0,0,0,0,0,0,0,0,0,NaN,NaN,NaN,NaN,NaN,NaN,NaN,NaN,NaN,NaN,NaN,NaN
2169657,1.58326E+12,0.97,0.08,-0.02,0,-1,1,0,0,0,0,0,0.82,1.4,2.83,0,0,0,0,0,0,0,0,0,0,NaN,NaN,NaN,NaN,NaN,NaN,NaN,NaN,NaN,NaN,NaN,NaN
2169677,1.58326E+12,0.99,0.09,-0.07,0,2,0,0,0,0,0,0,0.82,1.4,2.83,0,0,0,0,0,0,0,0,0,0,12.992236,80.230309,0,30.2,10,0,0,-1,0,0,0,0
2169697,1.58326E+12,0.93,0.13,0.02,0,3,0,0,0,0,0,0,0.82,1.4,2.83,0,0,0,0,0,0,0,0,0,0,NaN,NaN,NaN,NaN,NaN,NaN,NaN,NaN,NaN,NaN,NaN,NaN
2169717,1.58326E+12,0.9,0.14,-0.01,0,2,1,0,0,0,0,0,0.82,1.4,2.83,0,0,0,0,0,0,0,0,0,0,NaN,NaN,NaN,NaN,NaN,NaN,NaN,NaN,NaN,NaN,NaN,NaN
2169737,1.58326E+12,0.93,0.17,-0.19,0,1,0,0,0,0,0,0,0.82,1.4,2.83,0,0,0,0,0,0,0,0,0,0,NaN,NaN,NaN,NaN,NaN,NaN,NaN,NaN,NaN,NaN,NaN,NaN
2169757,1.58326E+12,0.92,0.15,-0.22,0,-1,0,0,0,0,0,0,0.82,1.4,2.83,0,0,0,0,0,0,0,0,0,0,NaN,NaN,NaN,NaN,NaN,NaN,NaN,NaN,NaN,NaN,NaN,NaN
2169777,1.58326E+12,0.88,0.12,-0.09,0,-5,-1,0,0,0,0,0,0.82,1.4,2.83,0,0,0,0,0,0,0,0,0,0,12.992236,80.230309,0,30.2,10,0,0,-1,0,0,0,0
2169797,1.58326E+12,0.88,0.06,0.05,0,-7,0,0,0,0,0,0,0.82,1.4,2.83,0,0,0,0,0,0,0,0,0,0,NaN,NaN,NaN,NaN,NaN,NaN,NaN,NaN,NaN,NaN,NaN,NaN
2169817,1.58326E+12,0.97,0.05,-0.02,0,-3,-1,0,0,0,0,0,0.82,1.4,2.83,0,0,0,0,0,0,0,0,0,0,NaN,NaN,NaN,NaN,NaN,NaN,NaN,NaN,NaN,NaN,NaN,NaN
2169837,1.58326E+12,0.97,0.06,-0.03,0,2,-1,0,0,0,0,0,0.82,1.4,2.84,0,0,0,0,0,0,0,0,0,0,NaN,NaN,NaN,NaN,NaN,NaN,NaN,NaN,NaN,NaN,NaN,NaN
2169857,1.58326E+12,0.9,0.09,0.04,0,4,-1,0,0,0,0,0,0.82,1.4,2.84,0,0,0,0,0,0,0,0,0,0,NaN,NaN,NaN,NaN,NaN,NaN,NaN,NaN,NaN,NaN,NaN,NaN
2169877,1.58326E+12,0.88,0.09,-0.07,0,3,0,0,0,0,0,0,0.82,1.4,2.84,0,0,0,0,0,0,0,0,0,0,12.992236,80.230309,0,30.2,10,0,0,-1,0,0,0,0
2169897,1.58326E+12,0.9,0.09,-0.23,0,2,1,0,0,0,0,0,0.82,1.4,2.84,0,0,0,0,0,0,0,0,0,0,NaN,NaN,NaN,NaN,NaN,NaN,NaN,NaN,NaN,NaN,NaN,NaN
2169917,1.58326E+12,0.91,0.07,-0.24,0,1,0,0,0,0,0,0,0.82,1.4,2.84,0,0,0,0,0,0,0,0,0,0,NaN,NaN,NaN,NaN,NaN,NaN,NaN,NaN,NaN,NaN,NaN,NaN
2169937,1.58326E+12,0.88,0.07,-0.08,0,-3,-2,0,0,0,0,0,0.82,1.4,2.83,0,0,0,0,0,0,0,0,0,0,NaN,NaN,NaN,NaN,NaN,NaN,NaN,NaN,NaN,NaN,NaN,NaN
2169957,1.58326E+12,0.87,0.04,0,0,-6,-1,0,0,0,0,0,0.82,1.4,2.83,0,0,0,0,0,0,0,0,0,0,NaN,NaN,NaN,NaN,NaN,NaN,NaN,NaN,NaN,NaN,NaN,NaN
2169977,1.58326E+12,0.96,0.04,-0.06,0,-4,0,0,0,0,0,0,0.82,1.4,2.83,0,0,0,0,0,0,0,0,0,0,12.992236,80.230309,0,30.2,10,0,0,-1,0,0,0,0
2169997,1.58326E+12,1,0.05,-0.06,0,1,0,0,0,0,0,0,0.82,1.4,2.83,0,0,0,0,0,0,0,0,0,0,NaN,NaN,NaN,NaN,NaN,NaN,NaN,NaN,NaN,NaN,NaN,NaN
2170017,1.58326E+12,0.94,0.1,0.03,0,3,0,0,0,0,0,0,0.82,1.4,2.83,0,0,0,0,0,0,0,0,0,0,NaN,NaN,NaN,NaN,NaN,NaN,NaN,NaN,NaN,NaN,NaN,NaN
2170037,1.58326E+12,0.91,0.1,0.01,0,2,0,0,0,0,0,0,0.82,1.41,2.84,0,0,0,0,0,0,0,0,0,0,NaN,NaN,NaN,NaN,NaN,NaN,NaN,NaN,NaN,NaN,NaN,NaN
2170057,1.58326E+12,0.93,0.12,-0.18,0,2,0,0,0,0,0,0,0.82,1.41,2.84,0,0,0,0,0,0,0,0,0,0,NaN,NaN,NaN,NaN,NaN,NaN,NaN,NaN,NaN,NaN,NaN,NaN
2170077,1.58326E+12,0.92,0.08,-0.18,0,0,-1,0,0,0,0,0,0.82,1.41,2.84,0,0,0,0,0,0,0,0,0,0,12.992236,80.230309,0,30.2,10,0,0,-1,0,0,0,0
2170097,1.58326E+12,0.85,0.08,0.01,0,-4,0,0,0,0,0,0,0.82,1.41,2.84,0,0,0,0,0,0,0,0,0,0,NaN,NaN,NaN,NaN,NaN,NaN,NaN,NaN,NaN,NaN,NaN,NaN
2170117,1.58326E+12,0.92,0.04,-0.03,0,-5,1,0,0,0,0,0,0.82,1.41,2.84,0,0,0,0,0,0,0,0,0,0,NaN,NaN,NaN,NaN,NaN,NaN,NaN,NaN,NaN,NaN,NaN,NaN
2170137,1.58326E+12,0.98,0.06,-0.03,0,-1,0,0,0,0,0,0,0.82,1.4,2.84,0,0,0,0,0,0,0,0,0,0,NaN,NaN,NaN,NaN,NaN,NaN,NaN,NaN,NaN,NaN,NaN,NaN
2170157,1.58326E+12,0.93,0.11,0.09,0,0,0,0,0,0,0,0,0.82,1.4,2.84,0,0,0,0,0,0,0,0,0,0,NaN,NaN,NaN,NaN,NaN,NaN,NaN,NaN,NaN,NaN,NaN,NaN
2170177,1.58326E+12,0.94,0.1,0.01,0,0,1,0,0,0,0,0,0.82,1.4,2.84,0,0,0,0,0,0,0,0,0,0,12.992236,80.230309,0,30.2,10,0,0,-1,0,0,0,0
2170197,1.58326E+12,0.97,0.08,-0.12,0,1,0,0,0,0,0,0,0.82,1.4,2.84,0,0,0,0,0,0,0,0,0,0,NaN,NaN,NaN,NaN,NaN,NaN,NaN,NaN,NaN,NaN,NaN,NaN
2170217,1.58326E+12,0.92,0.06,-0.02,0,-2,-1,0,0,0,0,0,0.82,1.4,2.84,0,0,0,0,0,0,0,0,0,0,NaN,NaN,NaN,NaN,NaN,NaN,NaN,NaN,NaN,NaN,NaN,NaN
2170237,1.58326E+12,0.89,0.03,0.02,0,-5,-1,0,0,0,0,0,0.82,1.4,2.84,0,0,0,0,0,0,0,0,0,0,NaN,NaN,NaN,NaN,NaN,NaN,NaN,NaN,NaN,NaN,NaN,NaN
2170257,1.58326E+12,0.97,0.05,-0.05,0,-2,0,0,0,0,0,0,0.82,1.4,2.84,0,0,0,0,0,0,0,0,0,0,NaN,NaN,NaN,NaN,NaN,NaN,NaN,NaN,NaN,NaN,NaN,NaN
2170277,1.58326E+12,0.97,0.04,-0.07,0,1,0,0,0,0,0,0,0.82,1.4,2.84,0,0,0,0,0,0,0,0,0,0,12.992236,80.230309,0,30.2,10,0,0,-1,0,0,0,0
2170297,1.58326E+12,0.92,0.1,0.09,0,0,1,0,0,0,0,0,0.82,1.4,2.84,0,0,0,0,0,0,0,0,0,0,NaN,NaN,NaN,NaN,NaN,NaN,NaN,NaN,NaN,NaN,NaN,NaN
2170317,1.58326E+12,0.94,0.11,-0.09,0,2,1,0,0,0,0,0,0.82,1.4,2.84,0,0,0,0,0,0,0,0,0,0,NaN,NaN,NaN,NaN,NaN,NaN,NaN,NaN,NaN,NaN,NaN,NaN
2170337,1.58326E+12,0.94,0.09,-0.09,0,1,0,0,0,0,0,0,0.82,1.39,2.83,0,0,0,0,0,0,0,0,0,0,NaN,NaN,NaN,NaN,NaN,NaN,NaN,NaN,NaN,NaN,NaN,NaN
2170357,1.58326E+12,0.89,0.09,0.04,0,-4,0,0,0,0,0,0,0.82,1.39,2.83,0,0,0,0,0,0,0,0,0,0,NaN,NaN,NaN,NaN,NaN,NaN,NaN,NaN,NaN,NaN,NaN,NaN
2170377,1.58326E+12,0.94,0.07,0.02,0,-3,0,0,0,0,0,0,0.82,1.39,2.83,0,0,0,0,0,0,0,0,0,0,12.992236,80.230309,0,30.2,10,0,0,-1,0,0,0,0
2170397,1.58326E+12,0.96,0.08,0.04,0,0,0,0,0,0,0,0,0.82,1.39,2.83,0,0,0,0,0,0,0,0,0,0,NaN,NaN,NaN,NaN,NaN,NaN,NaN,NaN,NaN,NaN,NaN,NaN
2170417,1.58326E+12,0.9,0.13,0.14,0,2,0,0,0,0,0,0,0.82,1.39,2.83,0,0,0,0,0,0,0,0,0,0,NaN,NaN,NaN,NaN,NaN,NaN,NaN,NaN,NaN,NaN,NaN,NaN
2170437,1.58326E+12,0.91,0.13,-0.01,0,1,1,0,0,0,0,0,0.81,1.4,2.84,0,0,0,0,0,0,0,0,0,0,NaN,NaN,NaN,NaN,NaN,NaN,NaN,NaN,NaN,NaN,NaN,NaN
2170457,1.58326E+12,0.94,0.13,-0.21,0,2,1,0,0,0,0,0,0.81,1.4,2.84,0,0,0,0,0,0,0,0,0,0,NaN,NaN,NaN,NaN,NaN,NaN,NaN,NaN,NaN,NaN,NaN,NaN
2170477,1.58326E+12,0.9,0.09,-0.19,0,0,0,0,0,0,0,0,0.81,1.4,2.84,0,0,0,0,0,0,0,0,0,0,12.992236,80.230309,0,30.2,10,0,0,-1,0,0,0,0
2170497,1.58326E+12,0.88,0.05,-0.01,0,-5,-1,0,0,0,0,0,0.81,1.4,2.84,0,0,0,0,0,0,0,0,0,0,NaN,NaN,NaN,NaN,NaN,NaN,NaN,NaN,NaN,NaN,NaN,NaN
2170517,1.58326E+12,0.95,0.05,-0.07,0,-4,0,0,0,0,0,0,0.81,1.4,2.84,0,0,0,0,0,0,0,0,0,0,NaN,NaN,NaN,NaN,NaN,NaN,NaN,NaN,NaN,NaN,NaN,NaN
2170537,1.58326E+12,1,0.04,-0.01,0,0,0,0,0,0,0,0,0.81,1.4,2.84,0,0,0,0,0,0,0,0,0,0,NaN,NaN,NaN,NaN,NaN,NaN,NaN,NaN,NaN,NaN,NaN,NaN
2170557,1.58326E+12,0.94,0.06,0.08,0,2,0,0,0,0,0,0,0.82,1.4,2.83,0,0,0,0,0,0,0,0,0,0,NaN,NaN,NaN,NaN,NaN,NaN,NaN,NaN,NaN,NaN,NaN,NaN
2170577,1.58326E+12,0.92,0.06,-0.01,0,2,1,0,0,0,0,0,0.82,1.4,2.83,0,0,0,0,0,0,0,0,0,0,12.992236,80.230309,0,30.2,10,0,0,-1,0,0,0,0
2170597,1.58326E+12,0.94,0.08,-0.2,0,2,1,0,0,0,0,0,0.82,1.4,2.83,0,0,0,0,0,0,0,0,0,0,NaN,NaN,NaN,NaN,NaN,NaN,NaN,NaN,NaN,NaN,NaN,NaN
2170617,1.58326E+12,0.93,0.06,-0.23,0,1,0,0,0,0,0,0,0.82,1.4,2.83,0,0,0,0,0,0,0,0,0,0,NaN,NaN,NaN,NaN,NaN,NaN,NaN,NaN,NaN,NaN,NaN,NaN
2170637,1.58326E+12,0.89,0.06,-0.07,0,-4,-1,0,0,0,0,0,0.82,1.4,2.83,0,0,0,0,0,0,0,0,0,0,NaN,NaN,NaN,NaN,NaN,NaN,NaN,NaN,NaN,NaN,NaN,NaN
2170657,1.58326E+12,0.94,0.05,-0.03,0,-5,0,0,0,0,0,0,0.82,1.39,2.84,0,0,0,0,0,0,0,0,0,0,NaN,NaN,NaN,NaN,NaN,NaN,NaN,NaN,NaN,NaN,NaN,NaN
2170677,1.58326E+12,1.01,0.04,-0.08,0,-1,0,0,0,0,0,0,0.82,1.39,2.84,0,0,0,0,0,0,0,0,0,0,12.992236,80.230309,0,30.2,10,0,0,-1,0,0,0,0
2170697,1.58326E+12,0.97,0.04,-0.01,0,2,0,0,0,0,0,0,0.82,1.39,2.84,0,0,0,0,0,0,0,0,0,0,NaN,NaN,NaN,NaN,NaN,NaN,NaN,NaN,NaN,NaN,NaN,NaN
2170717,1.58326E+12,0.93,0.05,0.01,0,2,0,0,0,0,0,0,0.82,1.39,2.84,0,0,0,0,0,0,0,0,0,0,NaN,NaN,NaN,NaN,NaN,NaN,NaN,NaN,NaN,NaN,NaN,NaN
2170737,1.58326E+12,0.95,0.07,-0.17,0,2,1,0,0,0,0,0,0.82,1.39,2.84,0,0,0,0,0,0,0,0,0,0,NaN,NaN,NaN,NaN,NaN,NaN,NaN,NaN,NaN,NaN,NaN,NaN
2170757,1.58326E+12,0.95,0.06,-0.18,0,1,0,0,0,0,0,0,0.82,1.4,2.84,0,0,0,0,0,0,0,0,0,0,NaN,NaN,NaN,NaN,NaN,NaN,NaN,NaN,NaN,NaN,NaN,NaN
2170777,1.58326E+12,0.91,0.06,-0.05,0,-4,-1,0,0,0,0,0,0.82,1.4,2.84,0,0,0,0,0,0,0,0,0,0,12.992236,80.230309,0,30.2,10,0,0,-1,0,0,0,0
2170797,1.58326E+12,0.91,0.04,0.01,0,-6,0,0,0,0,0,0,0.82,1.4,2.84,0,0,0,0,0,0,0,0,0,0,NaN,NaN,NaN,NaN,NaN,NaN,NaN,NaN,NaN,NaN,NaN,NaN
2170817,1.58326E+12,0.99,0.04,-0.05,0,-2,0,0,0,0,0,0,0.82,1.4,2.84,0,0,0,0,0,0,0,0,0,0,NaN,NaN,NaN,NaN,NaN,NaN,NaN,NaN,NaN,NaN,NaN,NaN
2170837,1.58326E+12,1,0.05,-0.09,0,2,0,0,0,0,0,0,0.82,1.4,2.84,0,0,0,0,0,0,0,0,0,0,NaN,NaN,NaN,NaN,NaN,NaN,NaN,NaN,NaN,NaN,NaN,NaN
2170857,1.58326E+12,0.93,0.1,0.02,0,2,0,0,0,0,0,0,0.82,1.39,2.84,0,0,0,0,0,0,0,0,0,0,NaN,NaN,NaN,NaN,NaN,NaN,NaN,NaN,NaN,NaN,NaN,NaN
2170877,1.58326E+12,0.92,0.09,-0.05,0,1,0,0,0,0,0,0,0.82,1.39,2.84,0,0,0,0,0,0,0,0,0,0,12.992236,80.230309,0,30.2,10,0,0,-1,0,0,0,0
2170897,1.58326E+12,0.95,0.08,-0.22,0,1,0,0,0,0,0,0,0.82,1.39,2.84,0,0,0,0,0,0,0,0,0,0,NaN,NaN,NaN,NaN,NaN,NaN,NaN,NaN,NaN,NaN,NaN,NaN
2170917,1.58326E+12,0.93,0.04,-0.19,0,-1,-2,0,0,0,0,0,0.82,1.39,2.84,0,0,0,0,0,0,0,0,0,0,NaN,NaN,NaN,NaN,NaN,NaN,NaN,NaN,NaN,NaN,NaN,NaN
2170937,1.58326E+12,0.88,0.02,-0.01,0,-5,-1,0,0,0,0,0,0.82,1.39,2.84,0,0,0,0,0,0,0,0,0,0,NaN,NaN,NaN,NaN,NaN,NaN,NaN,NaN,NaN,NaN,NaN,NaN
2170957,1.58326E+12,0.93,-0.02,0,0,-5,0,0,0,0,0,0,0.82,1.4,2.83,0,0,0,0,0,0,0,0,0,0,NaN,NaN,NaN,NaN,NaN,NaN,NaN,NaN,NaN,NaN,NaN,NaN
2170977,1.58326E+12,1.01,-0.03,-0.08,0,0,0,0,0,0,0,0,0.82,1.4,2.83,0,0,0,0,0,0,0,0,0,0,12.992236,80.230309,0,30.2,10,0,0,-1,0,0,0,0
2170997,1.58326E+12,0.95,0.02,0,0,3,-1,0,0,0,0,0,0.82,1.4,2.83,0,0,0,0,0,0,0,0,0,0,NaN,NaN,NaN,NaN,NaN,NaN,NaN,NaN,NaN,NaN,NaN,NaN
2171017,1.58326E+12,0.9,0.06,0.03,0,3,-1,0,0,0,0,0,0.82,1.4,2.83,0,0,0,0,0,0,0,0,0,0,NaN,NaN,NaN,NaN,NaN,NaN,NaN,NaN,NaN,NaN,NaN,NaN
2171037,1.58326E+12,0.93,0.09,-0.17,0,2,0,0,0,0,0,0,0.82,1.4,2.83,0,0,0,0,0,0,0,0,0,0,NaN,NaN,NaN,NaN,NaN,NaN,NaN,NaN,NaN,NaN,NaN,NaN
2171057,1.58326E+12,0.92,0.06,-0.18,0,1,0,0,0,0,0,0,0.81,1.4,2.84,0,0,0,0,0,0,0,0,0,0,NaN,NaN,NaN,NaN,NaN,NaN,NaN,NaN,NaN,NaN,NaN,NaN
2171077,1.58326E+12,0.85,0.06,-0.01,0,-2,-1,0,0,0,0,0,0.81,1.4,2.84,0,0,0,0,0,0,0,0,0,0,12.992236,80.230309,0,30.2,10,0,0,-1,0,0,0,0
2171097,1.58326E+12,0.91,0.02,-0.04,0,-4,0,0,0,0,0,0,0.81,1.4,2.84,0,0,0,0,0,0,0,0,0,0,NaN,NaN,NaN,NaN,NaN,NaN,NaN,NaN,NaN,NaN,NaN,NaN
2171117,1.58326E+12,0.99,0.02,-0.08,0,-1,0,0,0,0,0,0,0.81,1.4,2.84,0,0,0,0,0,0,0,0,0,0,NaN,NaN,NaN,NaN,NaN,NaN,NaN,NaN,NaN,NaN,NaN,NaN
2171137,1.58326E+12,0.94,0.06,0.03,0,2,-1,0,0,0,0,0,0.81,1.4,2.84,0,0,0,0,0,0,0,0,0,0,NaN,NaN,NaN,NaN,NaN,NaN,NaN,NaN,NaN,NaN,NaN,NaN
2171157,1.58326E+12,0.92,0.07,0.01,0,1,0,0,0,0,0,0,0.82,1.4,2.83,0,0,0,0,0,0,0,0,0,0,NaN,NaN,NaN,NaN,NaN,NaN,NaN,NaN,NaN,NaN,NaN,NaN
2171177,1.58326E+12,0.95,0.08,-0.18,0,2,0,0,0,0,0,0,0.82,1.4,2.83,0,0,0,0,0,0,0,0,0,0,12.992236,80.230309,0,30.2,10,0,0,-1,0,0,0,0
2171197,1.58326E+12,0.93,0.04,-0.16,0,1,-1,0,0,0,0,0,0.82,1.4,2.83,0,0,0,0,0,0,0,0,0,0,NaN,NaN,NaN,NaN,NaN,NaN,NaN,NaN,NaN,NaN,NaN,NaN
2171217,1.58326E+12,0.87,0.04,0.03,0,-4,-1,0,0,0,0,0,0.82,1.4,2.83,0,0,0,0,0,0,0,0,0,0,NaN,NaN,NaN,NaN,NaN,NaN,NaN,NaN,NaN,NaN,NaN,NaN
2171237,1.58326E+12,0.94,0.03,-0.05,0,-3,0,0,0,0,0,0,0.82,1.4,2.83,0,0,0,0,0,0,0,0,0,0,NaN,NaN,NaN,NaN,NaN,NaN,NaN,NaN,NaN,NaN,NaN,NaN
2171257,1.58326E+12,0.98,0.05,-0.03,0,1,0,0,0,0,0,0,0.82,1.39,2.83,0,0,0,0,0,0,0,0,0,0,NaN,NaN,NaN,NaN,NaN,NaN,NaN,NaN,NaN,NaN,NaN,NaN
2171277,1.58326E+12,0.92,0.1,0.07,0,2,0,0,0,0,0,0,0.82,1.39,2.83,0,0,0,0,0,0,0,0,0,0,12.992236,80.230309,0,30.2,10,0,0,-1,0,0,0,0
2171297,1.58326E+12,0.92,0.09,0,0,1,0,0,0,0,0,0,0.82,1.39,2.83,0,0,0,0,0,0,0,0,0,0,NaN,NaN,NaN,NaN,NaN,NaN,NaN,NaN,NaN,NaN,NaN,NaN
2171317,1.58326E+12,0.95,0.07,-0.16,0,1,0,0,0,0,0,0,0.82,1.39,2.83,0,0,0,0,0,0,0,0,0,0,NaN,NaN,NaN,NaN,NaN,NaN,NaN,NaN,NaN,NaN,NaN,NaN
2171337,1.58326E+12,0.91,0.04,-0.07,0,-2,-2,0,0,0,0,0,0.82,1.39,2.83,0,0,0,0,0,0,0,0,0,0,NaN,NaN,NaN,NaN,NaN,NaN,NaN,NaN,NaN,NaN,NaN,NaN
2171357,1.58326E+12,0.87,0.02,0.03,0,-5,-1,0,0,0,0,0,0.81,1.4,2.84,0,0,0,0,0,0,0,0,0,0,NaN,NaN,NaN,NaN,NaN,NaN,NaN,NaN,NaN,NaN,NaN,NaN
2171377,1.58326E+12,0.96,0.04,-0.06,0,-3,0,0,0,0,0,0,0.81,1.4,2.84,0,0,0,0,0,0,0,0,0,0,12.992236,80.230309,0,30.2,10,0,0,-1,0,0,0,0
2171397,1.58326E+12,0.96,0.03,-0.06,0,0,0,0,0,0,0,0,0.81,1.4,2.84,0,0,0,0,0,0,0,0,0,0,NaN,NaN,NaN,NaN,NaN,NaN,NaN,NaN,NaN,NaN,NaN,NaN
2171417,1.58326E+12,0.91,0.08,0.09,0,0,0,0,0,0,0,0,0.81,1.4,2.84,0,0,0,0,0,0,0,0,0,0,NaN,NaN,NaN,NaN,NaN,NaN,NaN,NaN,NaN,NaN,NaN,NaN
2171437,1.58326E+12,0.94,0.09,-0.1,0,1,1,0,0,0,0,0,0.81,1.4,2.84,0,0,0,0,0,0,0,0,0,0,NaN,NaN,NaN,NaN,NaN,NaN,NaN,NaN,NaN,NaN,NaN,NaN
2171457,1.58326E+12,0.95,0.08,-0.11,0,0,0,0,0,0,0,0,0.82,1.4,2.84,0,0,0,0,0,0,0,0,0,0,NaN,NaN,NaN,NaN,NaN,NaN,NaN,NaN,NaN,NaN,NaN,NaN
2171477,1.58326E+12,0.89,0.08,0.02,0,-4,0,0,0,0,0,0,0.82,1.4,2.84,0,0,0,0,0,0,0,0,0,0,12.992236,80.230309,0,30.2,10,0,0,-1,0,0,0,0
2171497,1.58326E+12,0.94,0.07,0.02,0,-4,0,0,0,0,0,0,0.82,1.4,2.84,0,0,0,0,0,0,0,0,0,0,NaN,NaN,NaN,NaN,NaN,NaN,NaN,NaN,NaN,NaN,NaN,NaN
2171517,1.58326E+12,1,0.05,-0.02,0,-1,0,0,0,0,0,0,0.82,1.4,2.84,0,0,0,0,0,0,0,0,0,0,NaN,NaN,NaN,NaN,NaN,NaN,NaN,NaN,NaN,NaN,NaN,NaN
2171537,1.58326E+12,0.94,0.07,0.08,0,0,0,0,0,0,0,0,0.82,1.4,2.84,0,0,0,0,0,0,0,0,0,0,NaN,NaN,NaN,NaN,NaN,NaN,NaN,NaN,NaN,NaN,NaN,NaN
2171557,1.58326E+12,0.96,0.07,-0.04,0,0,1,0,0,0,0,0,0.82,1.39,2.84,0,0,0,0,0,0,0,0,0,0,NaN,NaN,NaN,NaN,NaN,NaN,NaN,NaN,NaN,NaN,NaN,NaN
2171577,1.58326E+12,0.95,0.04,-0.03,0,1,0,0,0,0,0,0,0.82,1.39,2.84,0,0,0,0,0,0,0,0,0,0,12.992236,80.230309,0,30.2,10,0,0,-1,0,0,0,0
2171597,1.58326E+12,0.88,0.04,0.13,0,-3,0,0,0,0,0,0,0.82,1.39,2.84,0,0,0,0,0,0,0,0,0,0,NaN,NaN,NaN,NaN,NaN,NaN,NaN,NaN,NaN,NaN,NaN,NaN
2171617,1.58326E+12,0.94,0.02,0.04,0,-4,1,0,0,0,0,0,0.82,1.39,2.84,0,0,0,0,0,0,0,0,0,0,NaN,NaN,NaN,NaN,NaN,NaN,NaN,NaN,NaN,NaN,NaN,NaN
2171637,1.58326E+12,0.99,0.03,0.04,0,-1,1,0,0,0,0,0,0.82,1.39,2.84,0,0,0,0,0,0,0,0,0,0,NaN,NaN,NaN,NaN,NaN,NaN,NaN,NaN,NaN,NaN,NaN,NaN
2171657,1.58326E+12,0.92,0.09,0.15,0,1,0,0,0,0,0,0,0.82,1.39,2.84,0,0,0,0,0,0,0,0,0,0,NaN,NaN,NaN,NaN,NaN,NaN,NaN,NaN,NaN,NaN,NaN,NaN
2171677,1.58326E+12,0.93,0.08,0.06,0,1,1,0,0,0,0,0,0.82,1.4,2.83,0,0,0,0,0,0,0,0,0,0,12.992236,80.230309,0,30.2,10,0,0,-1,0,0,0,0
2171697,1.58326E+12,0.96,0.05,-0.02,0,1,0,0,0,0,0,0,0.82,1.4,2.83,0,0,0,0,0,0,0,0,0,0,NaN,NaN,NaN,NaN,NaN,NaN,NaN,NaN,NaN,NaN,NaN,NaN
2171717,1.58326E+12,0.91,0.05,0.09,0,-2,-2,0,0,0,0,0,0.82,1.4,2.83,0,0,0,0,0,0,0,0,0,0,NaN,NaN,NaN,NaN,NaN,NaN,NaN,NaN,NaN,NaN,NaN,NaN
2171737,1.58326E+12,0.93,0.03,0.08,0,-4,0,0,0,0,0,0,0.82,1.4,2.83,0,0,0,0,0,0,0,0,0,0,NaN,NaN,NaN,NaN,NaN,NaN,NaN,NaN,NaN,NaN,NaN,NaN
2171757,1.58326E+12,0.99,0.02,0.02,0,-1,0,0,0,0,0,0,0.82,1.4,2.83,0,0,0,0,0,0,0,0,0,0,NaN,NaN,NaN,NaN,NaN,NaN,NaN,NaN,NaN,NaN,NaN,NaN
2171777,1.58326E+12,0.95,0.03,0.11,0,1,-1,0,0,0,0,0,0.82,1.4,2.84,0,0,0,0,0,0,0,0,0,0,12.992236,80.230309,0,30.2,10,0,0,-1,0,0,0,0
2171797,1.58326E+12,0.93,0.04,0.07,0,0,0,0,0,0,0,0,0.82,1.4,2.84,0,0,0,0,0,0,0,0,0,0,NaN,NaN,NaN,NaN,NaN,NaN,NaN,NaN,NaN,NaN,NaN,NaN
2171817,1.58326E+12,0.97,0.05,-0.14,0,1,0,0,0,0,0,0,0.82,1.4,2.84,0,0,0,0,0,0,0,0,0,0,NaN,NaN,NaN,NaN,NaN,NaN,NaN,NaN,NaN,NaN,NaN,NaN
2171837,1.58326E+12,0.94,0.03,-0.15,0,0,-1,0,0,0,0,0,0.82,1.4,2.84,0,0,0,0,0,0,0,0,0,0,NaN,NaN,NaN,NaN,NaN,NaN,NaN,NaN,NaN,NaN,NaN,NaN
2171857,1.58326E+12,0.9,0.02,0.03,0,-4,-1,0,0,0,0,0,0.82,1.4,2.84,0,0,0,0,0,0,0,0,0,0,NaN,NaN,NaN,NaN,NaN,NaN,NaN,NaN,NaN,NaN,NaN,NaN
2171877,1.58326E+12,0.96,0.02,-0.04,0,-4,0,0,0,0,0,0,0.82,1.39,2.84,0,0,0,0,0,0,0,0,0,0,12.992236,80.230309,0,30.2,10,0,0,-1,0,0,0,0
2171897,1.58326E+12,1,0.03,0.03,0,0,0,0,0,0,0,0,0.82,1.39,2.84,0,0,0,0,0,0,0,0,0,0,NaN,NaN,NaN,NaN,NaN,NaN,NaN,NaN,NaN,NaN,NaN,NaN
2171917,1.58326E+12,0.93,0.09,0.15,0,0,0,0,0,0,0,0,0.82,1.39,2.84,0,0,0,0,0,0,0,0,0,0,NaN,NaN,NaN,NaN,NaN,NaN,NaN,NaN,NaN,NaN,NaN,NaN
2171937,1.58326E+12,0.97,0.11,0,0,1,1,0,0,0,0,0,0.82,1.39,2.84,0,0,0,0,0,0,0,0,0,0,NaN,NaN,NaN,NaN,NaN,NaN,NaN,NaN,NaN,NaN,NaN,NaN
2171957,1.58326E+12,0.96,0.09,-0.01,0,1,0,0,0,0,0,0,0.82,1.39,2.84,0,0,0,0,0,0,0,0,0,0,NaN,NaN,NaN,NaN,NaN,NaN,NaN,NaN,NaN,NaN,NaN,NaN
2171977,1.58326E+12,0.89,0.08,0.13,0,-3,0,0,0,0,0,0,0.82,1.39,2.84,0,0,0,0,0,0,0,0,0,0,12.992236,80.230309,0,30.2,10,0,0,-1,0,0,0,0
2171997,1.58326E+12,0.94,0.05,0.06,0,-3,1,0,0,0,0,0,0.82,1.39,2.84,0,0,0,0,0,0,0,0,0,0,NaN,NaN,NaN,NaN,NaN,NaN,NaN,NaN,NaN,NaN,NaN,NaN
2172017,1.58326E+12,1.01,0.05,0.02,0,0,1,0,0,0,0,0,0.82,1.39,2.84,0,0,0,0,0,0,0,0,0,0,NaN,NaN,NaN,NaN,NaN,NaN,NaN,NaN,NaN,NaN,NaN,NaN
2172037,1.58326E+12,0.96,0.09,0.11,0,2,0,0,0,0,0,0,0.82,1.39,2.84,0,0,0,0,0,0,0,0,0,0,NaN,NaN,NaN,NaN,NaN,NaN,NaN,NaN,NaN,NaN,NaN,NaN
2172057,1.58326E+12,0.92,0.11,0.1,0,1,1,0,0,0,0,0,0.82,1.39,2.84,0,0,0,0,0,0,0,0,0,0,NaN,NaN,NaN,NaN,NaN,NaN,NaN,NaN,NaN,NaN,NaN,NaN
2172077,1.58326E+12,0.95,0.13,-0.11,0,2,0,0,0,0,0,0,0.82,1.4,2.83,0,0,0,0,0,0,0,0,0,0,12.992236,80.230309,0,30.2,10,0,0,-1,0,0,0,0
2172097,1.58326E+12,0.93,0.09,-0.12,0,0,-1,0,0,0,0,0,0.82,1.4,2.83,0,0,0,0,0,0,0,0,0,0,NaN,NaN,NaN,NaN,NaN,NaN,NaN,NaN,NaN,NaN,NaN,NaN
2172117,1.58326E+12,0.87,0.07,0.04,0,-4,-1,0,0,0,0,0,0.82,1.4,2.83,0,0,0,0,0,0,0,0,0,0,NaN,NaN,NaN,NaN,NaN,NaN,NaN,NaN,NaN,NaN,NaN,NaN
2172137,1.58326E+12,0.92,0.04,-0.01,0,-4,1,0,0,0,0,0,0.82,1.4,2.83,0,0,0,0,0,0,0,0,0,0,NaN,NaN,NaN,NaN,NaN,NaN,NaN,NaN,NaN,NaN,NaN,NaN
2172157,1.58326E+12,1,0.04,-0.05,0,0,0,0,0,0,0,0,0.82,1.4,2.83,0,0,0,0,0,0,0,0,0,0,NaN,NaN,NaN,NaN,NaN,NaN,NaN,NaN,NaN,NaN,NaN,NaN
2172177,1.58326E+12,0.93,0.1,0.08,0,2,0,0,0,0,0,0,0.82,1.4,2.83,0,0,0,0,0,0,0,0,0,0,12.992236,80.230309,0,30.2,10,0,0,-1,0,0,0,0
2172197,1.58326E+12,0.94,0.1,-0.03,0,1,0,0,0,0,0,0,0.82,1.4,2.83,0,0,0,0,0,0,0,0,0,0,NaN,NaN,NaN,NaN,NaN,NaN,NaN,NaN,NaN,NaN,NaN,NaN
2172217,1.58326E+12,0.97,0.07,-0.09,0,2,0,0,0,0,0,0,0.82,1.4,2.83,0,0,0,0,0,0,0,0,0,0,NaN,NaN,NaN,NaN,NaN,NaN,NaN,NaN,NaN,NaN,NaN,NaN
2172237,1.58326E+12,0.91,0.07,0.01,0,-1,-2,0,0,0,0,0,0.82,1.4,2.83,0,0,0,0,0,0,0,0,0,0,NaN,NaN,NaN,NaN,NaN,NaN,NaN,NaN,NaN,NaN,NaN,NaN
