"Interval"|"ms"|0|0|1,"Utc"|"ms"|0|0|1,"FR"|"Volts"|0.0|5.0|50,"brakerear"|"Volts"|0.0|5.0|50,"Analog3"|""|0.0|5.0|10,"Analog4"|""|0.0|5.0|10,"Analog5"|"Volts"|0.0|5.0|10,"brakepress"|"Volts"|0.0|5.0|50,"STR"|"Volts"|0.0|5.0|50,"Battery"|"Volts"|0.0|20.0|50,"AccelX"|"G"|-3.0|3.0|25,"AccelY"|"G"|-3.0|3.0|25,"AccelZ"|"G"|-3.0|3.0|25,"Yaw"|"Deg/Sec"|-120|120|25,"Pitch"|"Deg/Sec"|-120|120|25,"Roll"|"Deg/Sec"|-120|120|25,"RPM"|""|0|10000|25,"tiretemp"|"celsius"|-1000|1000|10,"tiretemp1"|""|-1000|1000|10,"tiretemp2"|""|-1000|1000|10,"tiretemp3"|""|-1000|1000|10,"Latitude"|"Degrees"|-180.0|180.0|10,"Longitude"|"Degrees"|-180.0|180.0|10,"Speed"|"mph"|0.0|150.0|10,"Distance"|"mi"|0.0|0.0|10,"Altitude"|"ft"|0.0|4000.0|10,"GPSSats"|""|0|20|10
163,0,1.26,0.5,,,,0.2,2.84,3.37,-0.04,-0.0,0.52,0,1,1,0,,,,,,,,,,
183,0,1.25,0.5,,,,0.2,2.85,3.38,,,,,,,,,,,,,,,,,
203,0,1.25,0.5,,,,0.21,2.83,3.37,-0.03,-0.01,0.61,0,0,1,0,,,,,,,,,,
223,0,1.25,0.49,,,,0.21,2.84,3.39,,,,,,,,,,,,,,,,,
243,0,1.26,0.5,0.0,0.2,0.12,0.22,2.84,3.39,-0.03,-0.01,0.68,0,0,1,0,0,0,0,0,0.0,0.0,0.0,0.0,0.0,0
263,0,1.26,0.49,,,,0.22,2.84,3.39,,,,,,,,,,,,,,,,,
343,0,1.25,0.5,0.0,0.22,0.14,0.24,2.85,3.43,,,,,,,,0,0,0,0,0.0,0.0,0.0,0.0,0.0,0
363,0,1.25,0.49,,,,0.24,2.83,3.41,-0.02,-0.01,0.83,-0,0,0,0,,,,,,,,,,
383,0,1.25,0.49,,,,0.25,2.82,3.44,,,,,,,,,,,,,,,,,
403,0,1.24,0.49,,,,0.25,2.81,3.42,-0.02,-0.01,0.86,-0,-0,0,0,,,,,,,,,,
423,0,1.24,0.49,,,,0.26,2.81,3.45,,,,,,,,,,,,,,,,,
443,0,1.24,0.49,0.0,0.23,0.16,0.26,2.8,3.42,-0.02,-0.01,0.89,-0,-0,0,0,0,0,0,0,0.0,0.0,0.0,0.0,0.0,0
463,0,1.24,0.49,,,,0.27,2.8,3.45,,,,,,,,,,,,,,,,,
483,0,1.24,0.49,,,,0.27,2.8,3.42,-0.02,-0.02,0.91,-0,-0,0,0,,,,,,,,,,
503,0,1.23,0.49,,,,0.27,2.8,3.45,,,,,,,,,,,,,,,,,
523,0,1.23,0.49,,,,0.28,2.8,3.42,-0.01,-0.02,0.93,-0,-0,0,0,,,,,,,,,,
543,0,1.24,0.49,0.01,0.24,0.18,0.28,2.8,3.45,,,,,,,,0,0,0,0,0.0,0.0,0.0,0.0,0.0,0
563,0,1.24,0.49,,,,0.28,2.8,3.44,-0.01,-0.02,0.94,-0,-0,0,0,,,,,,,,,,
583,0,1.24,0.49,,,,0.29,2.8,3.46,,,,,,,,,,,,,,,,,
603,0,1.23,0.49,,,,0.29,2.8,3.48,-0.01,-0.02,0.95,-0,-0,0,0,,,,,,,,,,
623,0,1.24,0.49,,,,0.3,2.8,3.46,,,,,,,,,,,,,,,,,
643,0,1.24,0.49,0.0,0.25,0.19,0.3,2.8,3.43,-0.01,-0.02,0.96,-0,-0,-0,0,0,0,0,0,0.0,0.0,0.0,0.0,0.0,0
663,0,1.24,0.48,,,,0.3,2.8,3.46,,,,,,,,,,,,,,,,,
683,0,1.23,0.49,,,,0.31,2.8,3.44,-0.01,-0.02,0.97,-0,-0,-0,0,,,,,,,,,,
703,0,1.24,0.49,,,,0.31,2.8,3.46,,,,,,,,,,,,,,,,,
723,0,1.23,0.49,,,,0.31,2.8,3.45,-0.01,-0.02,0.98,-0,-0,-0,0,,,,,,,,,,
743,0,1.24,0.49,0.0,0.25,0.21,0.32,2.8,3.47,,,,,,,,0,0,0,0,0.0,0.0,0.0,0.0,0.0,0
763,0,1.24,0.49,,,,0.32,2.8,3.49,-0.01,-0.02,0.98,-0,-0,-0,0,,,,,,,,,,
783,0,1.24,0.49,,,,0.32,2.8,3.48,,,,,,,,,,,,,,,,,
803,0,1.23,0.49,,,,0.33,2.8,3.47,-0.01,-0.02,0.98,-0,-0,-0,0,,,,,,,,,,
823,0,1.24,0.49,,,,0.33,2.8,3.48,,,,,,,,,,,,,,,,,
843,0,1.24,0.49,0.0,0.26,0.23,0.33,2.8,3.45,-0.01,-0.02,0.99,-0,-0,-0,0,0,0,0,0,0.0,0.0,0.0,0.0,0.0,0
863,0,1.23,0.49,,,,0.33,2.79,3.49,,,,,,,,,,,,,,,,,
883,0,1.23,0.49,,,,0.34,2.8,3.46,-0.01,-0.02,0.99,-0,-0,-0,0,,,,,,,,,,
903,0,1.24,0.49,,,,0.34,2.8,3.49,,,,,,,,,,,,,,,,,
923,0,1.24,0.49,,,,0.35,2.79,3.5,-0.01,-0.02,0.99,-0,-0,-0,0,,,,,,,,,,
943,0,1.23,0.49,0.01,0.26,0.24,0.35,2.79,3.49,,,,,,,,0,0,0,0,0.0,0.0,0.0,0.0,0.0,0
963,0,1.24,0.49,,,,0.35,2.79,3.46,-0.01,-0.02,0.99,-0,-0,-0,0,,,,,,,,,,
983,0,1.24,0.48,,,,0.35,2.79,3.51,,,,,,,,,,,,,,,,,
1003,0,1.24,0.49,,,,0.36,2.79,3.47,-0.01,-0.02,0.99,-0,-0,-0,0,,,,,,,,,,
1023,0,1.23,0.48,,,,0.36,2.79,3.5,,,,,,,,,,,,,,,,,
1043,0,1.23,0.49,0.0,0.27,0.26,0.36,2.79,3.48,-0.01,-0.02,1.0,-0,-0,-0,0,0,0,0,0,0.0,0.0,0.0,0.0,0.0,0
1063,0,1.23,0.49,,,,0.37,2.79,3.49,,,,,,,,,,,,,,,,,
1083,0,1.23,0.48,,,,0.37,2.78,3.46,-0.01,-0.02,1.0,-0,-0,-0,0,,,,,,,,,,
1103,0,1.23,0.49,,,,0.37,2.79,3.5,,,,,,,,,,,,,,,,,
1123,0,1.24,0.49,,,,0.37,2.79,3.46,-0.01,-0.02,1.0,-0,-0,-0,0,,,,,,,,,,
1143,0,1.23,0.48,0.01,0.27,0.27,0.38,2.78,3.49,,,,,,,,0,0,0,0,0.0,0.0,0.0,0.0,0.0,0
1163,0,1.23,0.49,,,,0.38,2.79,3.46,-0.01,-0.02,1.0,-0,-0,-0,0,,,,,,,,,,
1183,0,1.24,0.49,,,,0.38,2.79,3.51,,,,,,,,,,,,,,,,,
1203,0,1.23,0.49,,,,0.38,2.78,3.47,-0.01,-0.02,1.0,-0,-0,-0,0,,,,,,,,,,
1223,0,1.24,0.49,,,,0.39,2.79,3.53,,,,,,,,,,,,,,,,,
1243,0,1.23,0.49,0.0,0.27,0.29,0.39,2.79,3.46,-0.01,-0.02,1.0,-0,-0,-0,0,0,0,0,0,0.0,0.0,0.0,0.0,0.0,0
1263,0,1.23,0.49,,,,0.39,2.79,3.49,,,,,,,,,,,,,,,,,
1283,0,1.23,0.49,,,,0.39,2.8,3.47,-0.01,-0.02,1.0,-0,-0,-0,0,,,,,,,,,,
1303,0,1.23,0.49,,,,0.4,2.79,3.49,,,,,,,,,,,,,,,,,
1323,0,1.23,0.49,,,,0.4,2.79,3.46,-0.01,-0.02,1.0,-0,-0,-0,0,,,,,,,,,,
1343,0,1.24,0.49,0.01,0.27,0.3,0.4,2.79,3.49,,,,,,,,0,0,0,0,0.0,0.0,0.0,0.0,0.0,0
1363,0,1.23,0.49,,,,0.41,2.79,3.47,-0.01,-0.02,1.0,-0,-0,-0,0,,,,,,,,,,
1383,0,1.23,0.49,,,,0.41,2.79,3.5,,,,,,,,,,,,,,,,,
1403,0,1.24,0.49,,,,0.41,2.8,3.47,-0.01,-0.02,1.0,-0,-0,-0,0,,,,,,,,,,
1423,0,1.23,0.48,,,,0.42,2.79,3.49,,,,,,,,,,,,,,,,,
1443,0,1.23,0.49,0.0,0.27,0.32,0.42,2.78,3.46,-0.01,-0.02,1.0,-0,-0,-0,0,0,0,0,0,0.0,0.0,0.0,0.0,0.0,0
1463,0,1.23,0.49,,,,0.42,2.8,3.49,,,,,,,,,,,,,,,,,
1483,0,1.23,0.48,,,,0.42,2.79,3.46,-0.01,-0.02,1.0,-0,-0,-0,0,,,,,,,,,,
1503,0,1.23,0.48,,,,0.43,2.79,3.5,,,,,,,,,,,,,,,,,
1523,0,1.23,0.49,,,,0.43,2.8,3.51,-0.01,-0.02,1.0,-0,-0,-0,0,,,,,,,,,,
1543,0,1.23,0.49,0.01,0.27,0.34,0.43,2.8,3.5,,,,,,,,0,0,0,0,0.0,0.0,0.0,0.0,0.0,0
1563,0,1.23,0.49,,,,0.43,2.79,3.47,-0.01,-0.02,1.0,-0,-0,-0,0,,,,,,,,,,
1583,0,1.23,0.49,,,,0.44,2.79,3.52,,,,,,,,,,,,,,,,,
1603,0,1.23,0.49,,,,0.44,2.79,3.48,-0.01,-0.02,1.0,-0,-0,-0,0,,,,,,,,,,
1623,0,1.23,0.49,,,,0.44,2.79,3.5,,,,,,,,,,,,,,,,,
1643,0,1.23,0.49,0.0,0.28,0.35,0.44,2.8,3.47,-0.01,-0.02,1.0,-0,-0,-0,0,0,0,0,0,0.0,0.0,0.0,0.0,0.0,0
1663,0,1.23,0.49,,,,0.44,2.79,3.5,,,,,,,,,,,,,,,,,
1683,0,1.23,0.5,,,,0.45,2.79,3.47,-0.01,-0.02,1.0,-0,-0,-0,0,,,,,,,,,,
1703,0,1.24,0.49,,,,0.45,2.79,3.5,,,,,,,,,,,,,,,,,
1723,0,1.23,0.48,,,,0.45,2.79,3.48,-0.01,-0.02,1.0,-0,-0,-0,0,,,,,,,,,,
1743,0,1.23,0.49,0.0,0.28,0.36,0.46,2.79,3.51,,,,,,,,0,0,0,0,0.0,0.0,0.0,0.0,0.0,0
1763,0,1.24,0.49,,,,0.46,2.78,3.48,-0.01,-0.02,1.0,-0,-0,-0,0,,,,,,,,,,
1783,0,1.24,0.49,,,,0.46,2.79,3.51,,,,,,,,,,,,,,,,,
1803,0,1.23,0.48,,,,0.46,2.79,3.48,-0.01,-0.02,1.0,-0,-0,-0,0,,,,,,,,,,
1823,0,1.24,0.49,,,,0.47,2.79,3.54,,,,,,,,,,,,,,,,,
1843,0,1.23,0.49,0.0,0.28,0.38,0.47,2.79,3.48,-0.01,-0.02,1.0,-0,-0,-0,0,0,0,0,0,0.0,0.0,0.0,0.0,0.0,0
1863,0,1.23,0.49,,,,0.47,2.79,3.51,,,,,,,,,,,,,,,,,
1883,0,1.23,0.49,,,,0.47,2.78,3.48,-0.01,-0.02,1.0,-0,-0,-0,0,,,,,,,,,,
1903,0,1.23,0.49,,,,0.48,2.8,3.51,,,,,,,,,,,,,,,,,
1923,0,1.23,0.49,,,,0.48,2.78,3.48,-0.01,-0.02,1.0,-0,-0,-0,0,,,,,,,,,,
1943,0,1.24,0.49,0.0,0.28,0.39,0.48,2.78,3.51,,,,,,,,0,0,0,0,0.0,0.0,0.0,0.0,0.0,0
1963,0,1.24,0.49,,,,0.48,2.79,3.48,-0.01,-0.02,1.0,-0,-0,-0,0,,,,,,,,,,
1983,0,1.24,0.49,,,,0.49,2.79,3.52,,,,,,,,,,,,,,,,,
2003,0,1.23,0.48,,,,0.49,2.79,3.49,-0.01,-0.02,1.0,-0,-0,-0,0,,,,,,,,,,
2023,0,1.23,0.49,,,,0.49,2.79,3.51,,,,,,,,,,,,,,,,,
2043,0,1.23,0.49,0.0,0.28,0.4,0.49,2.79,3.48,-0.01,-0.02,1.0,-0,-0,-0,0,0,0,0,0,0.0,0.0,0.0,0.0,0.0,0
2063,0,1.23,0.49,,,,0.49,2.79,3.51,,,,,,,,,,,,,,,,,
2083,0,1.23,0.49,,,,0.49,2.79,3.47,-0.01,-0.02,1.0,-0,-0,-0,0,,,,,,,,,,
2103,0,1.23,0.49,,,,0.5,2.8,3.51,,,,,,,,,,,,,,,,,
2123,0,1.23,0.49,,,,0.5,2.78,3.52,-0.01,-0.02,1.0,-0,-0,-0,0,,,,,,,,,,
2143,0,1.23,0.48,0.0,0.28,0.42,0.5,2.79,3.5,,,,,,,,0,0,0,0,0.0,0.0,0.0,0.0,0.0,0
2163,0,1.23,0.49,,,,0.5,2.79,3.47,-0.01,-0.02,1.0,-0,-0,-0,0,,,,,,,,,,
2183,0,1.24,0.49,,,,0.51,2.79,3.51,,,,,,,,,,,,,,,,,
2203,0,1.23,0.49,,,,0.51,2.79,3.49,-0.01,-0.02,1.0,-0,-0,-0,0,,,,,,,,,,
2223,0,1.23,0.49,,,,0.51,2.79,3.51,,,,,,,,,,,,,,,,,
2243,0,1.23,0.49,0.0,0.28,0.43,0.51,2.79,3.47,-0.01,-0.02,1.0,-0,-0,-0,0,0,0,0,0,0.0,0.0,0.0,0.0,0.0,0
2263,0,1.24,0.49,,,,0.52,2.78,3.5,,,,,,,,,,,,,,,,,
2283,0,1.23,0.49,,,,0.52,2.78,3.51,-0.01,-0.02,1.0,-0,-0,-0,0,,,,,,,,,,
2303,0,1.23,0.49,,,,0.52,2.79,3.51,,,,,,,,,,,,,,,,,
2323,0,1.23,0.49,,,,0.52,2.78,3.47,-0.01,-0.02,1.0,-0,-0,-0,0,,,,,,,,,,
2343,0,1.24,0.49,0.01,0.28,0.45,0.53,2.78,3.51,,,,,,,,0,0,0,0,0.0,0.0,0.0,0.0,0.0,0
2363,0,1.23,0.49,,,,0.53,2.78,3.48,-0.01,-0.02,1.0,-0,-0,-0,0,,,,,,,,,,
2383,0,1.23,0.49,,,,0.53,2.79,3.52,,,,,,,,,,,,,,,,,
2403,0,1.23,0.49,,,,0.53,2.79,3.49,-0.01,-0.02,1.0,-0,-0,-0,0,,,,,,,,,,
2423,0,1.23,0.48,,,,0.54,2.78,3.51,,,,,,,,,,,,,,,,,
2443,0,1.23,0.48,0.0,0.28,0.46,0.54,2.79,3.48,-0.01,-0.02,1.0,-0,-0,-0,0,0,0,0,0,0.0,0.0,0.0,0.0,0.0,0
2463,0,1.24,0.49,,,,0.54,2.79,3.51,,,,,,,,,,,,,,,,,
2483,0,1.23,0.49,,,,0.54,2.79,3.47,-0.01,-0.02,1.0,-0,-0,-0,0,,,,,,,,,,
2503,0,1.23,0.49,,,,0.54,2.79,3.51,,,,,,,,,,,,,,,,,
2523,0,1.23,0.49,,,,0.54,2.79,3.46,-0.01,-0.02,1.0,-0,-0,-0,0,,,,,,,,,,
2543,0,1.23,0.49,0.0,0.28,0.48,0.55,2.79,3.5,,,,,,,,0,0,0,0,0.0,0.0,0.0,0.0,0.0,0
2563,0,1.23,0.49,,,,0.55,2.79,3.48,-0.01,-0.02,1.0,-0,-0,-0,0,,,,,,,,,,
2583,0,1.23,0.49,,,,0.55,2.78,3.52,,,,,,,,,,,,,,,,,
2603,0,1.22,0.49,,,,0.55,2.78,3.48,-0.01,-0.02,1.0,-0,-0,-0,0,,,,,,,,,,
2623,0,1.23,0.49,,,,0.56,2.79,3.51,,,,,,,,,,,,,,,,,
2643,0,1.23,0.48,0.0,0.28,0.49,0.56,2.78,3.48,-0.01,-0.02,1.0,-0,-0,-0,0,0,0,0,0,0.0,0.0,0.0,0.0,0.0,0
2663,0,1.23,0.49,,,,0.56,2.78,3.51,,,,,,,,,,,,,,,,,
2683,0,1.23,0.49,,,,0.56,2.78,3.48,-0.01,-0.02,1.0,-0,-0,-0,0,,,,,,,,,,
2703,0,1.23,0.48,,,,0.56,2.8,3.51,,,,,,,,,,,,,,,,,
2723,0,1.23,0.49,,,,0.57,2.79,3.52,-0.01,-0.02,1.0,-0,-0,-0,0,,,,,,,,,,
2743,0,1.23,0.48,0.0,0.28,0.5,0.57,2.78,3.51,,,,,,,,0,0,0,0,0.0,0.0,0.0,0.0,0.0,0
2763,0,1.23,0.49,,,,0.57,2.78,3.48,-0.01,-0.02,1.0,-0,-0,-0,0,,,,,,,,,,
2783,0,1.23,0.49,,,,0.57,2.79,3.52,,,,,,,,,,,,,,,,,
2803,0,1.23,0.48,,,,0.57,2.78,3.48,-0.01,-0.02,1.0,-0,-0,-0,0,,,,,,,,,,
2823,0,1.23,0.48,,,,0.58,2.78,3.51,,,,,,,,,,,,,,,,,
2843,0,1.23,0.48,0.0,0.28,0.51,0.58,2.78,3.48,-0.01,-0.02,1.0,-0,-0,-0,0,0,0,0,0,0.0,0.0,0.0,0.0,0.0,0
2863,0,1.22,0.49,,,,0.58,2.79,3.51,,,,,,,,,,,,,,,,,
2883,0,1.24,0.48,,,,0.58,2.79,3.51,-0.01,-0.02,1.0,-0,-0,-0,0,,,,,,,,,,
2903,0,1.23,0.48,,,,0.58,2.79,3.51,,,,,,,,,,,,,,,,,
2923,0,1.23,0.48,,,,0.58,2.78,3.48,-0.01,-0.02,1.0,-0,-0,-0,0,,,,,,,,,,
2943,0,1.23,0.49,0.0,0.28,0.53,0.59,2.78,3.51,,,,,,,,0,0,0,0,0.0,0.0,0.0,0.0,0.0,0
2963,0,1.24,0.49,,,,0.59,2.79,3.48,-0.01,-0.02,1.0,-0,-0,-0,0,,,,,,,,,,
2983,0,1.24,0.49,,,,0.59,2.78,3.52,,,,,,,,,,,,,,,,,
3003,0,1.23,0.48,,,,0.59,2.78,3.48,-0.01,-0.02,1.0,-0,-0,-0,0,,,,,,,,,,
3023,0,1.23,0.49,,,,0.6,2.79,3.51,,,,,,,,,,,,,,,,,
3043,0,1.24,0.49,0.0,0.28,0.54,0.6,2.79,3.47,-0.02,-0.02,1.0,-0,-0,-0,0,0,0,0,0,0.0,0.0,0.0,0.0,0.0,0
3063,0,1.24,0.49,,,,0.6,2.78,3.5,,,,,,,,,,,,,,,,,
3083,0,1.23,0.49,,,,0.6,2.78,3.48,-0.01,-0.02,1.0,-0,-0,-0,0,,,,,,,,,,
3103,0,1.23,0.49,,,,0.6,2.78,3.51,,,,,,,,,,,,,,,,,
3123,0,1.23,0.49,,,,0.6,2.79,3.48,-0.01,-0.02,1.0,-0,-0,-0,0,,,,,,,,,,
3143,0,1.24,0.49,0.01,0.28,0.55,0.6,2.79,3.51,,,,,,,,0,0,0,0,0.0,0.0,0.0,0.0,0.0,0
3163,0,1.23,0.49,,,,0.61,2.78,3.47,-0.01,-0.02,1.0,-0,-0,-0,0,,,,,,,,,,
3183,0,1.23,0.49,,,,0.61,2.78,3.55,,,,,,,,,,,,,,,,,
3203,0,1.23,0.49,,,,0.61,2.79,3.48,-0.01,-0.02,1.0,-0,-0,-0,0,,,,,,,,,,
3223,0,1.23,0.49,,,,0.61,2.79,3.5,,,,,,,,,,,,,,,,,
3243,0,1.23,0.49,0.0,0.28,0.57,0.61,2.78,3.48,-0.01,-0.02,1.0,-0,-0,-0,0,0,0,0,0,0.0,0.0,0.0,0.0,0.0,0
3263,0,1.23,0.49,,,,0.62,2.78,3.5,,,,,,,,,,,,,,,,,
3283,0,1.23,0.49,,,,0.62,2.78,3.47,-0.01,-0.02,1.0,-0,-0,-0,0,,,,,,,,,,
3303,0,1.23,0.49,,,,0.62,2.78,3.5,,,,,,,,,,,,,,,,,
3323,0,1.23,0.49,,,,0.62,2.78,3.47,-0.01,-0.02,1.0,-0,-0,-0,0,,,,,,,,,,
3343,0,1.23,0.49,0.0,0.28,0.58,0.62,2.79,3.5,,,,,,,,0,0,0,0,0.0,0.0,0.0,0.0,0.0,0
3363,0,1.24,0.49,,,,0.62,2.79,3.47,-0.01,-0.02,1.0,-0,-0,-0,0,,,,,,,,,,
3383,0,1.24,0.49,,,,0.63,2.78,3.51,,,,,,,,,,,,,,,,,
3403,0,1.23,0.49,,,,0.63,2.79,3.48,-0.01,-0.02,1.0,-0,-0,-0,0,,,,,,,,,,
3423,0,1.23,0.49,,,,0.63,2.81,3.5,,,,,,,,,,,,,,,,,
3443,0,1.23,0.49,0.0,0.28,0.59,0.63,2.79,3.47,-0.0,-0.02,1.0,-0,-0,-0,0,0,0,0,0,0.0,0.0,0.0,0.0,0.0,0
3463,0,1.23,0.48,,,,0.63,2.79,3.49,,,,,,,,,,,,,,,,,
3483,0,1.23,0.49,,,,0.64,2.79,3.46,-0.0,-0.02,1.0,-0,-0,-0,0,,,,,,,,,,
3503,0,1.24,0.49,,,,0.64,2.8,3.5,,,,,,,,,,,,,,,,,
3523,0,1.24,0.48,,,,0.64,2.79,3.47,-0.01,-0.02,1.0,-0,-0,-0,0,,,,,,,,,,
3543,0,1.23,0.48,0.0,0.28,0.6,0.64,2.78,3.5,,,,,,,,0,0,0,0,0.0,0.0,0.0,0.0,0.0,0
3563,0,1.23,0.49,,,,0.64,2.78,3.47,-0.01,-0.02,1.0,-0,-0,-0,0,,,,,,,,,,
3583,0,1.23,0.49,,,,0.65,2.8,3.51,,,,,,,,,,,,,,,,,
3603,0,1.23,0.49,,,,0.65,2.78,3.47,-0.01,-0.02,1.0,-0,-0,-0,0,,,,,,,,,,
3623,0,1.23,0.49,,,,0.65,2.78,3.49,,,,,,,,,,,,,,,,,
3643,0,1.23,0.49,0.0,0.29,0.61,0.65,2.78,3.5,-0.01,-0.02,1.0,-0,-0,-0,0,0,0,0,0,0.0,0.0,0.0,0.0,0.0,0
3663,0,1.23,0.49,,,,0.65,2.78,3.49,,,,,,,,,,,,,,,,,
3683,0,1.23,0.49,,,,0.65,2.78,3.46,-0.01,-0.02,1.0,-0,-0,-0,0,,,,,,,,,,
3703,0,1.23,0.49,,,,0.66,2.8,3.49,,,,,,,,,,,,,,,,,
3723,0,1.23,0.48,,,,0.66,2.79,3.46,-0.01,-0.02,1.0,-0,-0,-0,0,,,,,,,,,,
3743,0,1.23,0.48,0.0,0.28,0.63,0.66,2.79,3.49,,,,,,,,0,0,0,0,0.0,0.0,0.0,0.0,0.0,0
3763,0,1.23,0.49,,,,0.66,2.78,3.46,-0.01,-0.02,1.0,-0,-0,-0,0,,,,,,,,,,
3783,0,1.24,0.49,,,,0.66,2.79,3.51,,,,,,,,,,,,,,,,,
3803,0,1.24,0.49,,,,0.67,2.79,3.48,-0.01,-0.02,1.0,-0,-0,-0,0,,,,,,,,,,
3823,0,1.23,0.49,,,,0.67,2.78,3.49,,,,,,,,,,,,,,,,,
3843,0,1.23,0.5,0.0,0.28,0.64,0.67,2.78,3.46,-0.01,-0.02,1.0,-0,-0,-0,0,0,0,0,0,0.0,0.0,0.0,0.0,0.0,0
3863,0,1.23,0.49,,,,0.67,2.79,3.5,,,,,,,,,,,,,,,,,
3883,0,1.23,0.49,,,,0.67,2.79,3.46,-0.01,-0.02,1.0,-0,-0,-0,0,,,,,,,,,,
3903,0,1.23,0.49,,,,0.67,2.79,3.5,,,,,,,,,,,,,,,,,
3923,0,1.23,0.49,,,,0.67,2.78,3.46,-0.01,-0.02,1.0,-0,-0,-0,0,,,,,,,,,,
3943,0,1.23,0.48,0.0,0.28,0.65,0.68,2.79,3.52,,,,,,,,0,0,0,0,0.0,0.0,0.0,0.0,0.0,0
3963,0,1.23,0.49,,,,0.68,2.78,3.46,-0.01,-0.02,1.0,-0,-0,-0,0,,,,,,,,,,
3983,0,1.23,0.49,,,,0.68,2.79,3.5,,,,,,,,,,,,,,,,,
4003,0,1.23,0.48,,,,0.68,2.79,3.46,-0.01,-0.02,1.0,-0,-0,-0,0,,,,,,,,,,
4023,0,1.23,0.49,,,,0.68,2.78,3.49,,,,,,,,,,,,,,,,,
4043,0,1.23,0.5,0.0,0.28,0.66,0.68,2.78,3.46,-0.01,-0.02,1.0,-0,-0,-0,0,0,0,0,0,0.0,0.0,0.0,0.0,0.0,0
4063,0,1.23,0.49,,,,0.69,2.78,3.48,,,,,,,,,,,,,,,,,
4083,0,1.23,0.49,,,,0.69,2.78,3.45,-0.01,-0.02,1.0,-0,-0,-0,0,,,,,,,,,,
4103,0,1.23,0.48,,,,0.69,2.8,3.49,,,,,,,,,,,,,,,,,
4123,0,1.23,0.48,,,,0.69,2.78,3.45,-0.01,-0.02,1.0,-0,-0,-0,0,,,,,,,,,,
4143,0,1.23,0.48,0.01,0.28,0.67,0.69,2.78,3.48,,,,,,,,0,0,0,0,0.0,0.0,0.0,0.0,0.0,0
4163,0,1.23,0.49,,,,0.69,2.78,3.45,-0.01,-0.02,1.0,-0,-0,-0,0,,,,,,,,,,
4183,0,1.23,0.49,,,,0.7,2.79,3.49,,,,,,,,,,,,,,,,,
4203,0,1.23,0.48,,,,0.7,2.79,3.45,-0.01,-0.02,1.0,-0,-0,-0,0,,,,,,,,,,
4223,0,1.23,0.49,,,,0.7,2.8,3.49,,,,,,,,,,,,,,,,,
4243,0,1.24,0.48,0.0,0.28,0.69,0.7,2.79,3.49,-0.01,-0.02,1.0,-0,-0,-0,0,0,0,0,0,0.0,0.0,0.0,0.0,0.0,0
4263,0,1.24,0.48,,,,0.7,2.79,3.48,,,,,,,,,,,,,,,,,
4283,0,1.23,0.49,,,,0.7,2.78,3.45,-0.01,-0.02,1.0,-0,-0,-0,0,,,,,,,,,,
4303,0,1.23,0.49,,,,0.71,2.79,3.49,,,,,,,,,,,,,,,,,
4323,0,1.23,0.49,,,,0.71,2.79,3.45,-0.01,-0.02,1.0,-0,-0,-0,0,,,,,,,,,,
4343,0,1.24,0.49,0.0,0.28,0.7,0.71,2.79,3.48,,,,,,,,0,0,0,0,0.0,0.0,0.0,0.0,0.0,0
4363,0,1.19,0.48,,,,0.71,2.79,3.46,-0.01,-0.02,1.0,-0,-0,-0,0,,,,,,,,,,
4383,0,1.23,0.48,,,,0.71,2.79,3.49,,,,,,,,,,,,,,,,,
4403,0,1.23,0.49,,,,0.71,2.79,3.45,-0.01,-0.02,1.0,-0,-0,-0,0,,,,,,,,,,
4423,0,1.23,0.49,,,,0.72,2.79,3.49,,,,,,,,,,,,,,,,,
4443,0,1.23,0.49,0.0,0.28,0.71,0.72,2.79,3.45,-0.01,-0.02,1.01,-0,-0,-0,0,0,0,0,0,0.0,0.0,0.0,0.0,0.0,0
4463,0,1.23,0.49,,,,0.72,2.78,3.49,,,,,,,,,,,,,,,,,
4483,0,1.23,0.48,,,,0.72,2.79,3.45,-0.01,-0.02,1.01,-0,-0,-0,0,,,,,,,,,,
4503,0,1.23,0.49,,,,0.72,2.79,3.49,,,,,,,,,,,,,,,,,
4523,0,1.23,0.49,,,,0.72,2.78,3.45,-0.01,-0.02,1.01,-0,-0,-0,0,,,,,,,,,,
4543,0,1.23,0.49,0.01,0.28,0.72,0.72,2.79,3.48,,,,,,,,0,0,0,0,0.0,0.0,0.0,0.0,0.0,0
4563,0,1.23,0.48,,,,0.72,2.79,3.45,-0.01,-0.02,1.01,-0,-0,-0,0,,,,,,,,,,
4583,0,1.23,0.49,,,,0.73,2.79,3.5,,,,,,,,,,,,,,,,,
4603,0,1.23,0.49,,,,0.73,2.78,3.45,-0.01,-0.02,1.01,-0,-0,-0,0,,,,,,,,,,
4623,0,1.23,0.49,,,,0.73,2.79,3.49,,,,,,,,,,,,,,,,,
4643,0,1.22,0.49,0.0,0.28,0.73,0.73,2.78,3.45,-0.01,-0.02,1.0,-0,-0,-0,0,0,0,0,0,0.0,0.0,0.0,0.0,0.0,0
4663,0,1.23,0.49,,,,0.73,2.79,3.48,,,,,,,,,,,,,,,,,
4683,0,1.24,0.49,,,,0.73,2.79,3.45,-0.01,-0.02,1.0,-0,-0,-0,0,,,,,,,,,,
4703,0,1.23,0.49,,,,0.74,2.78,3.48,,,,,,,,,,,,,,,,,
4723,0,1.23,0.49,,,,0.74,2.78,3.46,-0.01,-0.02,1.0,-0,-0,-0,0,,,,,,,,,,
4743,0,1.23,0.48,0.01,0.28,0.74,0.74,2.79,3.49,,,,,,,,0,0,0,0,0.0,0.0,0.0,0.0,0.0,0
4763,0,1.23,0.49,,,,0.74,2.78,3.45,-0.01,-0.02,1.0,-0,-0,-0,0,,,,,,,,,,
4783,0,1.23,0.48,,,,0.74,2.78,3.5,,,,,,,,,,,,,,,,,
4803,0,1.23,0.48,,,,0.74,2.78,3.46,-0.01,-0.02,1.0,-0,-0,-0,0,,,,,,,,,,
4823,0,1.23,0.49,,,,0.75,2.78,3.48,,,,,,,,,,,,,,,,,
4843,0,1.23,0.48,0.0,0.28,0.75,0.75,2.78,3.49,-0.01,-0.02,1.0,-0,-0,-0,0,0,0,0,0,0.0,0.0,0.0,0.0,0.0,0
4863,0,1.22,0.48,,,,0.75,2.78,3.48,,,,,,,,,,,,,,,,,
4883,0,1.23,0.49,,,,0.75,2.78,3.45,-0.01,-0.02,1.0,-0,-0,-0,0,,,,,,,,,,
4903,0,1.23,0.49,,,,0.75,2.78,3.48,,,,,,,,,,,,,,,,,
4923,0,1.23,0.49,,,,0.75,2.78,3.45,-0.01,-0.02,1.0,-0,-0,-0,0,,,,,,,,,,
4943,0,1.23,0.48,0.01,0.28,0.76,0.75,2.78,3.48,,,,,,,,0,0,0,0,0.0,0.0,0.0,0.0,0.0,0
4963,0,1.23,0.49,,,,0.75,2.77,3.45,-0.01,-0.02,1.0,-0,-0,-0,0,,,,,,,,,,
4983,0,1.23,0.49,,,,0.76,2.78,3.49,,,,,,,,,,,,,,,,,
5003,0,1.23,0.48,,,,0.76,2.78,3.45,-0.01,-0.02,1.0,-0,-0,-0,0,,,,,,,,,,
5023,0,1.22,0.49,,,,0.76,2.78,3.48,,,,,,,,,,,,,,,,,
5043,0,1.23,0.49,0.0,0.28,0.77,0.76,2.77,3.45,-0.01,-0.02,1.0,-0,-0,-0,0,0,0,0,0,0.0,0.0,0.0,0.0,0.0,0
5063,0,1.23,0.49,,,,0.76,2.78,3.48,,,,,,,,,,,,,,,,,
5083,0,1.23,0.48,,,,0.76,2.78,3.45,-0.01,-0.02,1.0,-0,-0,-0,0,,,,,,,,,,
5103,0,1.22,0.48,,,,0.77,2.78,3.48,,,,,,,,,,,,,,,,,
5123,0,1.22,0.49,,,,0.77,2.77,3.45,-0.01,-0.02,1.0,-0,-0,-0,0,,,,,,,,,,
5143,0,1.22,0.49,0.0,0.28,0.78,0.77,2.78,3.51,,,,,,,,0,0,0,0,0.0,0.0,0.0,0.0,0.0,0
5163,0,1.23,0.49,,,,0.77,2.78,3.45,-0.01,-0.02,1.0,-0,-0,-0,0,,,,,,,,,,
5183,0,1.23,0.48,,,,0.77,2.78,3.49,,,,,,,,,,,,,,,,,
5203,0,1.23,0.49,,,,0.77,2.78,3.45,-0.01,-0.02,1.0,-0,-0,-0,0,,,,,,,,,,
5223,0,1.23,0.48,,,,0.77,2.79,3.48,,,,,,,,,,,,,,,,,
5243,0,1.23,0.49,0.0,0.28,0.79,0.77,2.77,3.45,-0.01,-0.02,1.0,-0,-0,-0,0,0,0,0,0,0.0,0.0,0.0,0.0,0.0,0
5263,0,1.22,0.49,,,,0.78,2.78,3.47,,,,,,,,,,,,,,,,,
5283,0,1.23,0.48,,,,0.78,2.78,3.45,-0.01,-0.02,1.0,-0,-0,-0,0,,,,,,,,,,
5303,0,1.23,0.49,,,,0.78,2.78,3.48,,,,,,,,,,,,,,,,,
5323,0,1.23,0.49,,,,0.78,2.78,3.45,-0.01,-0.02,1.0,-0,-0,-0,0,,,,,,,,,,
5343,0,1.23,0.49,0.0,0.28,0.8,0.78,2.78,3.48,,,,,,,,0,0,0,0,0.0,0.0,0.0,0.0,0.0,0
5363,0,1.23,0.48,,,,0.78,2.78,3.45,-0.01,-0.02,1.0,-0,-0,-0,0,,,,,,,,,,
5383,0,1.23,0.48,,,,0.79,2.78,3.49,,,,,,,,,,,,,,,,,
5403,0,1.23,0.49,,,,0.79,2.78,3.45,-0.01,-0.02,1.0,-0,-0,-0,0,,,,,,,,,,
5423,0,1.22,0.48,,,,0.79,2.78,3.48,,,,,,,,,,,,,,,,,
5443,0,1.22,0.49,0.0,0.28,0.81,0.79,2.78,3.45,-0.01,-0.02,1.0,-0,-0,-0,0,0,0,0,0,0.0,0.0,0.0,0.0,0.0,0
5463,0,1.23,0.49,,,,0.79,2.79,3.48,,,,,,,,,,,,,,,,,
5483,0,1.23,0.48,,,,0.79,2.79,3.45,-0.01,-0.02,1.0,-0,-0,-0,0,,,,,,,,,,
5503,0,1.23,0.48,,,,0.79,2.8,3.48,,,,,,,,,,,,,,,,,
5523,0,1.23,0.48,,,,0.79,2.78,3.45,-0.01,-0.02,1.0,-0,-0,-0,0,,,,,,,,,,
5543,0,1.23,0.49,0.0,0.28,0.82,0.8,2.78,3.47,,,,,,,,0,0,0,0,0.0,0.0,0.0,0.0,0.0,0
5563,0,1.23,0.48,,,,0.79,2.78,3.45,-0.01,-0.02,1.0,-0,-0,-0,0,,,,,,,,,,
5583,0,1.23,0.49,,,,0.8,2.78,3.48,,,,,,,,,,,,,,,,,
5603,0,1.23,0.49,,,,0.8,2.78,3.45,-0.01,-0.02,1.0,-0,-0,-0,0,,,,,,,,,,
5623,0,1.23,0.49,,,,0.8,2.79,3.48,,,,,,,,,,,,,,,,,
5643,0,1.23,0.48,0.0,0.28,0.83,0.8,2.78,3.45,-0.01,-0.02,1.0,-0,-0,-0,0,0,0,0,0,0.0,0.0,0.0,0.0,0.0,0
5663,0,1.23,0.49,,,,0.8,2.78,3.47,,,,,,,,,,,,,,,,,
5683,0,1.23,0.49,,,,0.8,2.78,3.45,-0.01,-0.02,1.0,-0,-0,-0,0,,,,,,,,,,
5703,0,1.23,0.49,,,,0.81,2.78,3.47,,,,,,,,,,,,,,,,,
5723,0,1.23,0.48,,,,0.81,2.78,3.45,-0.01,-0.02,1.0,-0,-0,-0,0,,,,,,,,,,
5743,0,1.23,0.48,0.01,0.28,0.84,0.81,2.78,3.48,,,,,,,,0,0,0,0,0.0,0.0,0.0,0.0,0.0,0
5763,0,1.23,0.49,,,,0.81,2.78,3.42,-0.01,-0.02,1.0,-0,-0,-0,0,,,,,,,,,,
5783,0,1.23,0.48,,,,0.81,2.78,3.46,,,,,,,,,,,,,,,,,
5803,0,1.23,0.49,,,,0.81,2.79,3.42,-0.01,-0.02,1.0,-0,-0,-0,0,,,,,,,,,,
5823,0,1.23,0.49,,,,0.81,2.78,3.45,,,,,,,,,,,,,,,,,
5843,0,1.23,0.49,0.0,0.28,0.85,0.81,2.79,3.45,-0.01,-0.02,1.0,-0,-0,-0,0,0,0,0,0,0.0,0.0,0.0,0.0,0.0,0
5863,0,1.23,0.49,,,,0.82,2.78,3.48,,,,,,,,,,,,,,,,,
5883,0,1.22,0.49,,,,0.82,2.78,3.45,-0.01,-0.02,1.0,-0,-0,-0,0,,,,,,,,,,
5903,0,1.23,0.48,,,,0.82,2.79,3.48,,,,,,,,,,,,,,,,,
5923,0,1.23,0.49,,,,0.82,2.78,3.45,-0.01,-0.02,1.0,-0,-0,-0,0,,,,,,,,,,
5943,0,1.23,0.48,0.01,0.28,0.86,0.82,2.79,3.48,,,,,,,,0,0,0,0,0.0,0.0,0.0,0.0,0.0,0
5963,0,1.24,0.49,,,,0.82,2.78,3.45,-0.01,-0.02,1.0,-0,-0,-0,0,,,,,,,,,,
5983,0,1.23,0.49,,,,0.82,2.79,3.49,,,,,,,,,,,,,,,,,
6003,0,1.23,0.49,,,,0.83,2.79,3.45,-0.01,-0.02,1.0,-0,-0,-0,0,,,,,,,,,,
6023,0,1.23,0.49,,,,0.83,2.78,3.47,,,,,,,,,,,,,,,,,
6043,0,1.23,0.49,0.0,0.28,0.87,0.83,2.78,3.48,-0.01,-0.02,1.0,-0,-0,-0,0,0,0,0,0,0.0,0.0,0.0,0.0,0.0,0
6063,0,1.23,0.48,,,,0.83,2.77,3.48,,,,,,,,,,,,,,,,,
6083,0,1.23,0.49,,,,0.83,2.78,3.45,-0.01,-0.02,1.0,-0,-0,-0,0,,,,,,,,,,
6103,0,1.23,0.48,,,,0.83,2.78,3.47,,,,,,,,,,,,,,,,,
6123,0,1.23,0.49,,,,0.83,2.79,3.45,-0.01,-0.02,1.0,-0,-0,-0,0,,,,,,,,,,
6143,0,1.23,0.49,0.01,0.28,0.88,0.83,2.78,3.47,,,,,,,,0,0,0,0,0.0,0.0,0.0,0.0,0.0,0
6163,0,1.23,0.49,,,,0.83,2.78,3.45,-0.01,-0.02,1.0,-0,-0,-0,0,,,,,,,,,,
6183,0,1.23,0.48,,,,0.84,2.78,3.48,,,,,,,,,,,,,,,,,
6203,0,1.23,0.49,,,,0.84,2.79,3.44,-0.01,-0.02,1.0,-0,-0,-0,0,,,,,,,,,,
6223,0,1.23,0.48,,,,0.84,2.78,3.48,,,,,,,,,,,,,,,,,
6243,0,1.23,0.49,0.0,0.28,0.89,0.84,2.78,3.45,-0.01,-0.02,1.0,-0,-0,-0,0,0,0,0,0,0.0,0.0,0.0,0.0,0.0,0
6263,0,1.23,0.49,,,,0.84,2.78,3.47,,,,,,,,,,,,,,,,,
6283,0,1.23,0.49,,,,0.84,2.78,3.45,-0.01,-0.02,1.0,-0,-0,-0,0,,,,,,,,,,
6303,0,1.23,0.48,,,,0.84,2.78,3.48,,,,,,,,,,,,,,,,,
6323,0,1.23,0.48,,,,0.84,2.78,3.45,-0.01,-0.02,1.0,-0,-0,-0,0,,,,,,,,,,
6343,0,1.23,0.49,0.01,0.28,0.9,0.85,2.78,3.51,,,,,,,,0,0,0,0,0.0,0.0,0.0,0.0,0.0,0
6363,0,1.23,0.49,,,,0.85,2.78,3.45,-0.01,-0.02,1.0,-0,-0,-0,0,,,,,,,,,,
6383,0,1.23,0.49,,,,0.85,2.78,3.48,,,,,,,,,,,,,,,,,
6403,0,1.23,0.49,,,,0.85,2.79,3.45,-0.01,-0.02,1.0,-0,-0,-0,0,,,,,,,,,,
6423,0,1.23,0.49,,,,0.85,2.79,3.47,,,,,,,,,,,,,,,,,
6443,0,1.23,0.49,0.0,0.28,0.91,0.85,2.79,3.44,-0.01,-0.02,1.0,-0,-0,-0,0,0,0,0,0,0.0,0.0,0.0,0.0,0.0,0
6463,0,1.23,0.49,,,,0.85,2.78,3.47,,,,,,,,,,,,,,,,,
6483,0,1.23,0.49,,,,0.85,2.78,3.45,-0.01,-0.02,1.0,-0,-0,-0,0,,,,,,,,,,
6503,0,1.23,0.48,,,,0.86,2.79,3.47,,,,,,,,,,,,,,,,,
6523,0,1.23,0.49,,,,0.86,2.78,3.44,-0.01,-0.02,1.0,-0,-0,-0,0,,,,,,,,,,
6543,0,1.23,0.49,0.0,0.28,0.92,0.86,2.79,3.47,,,,,,,,0,0,0,0,0.0,0.0,0.0,0.0,0.0,0
6563,0,1.23,0.49,,,,0.87,2.79,3.44,-0.01,-0.02,0.99,-0,-0,-0,0,,,,,,,,,,
6583,0,1.24,0.49,,,,0.86,2.78,3.48,,,,,,,,,,,,,,,,,
6603,0,1.23,0.49,,,,0.86,2.8,3.44,-0.01,-0.02,1.0,-0,-0,-0,0,,,,,,,,,,
6623,0,1.24,0.48,,,,0.86,2.78,3.47,,,,,,,,,,,,,,,,,
6643,0,1.23,0.49,0.0,0.28,0.93,0.86,2.78,3.47,-0.01,-0.02,1.0,-0,-0,-0,0,0,0,0,0,0.0,0.0,0.0,0.0,0.0,0
6663,0,1.23,0.49,,,,0.87,2.78,3.47,,,,,,,,,,,,,,,,,
6683,0,1.26,0.49,,,,0.87,2.8,3.44,-0.01,-0.02,1.0,-0,-0,-0,0,,,,,,,,,,
6703,0,1.23,0.48,,,,0.87,2.79,3.47,,,,,,,,,,,,,,,,,
6723,0,1.23,0.49,,,,0.87,2.78,3.44,-0.01,-0.02,1.0,-0,-0,-0,0,,,,,,,,,,
6743,0,1.23,0.49,0.0,0.28,0.93,0.87,2.78,3.47,,,,,,,,0,0,0,0,0.0,0.0,0.0,0.0,0.0,0
6763,0,1.23,0.49,,,,0.87,2.78,3.45,-0.01,-0.02,1.0,-0,-0,-0,0,,,,,,,,,,
6783,0,1.23,0.49,,,,0.87,2.78,3.48,,,,,,,,,,,,,,,,,
6803,0,1.23,0.49,,,,0.88,2.79,3.45,-0.01,-0.02,1.0,-0,-0,-0,0,,,,,,,,,,
6823,0,1.23,0.48,,,,0.88,2.79,3.47,,,,,,,,,,,,,,,,,
6843,0,1.23,0.49,0.0,0.28,0.94,0.87,2.79,3.45,-0.01,-0.02,1.0,-0,-0,-0,0,0,0,0,0,0.0,0.0,0.0,0.0,0.0,0
6863,0,1.23,0.47,,,,0.88,2.78,3.47,,,,,,,,,,,,,,,,,
6883,0,1.23,0.49,,,,0.88,2.78,3.45,-0.01,-0.02,1.0,-0,-0,-0,0,,,,,,,,,,
6903,0,1.23,0.48,,,,0.88,2.78,3.47,,,,,,,,,,,,,,,,,
6923,0,1.23,0.49,,,,0.88,2.79,3.44,-0.01,-0.02,1.0,-0,-0,-0,0,,,,,,,,,,
6943,0,1.23,0.49,0.0,0.28,0.95,0.88,2.78,3.51,,,,,,,,0,0,0,0,0.0,0.0,0.0,0.0,0.0,0
6963,0,1.23,0.49,,,,0.88,2.78,3.44,-0.01,-0.02,1.0,-0,-0,-0,0,,,,,,,,,,
6983,0,1.24,0.49,,,,0.88,2.79,3.48,,,,,,,,,,,,,,,,,
7003,0,1.23,0.49,,,,0.89,2.79,3.44,-0.01,-0.02,1.0,-0,-0,-0,0,,,,,,,,,,
7023,0,1.23,0.48,,,,0.89,2.78,3.47,,,,,,,,,,,,,,,,,
7043,0,1.23,0.49,0.0,0.28,0.96,0.89,2.78,3.44,-0.01,-0.02,1.0,-0,-0,-0,0,0,0,0,0,0.0,0.0,0.0,0.0,0.0,0
7063,0,1.23,0.48,,,,0.89,2.78,3.47,,,,,,,,,,,,,,,,,
7083,0,1.23,0.49,,,,0.89,2.78,3.45,-0.01,-0.02,1.0,-0,-0,-0,0,,,,,,,,,,
7103,0,1.22,0.48,,,,0.89,2.78,3.47,,,,,,,,,,,,,,,,,
7123,0,1.23,0.49,,,,0.89,2.78,3.44,-0.01,-0.02,1.0,-0,-0,-0,0,,,,,,,,,,
7143,0,1.23,0.49,0.0,0.28,0.97,0.89,2.78,3.47,,,,,,,,0,0,0,0,0.0,0.0,0.0,0.0,0.0,0
7163,0,1.23,0.49,,,,0.89,2.79,3.44,-0.01,-0.02,1.0,-0,-0,-0,0,,,,,,,,,,
7183,0,1.24,0.48,,,,0.9,2.78,3.47,,,,,,,,,,,,,,,,,
7203,0,1.23,0.48,,,,0.9,2.79,3.44,-0.01,-0.02,1.0,-0,-0,-0,0,,,,,,,,,,
7223,0,1.23,0.48,,,,0.9,2.78,3.46,,,,,,,,,,,,,,,,,
7243,0,1.23,0.49,0.0,0.28,0.98,0.9,2.79,3.47,-0.01,-0.02,1.0,-0,-0,-0,0,0,0,0,0,0.0,0.0,0.0,0.0,0.0,0
7263,0,1.23,0.48,,,,0.9,2.79,3.47,,,,,,,,,,,,,,,,,
7283,0,1.23,0.49,,,,0.9,2.78,3.44,-0.01,-0.02,1.0,-0,-0,-0,0,,,,,,,,,,
7303,0,1.23,0.48,,,,0.9,2.78,3.47,,,,,,,,,,,,,,,,,
7323,0,1.24,0.49,,,,0.9,2.79,3.44,-0.01,-0.02,1.0,-0,-0,-0,0,,,,,,,,,,
7343,0,1.23,0.48,0.01,0.28,0.99,0.9,2.78,3.47,,,,,,,,0,0,0,0,0.0,0.0,0.0,0.0,0.0,0
7363,0,1.23,0.49,,,,0.9,2.78,3.44,-0.01,-0.02,1.0,-0,-0,-0,0,,,,,,,,,,
7383,0,1.23,0.49,,,,0.91,2.78,3.47,,,,,,,,,,,,,,,,,
7403,0,1.23,0.49,,,,0.91,2.79,3.47,-0.01,-0.02,1.0,-0,-0,-0,0,,,,,,,,,,
7423,0,1.23,0.49,,,,0.91,2.79,3.47,,,,,,,,,,,,,,,,,
7443,0,1.23,0.49,0.0,0.28,0.99,0.91,2.79,3.44,-0.01,-0.02,1.0,-0,-0,-0,0,0,0,0,0,0.0,0.0,0.0,0.0,0.0,0
7463,0,1.23,0.49,,,,0.91,2.78,3.47,,,,,,,,,,,,,,,,,
7483,0,1.23,0.48,,,,0.91,2.78,3.44,-0.01,-0.02,1.0,-0,-0,-0,0,,,,,,,,,,
7503,0,1.23,0.49,,,,0.91,2.78,3.46,,,,,,,,,,,,,,,,,
7523,0,1.22,0.48,,,,0.91,2.78,3.44,-0.01,-0.02,1.0,-0,-0,-0,0,,,,,,,,,,
7543,0,1.22,0.48,0.0,0.28,1.0,0.91,2.81,3.46,,,,,,,,0,0,0,0,0.0,0.0,0.0,0.0,0.0,0
7563,0,1.23,0.49,,,,0.92,2.78,3.44,-0.01,-0.02,1.0,-0,-0,-0,0,,,,,,,,,,
7583,0,1.23,0.49,,,,0.92,2.78,3.47,,,,,,,,,,,,,,,,,
7603,0,1.23,0.49,,,,0.92,2.78,3.44,-0.01,-0.02,1.0,-0,-0,-0,0,,,,,,,,,,
7623,0,1.23,0.49,,,,0.92,2.79,3.46,,,,,,,,,,,,,,,,,
7643,0,1.23,0.49,0.0,0.28,1.0,0.92,2.78,3.44,-0.01,-0.02,1.0,-0,-0,-0,0,0,0,0,0,0.0,0.0,0.0,0.0,0.0,0
7663,0,1.23,0.48,,,,0.92,2.8,3.47,,,,,,,,,,,,,,,,,
7683,0,1.23,0.49,,,,0.92,2.79,3.44,-0.01,-0.02,1.01,-0,-0,-0,0,,,,,,,,,,
7703,0,1.23,0.49,,,,0.93,2.8,3.5,,,,,,,,,,,,,,,,,
7723,0,1.23,0.49,,,,0.92,2.78,3.44,-0.01,-0.02,1.0,-0,-0,-0,0,,,,,,,,,,
7743,0,1.24,0.49,0.01,0.28,1.02,0.93,2.78,3.47,,,,,,,,0,0,0,0,0.0,0.0,0.0,0.0,0.0,0
7763,0,1.23,0.49,,,,0.93,2.79,3.44,-0.01,-0.02,1.0,-0,-0,-0,0,,,,,,,,,,
7783,0,1.23,0.49,,,,0.93,2.79,3.48,,,,,,,,,,,,,,,,,
7803,0,1.23,0.49,,,,0.93,2.79,3.44,-0.01,-0.02,1.0,-0,-0,-0,0,,,,,,,,,,
7823,0,1.23,0.48,,,,0.93,2.78,3.46,,,,,,,,,,,,,,,,,
7843,0,1.24,0.49,0.0,0.27,1.02,0.93,2.78,3.44,-0.01,-0.02,1.0,-0,-0,-0,0,0,0,0,0,0.0,0.0,0.0,0.0,0.0,0
7863,0,1.23,0.49,,,,0.93,2.78,3.46,,,,,,,,,,,,,,,,,
7883,0,1.23,0.49,,,,0.93,2.8,3.44,-0.01,-0.02,1.0,-0,-0,-0,0,,,,,,,,,,
7903,0,1.23,0.49,,,,0.94,2.79,3.47,,,,,,,,,,,,,,,,,
7923,0,1.23,0.48,,,,0.93,2.79,3.43,-0.01,-0.02,1.0,-0,-0,-0,0,,,,,,,,,,
7943,0,1.23,0.49,0.01,0.28,1.03,0.94,2.78,3.46,,,,,,,,0,0,0,0,0.0,0.0,0.0,0.0,0.0,0
7963,0,1.24,0.48,,,,0.94,2.79,3.44,-0.01,-0.02,1.0,-0,-0,-0,0,,,,,,,,,,
7983,0,1.23,0.49,,,,0.94,2.79,3.47,,,,,,,,,,,,,,,,,
8003,0,1.23,0.48,,,,0.94,2.78,3.47,-0.01,-0.02,1.0,-0,-0,-0,0,,,,,,,,,,
8023,0,1.23,0.49,,,,0.94,2.79,3.47,,,,,,,,,,,,,,,,,
8043,0,1.23,0.48,0.0,0.28,1.04,0.94,2.78,3.43,-0.01,-0.02,1.0,-0,-0,-0,0,0,0,0,0,0.0,0.0,0.0,0.0,0.0,0
8063,0,1.23,0.49,,,,0.94,2.78,3.46,,,,,,,,,,,,,,,,,
8083,0,1.23,0.48,,,,0.94,2.78,3.43,-0.01,-0.02,1.0,-0,-0,-0,0,,,,,,,,,,
8103,0,1.23,0.49,,,,0.94,2.78,3.46,,,,,,,,,,,,,,,,,
8123,0,1.22,0.48,,,,0.94,2.78,3.43,-0.01,-0.02,1.0,-0,-0,-0,0,,,,,,,,,,
8143,0,1.23,0.49,0.01,0.28,1.05,0.94,2.79,3.45,,,,,,,,0,0,0,0,0.0,0.0,0.0,0.0,0.0,0
8163,0,1.23,0.49,,,,0.95,2.79,3.43,-0.01,-0.02,1.0,-0,-0,-0,0,,,,,,,,,,
8183,0,1.23,0.49,,,,0.95,2.78,3.46,,,,,,,,,,,,,,,,,
8203,0,1.23,0.48,,,,0.95,2.79,3.43,-0.01,-0.02,1.0,-0,-0,-0,0,,,,,,,,,,
8223,0,1.23,0.48,,,,0.95,2.78,3.46,,,,,,,,,,,,,,,,,
8243,0,1.23,0.49,0.0,0.28,1.05,0.95,2.78,3.4,-0.01,-0.02,1.0,-0,-0,-0,0,0,0,0,0,0.0,0.0,0.0,0.0,0.0,0
8263,0,1.23,0.49,,,,0.95,2.78,3.43,,,,,,,,,,,,,,,,,
8283,0,1.24,0.48,,,,0.95,2.78,3.4,-0.01,-0.02,1.0,-0,-0,-0,0,,,,,,,,,,
8303,0,1.23,0.49,,,,0.95,2.78,3.46,,,,,,,,,,,,,,,,,
8323,0,1.23,0.48,,,,0.95,2.78,3.4,-0.01,-0.02,1.0,-0,-0,-0,0,,,,,,,,,,
8343,0,1.23,0.49,0.0,0.28,1.06,0.95,2.78,3.46,,,,,,,,0,0,0,0,0.0,0.0,0.0,0.0,0.0,0
8363,0,1.23,0.48,,,,0.95,2.78,3.44,-0.01,-0.02,1.0,-0,-0,-0,0,,,,,,,,,,
8383,0,1.23,0.49,,,,0.96,2.78,3.47,,,,,,,,,,,,,,,,,
8403,0,1.23,0.49,,,,0.96,2.78,3.43,-0.01,-0.02,1.0,-0,-0,-0,0,,,,,,,,,,
8423,0,1.23,0.49,,,,0.96,2.78,3.46,,,,,,,,,,,,,,,,,
8443,0,1.23,0.49,0.0,0.28,1.07,0.96,2.78,3.43,-0.01,-0.02,1.0,-0,-0,-0,0,0,0,0,0,0.0,0.0,0.0,0.0,0.0,0
8463,0,1.23,0.48,,,,0.96,2.78,3.46,,,,,,,,,,,,,,,,,
8483,0,1.23,0.48,,,,0.96,2.78,3.43,-0.01,-0.02,1.0,-0,-0,-0,0,,,,,,,,,,
8503,0,1.23,0.48,,,,0.96,2.77,3.46,,,,,,,,,,,,,,,,,
8523,0,1.23,0.48,,,,0.96,2.78,3.43,-0.01,-0.02,1.0,-0,-0,-0,0,,,,,,,,,,
8543,0,1.23,0.49,0.01,0.28,1.08,0.96,2.78,3.46,,,,,,,,0,0,0,0,0.0,0.0,0.0,0.0,0.0,0
8563,0,1.23,0.48,,,,0.96,2.78,3.44,-0.01,-0.02,1.0,-0,-0,-0,0,,,,,,,,,,
8583,0,1.23,0.49,,,,0.97,2.78,3.47,,,,,,,,,,,,,,,,,
8603,0,1.23,0.48,,,,0.97,2.77,3.43,-0.01,-0.02,1.0,-0,-0,-0,0,,,,,,,,,,
8623,0,1.23,0.49,,,,0.97,2.78,3.46,,,,,,,,,,,,,,,,,
8643,0,1.23,0.49,0.0,0.28,1.08,0.97,2.78,3.43,-0.01,-0.02,1.0,-0,-0,-0,0,0,0,0,0,0.0,0.0,0.0,0.0,0.0,0
8663,0,1.23,0.48,,,,0.97,2.78,3.46,,,,,,,,,,,,,,,,,
8683,0,1.23,0.49,,,,0.97,2.79,3.42,-0.01,-0.02,1.0,-0,-0,-0,0,,,,,,,,,,
8703,0,1.23,0.48,,,,0.97,2.79,3.46,,,,,,,,,,,,,,,,,
8723,0,1.23,0.49,,,,0.97,2.79,3.43,-0.01,-0.02,1.0,-0,-0,-0,0,,,,,,,,,,
8743,0,1.23,0.49,0.0,0.28,1.09,0.97,2.79,3.46,,,,,,,,0,0,0,0,0.0,0.0,0.0,0.0,0.0,0
8763,0,1.23,0.49,,,,0.97,2.78,3.45,-0.01,-0.02,1.0,-0,-0,-0,0,,,,,,,,,,
8783,0,1.23,0.49,,,,0.97,2.78,3.47,,,,,,,,,,,,,,,,,
8803,0,1.23,0.49,,,,0.98,2.78,3.44,-0.01,-0.02,1.0,-0,-0,-0,0,,,,,,,,,,
8823,0,1.23,0.49,,,,0.98,2.79,3.46,,,,,,,,,,,,,,,,,
8843,0,1.23,0.49,0.0,0.28,1.1,0.98,2.78,3.43,-0.01,-0.02,1.0,-0,-0,-0,0,0,0,0,0,0.0,0.0,0.0,0.0,0.0,0
8863,0,1.24,0.48,,,,0.98,2.79,3.46,,,,,,,,,,,,,,,,,
8883,0,1.23,0.49,,,,0.98,2.79,3.43,-0.01,-0.02,1.0,-0,-0,-0,0,,,,,,,,,,
8903,0,1.23,0.49,,,,0.98,2.78,3.5,,,,,,,,,,,,,,,,,
8923,0,1.23,0.49,,,,0.98,2.79,3.43,-0.01,-0.02,1.0,-0,-0,-0,0,,,,,,,,,,
8943,0,1.23,0.49,0.0,0.28,1.11,0.98,2.78,3.46,,,,,,,,0,0,0,0,0.0,0.0,0.0,0.0,0.0,0
8963,0,1.23,0.48,,,,0.98,2.78,3.45,-0.01,-0.02,1.0,-0,-0,-0,0,,,,,,,,,,
8983,0,1.23,0.49,,,,0.98,2.78,3.47,,,,,,,,,,,,,,,,,
9003,0,1.22,0.48,,,,0.99,2.78,3.43,-0.01,-0.02,1.0,-0,-0,-0,0,,,,,,,,,,
9023,0,1.23,0.49,,,,0.99,2.78,3.46,,,,,,,,,,,,,,,,,
9043,0,1.23,0.48,0.0,0.28,1.11,0.99,2.78,3.43,-0.01,-0.02,1.0,-0,-0,-0,0,0,0,0,0,0.0,0.0,0.0,0.0,0.0,0
9063,0,1.22,0.48,,,,0.99,2.77,3.46,,,,,,,,,,,,,,,,,
9083,0,1.22,0.49,,,,0.99,2.78,3.43,-0.01,-0.02,1.0,-0,-0,-0,0,,,,,,,,,,
9103,0,1.22,0.48,,,,0.99,2.78,3.46,,,,,,,,,,,,,,,,,
9123,0,1.23,0.49,,,,0.99,2.78,3.43,-0.01,-0.02,1.0,-0,-0,-0,0,,,,,,,,,,
9143,0,1.23,0.49,0.01,0.28,1.12,0.99,2.78,3.46,,,,,,,,0,0,0,0,0.0,0.0,0.0,0.0,0.0,0
9163,0,1.23,0.49,,,,0.99,2.78,3.44,-0.01,-0.02,1.0,-0,-0,-0,0,,,,,,,,,,
9183,0,1.22,0.49,,,,1.0,2.78,3.47,,,,,,,,,,,,,,,,,
9203,0,1.23,0.49,,,,1.0,2.78,3.47,-0.01,-0.02,1.0,-0,-0,-0,0,,,,,,,,,,
9223,0,1.23,0.49,,,,0.99,2.78,3.46,,,,,,,,,,,,,,,,,
9243,0,1.23,0.49,0.0,0.27,1.12,0.99,2.78,3.43,-0.01,-0.02,1.0,-0,-0,-0,0,0,0,0,0,0.0,0.0,0.0,0.0,0.0,0
9263,0,1.23,0.48,,,,1.0,2.78,3.46,,,,,,,,,,,,,,,,,
9283,0,1.23,0.48,,,,1.0,2.79,3.43,-0.01,-0.02,0.99,-0,-0,-0,0,,,,,,,,,,
9303,0,1.23,0.48,,,,1.0,2.78,3.46,,,,,,,,,,,,,,,,,
9323,0,1.23,0.48,,,,1.0,2.78,3.43,-0.01,-0.02,1.0,-0,-0,-0,0,,,,,,,,,,
9343,0,1.23,0.49,0.01,0.28,1.13,1.0,2.78,3.46,,,,,,,,0,0,0,0,0.0,0.0,0.0,0.0,0.0,0
9363,0,1.23,0.48,,,,1.0,2.78,3.44,-0.01,-0.02,1.0,-0,-0,-0,0,,,,,,,,,,
9383,0,1.23,0.49,,,,1.0,2.78,3.47,,,,,,,,,,,,,,,,,
9403,0,1.23,0.49,,,,1.0,2.78,3.43,-0.01,-0.02,1.0,-0,-0,-0,0,,,,,,,,,,
9423,0,1.23,0.49,,,,1.0,2.78,3.46,,,,,,,,,,,,,,,,,
9443,0,1.22,0.49,0.0,0.27,1.14,1.0,2.78,3.43,-0.01,-0.02,1.0,-0,-0,-0,0,0,0,0,0,0.0,0.0,0.0,0.0,0.0,0
9463,0,1.23,0.48,,,,1.0,2.78,3.46,,,,,,,,,,,,,,,,,
9483,0,1.22,0.49,,,,1.0,2.78,3.43,-0.01,-0.02,1.0,-0,-0,-0,0,,,,,,,,,,
9503,0,1.23,0.48,,,,1.01,2.78,3.5,,,,,,,,,,,,,,,,,
9523,0,1.23,0.49,,,,1.01,2.78,3.43,-0.01,-0.02,1.0,-0,-0,-0,0,,,,,,,,,,
9543,0,1.23,0.49,0.0,0.27,1.15,1.01,2.78,3.46,,,,,,,,0,0,0,0,0.0,0.0,0.0,0.0,0.0,0
9563,0,1.23,0.48,,,,1.01,2.79,3.44,-0.01,-0.02,1.0,-0,-0,-0,0,,,,,,,,,,
9583,0,1.23,0.49,,,,1.01,2.78,3.47,,,,,,,,,,,,,,,,,
9603,0,1.23,0.49,,,,1.01,2.78,3.43,-0.01,-0.02,1.0,-0,-0,-0,0,,,,,,,,,,
9623,0,1.23,0.49,,,,1.01,2.78,3.46,,,,,,,,,,,,,,,,,
9643,0,1.23,0.49,0.0,0.27,1.15,1.01,2.79,3.43,-0.01,-0.02,1.0,-0,-0,-0,0,0,0,0,0,0.0,0.0,0.0,0.0,0.0,0
9663,0,1.23,0.49,,,,1.01,2.78,3.46,,,,,,,,,,,,,,,,,
9683,0,1.23,0.49,,,,1.01,2.78,3.43,-0.01,-0.02,1.0,-0,-0,-0,0,,,,,,,,,,
9703,0,1.23,0.48,,,,1.02,2.78,3.46,,,,,,,,,,,,,,,,,
9723,0,1.23,0.49,,,,1.02,2.78,3.43,-0.01,-0.02,1.0,-0,-0,-0,0,,,,,,,,,,
9743,0,1.23,0.48,0.01,0.27,1.16,1.01,2.78,3.46,,,,,,,,0,0,0,0,0.0,0.0,0.0,0.0,0.0,0
9763,0,1.23,0.49,,,,1.02,2.79,3.45,-0.01,-0.02,1.0,-0,-0,-0,0,,,,,,,,,,
9783,0,1.23,0.48,,,,1.02,2.78,3.47,,,,,,,,,,,,,,,,,
9803,0,1.23,0.48,,,,1.02,2.78,3.47,-0.01,-0.02,1.0,-0,-0,-0,0,,,,,,,,,,
9823,0,1.23,0.49,,,,1.02,2.78,3.46,,,,,,,,,,,,,,,,,
9843,0,1.24,0.49,0.0,0.27,1.16,1.02,2.78,3.44,-0.01,-0.02,1.0,-0,-0,-0,0,0,0,0,0,0.0,0.0,0.0,0.0,0.0,0
9863,0,1.23,0.48,,,,1.02,2.79,3.46,,,,,,,,,,,,,,,,,
9883,0,1.23,0.49,,,,1.02,2.78,3.43,-0.01,-0.02,1.0,-0,-0,-0,0,,,,,,,,,,
9903,0,1.23,0.48,,,,1.02,2.78,3.45,,,,,,,,,,,,,,,,,
9923,0,1.23,0.49,,,,1.02,2.79,3.43,-0.01,-0.02,1.0,-0,-0,-0,0,,,,,,,,,,
9943,0,1.23,0.49,0.0,0.27,1.17,1.02,2.78,3.46,,,,,,,,0,0,0,0,0.0,0.0,0.0,0.0,0.0,0
9963,0,1.23,0.48,,,,1.02,2.78,3.45,-0.01,-0.02,1.0,-0,-0,-0,0,,,,,,,,,,
9983,0,1.23,0.49,,,,1.03,2.78,3.47,,,,,,,,,,,,,,,,,
10003,0,1.23,0.48,,,,1.03,2.78,3.43,-0.01,-0.02,1.0,-0,-0,-0,0,,,,,,,,,,
10023,0,1.23,0.49,,,,1.03,2.78,3.46,,,,,,,,,,,,,,,,,
10043,0,1.23,0.49,0.0,0.28,1.18,1.03,2.78,3.43,-0.0,-0.02,1.0,-0,-0,-0,0,0,0,0,0,0.0,0.0,0.0,0.0,0.0,0
10063,0,1.23,0.48,,,,1.03,2.78,3.45,,,,,,,,,,,,,,,,,
10083,0,1.23,0.48,,,,1.03,2.78,3.43,-0.01,0.0,0.97,-0,1,-0,0,,,,,,,,,,
10103,0,1.23,0.48,,,,1.03,2.78,3.49,,,,,,,,,,,,,,,,,
10123,0,1.23,0.48,,,,1.03,2.77,3.43,-0.02,-0.01,0.97,-0,0,-0,0,,,,,,,,,,
10143,0,1.23,0.49,0.0,0.28,1.19,1.03,2.77,3.45,,,,,,,,0,0,0,0,0.0,0.0,0.0,0.0,0.0,0
10163,0,1.23,0.48,,,,1.03,2.77,3.44,-0.01,-0.01,0.97,-0,0,-0,0,,,,,,,,,,
10183,0,1.23,0.48,,,,1.03,2.78,3.47,,,,,,,,,,,,,,,,,
10203,0,1.23,0.49,,,,1.04,2.78,3.43,-0.01,-0.01,0.99,-0,0,-0,0,,,,,,,,,,
10223,0,1.23,0.48,,,,1.04,2.78,3.46,,,,,,,,,,,,,,,,,
10243,0,1.23,0.49,0.0,0.28,1.19,1.03,2.78,3.43,-0.02,-0.01,0.99,-0,-0,-0,0,0,0,0,0,0.0,0.0,0.0,0.0,0.0,0
10263,0,1.23,0.49,,,,1.04,2.78,3.46,,,,,,,,,,,,,,,,,
10283,0,1.23,0.49,,,,1.04,2.79,3.43,-0.02,-0.01,0.99,-0,-0,-0,0,,,,,,,,,,
10303,0,1.23,0.48,,,,1.04,2.78,3.45,,,,,,,,,,,,,,,,,
10323,0,1.23,0.49,,,,1.04,2.78,3.43,-0.02,-0.01,1.0,-0,-0,-0,0,,,,,,,,,,
10343,0,1.23,0.49,0.0,0.28,1.2,1.04,2.78,3.46,,,,,,,,0,0,0,0,0.0,0.0,0.0,0.0,0.0,0
10363,0,1.23,0.49,,,,1.04,2.78,3.45,-0.01,-0.02,0.99,-0,-0,-0,0,,,,,,,,,,
10383,0,1.23,0.49,,,,1.04,2.78,3.47,,,,,,,,,,,,,,,,,
10403,0,1.23,0.49,,,,1.05,2.79,3.47,-0.01,-0.02,1.0,-0,-0,-0,0,,,,,,,,,,
10423,0,1.23,0.49,,,,1.04,2.78,3.46,,,,,,,,,,,,,,,,,
10443,0,1.23,0.49,0.0,0.28,1.2,1.04,2.79,3.44,-0.01,-0.02,1.0,-0,-0,-0,0,0,0,0,0,0.0,0.0,0.0,0.0,0.0,0
10463,0,1.23,0.49,,,,1.04,2.78,3.46,,,,,,,,,,,,,,,,,
10483,0,1.22,0.48,,,,1.04,2.77,3.43,-0.01,-0.02,1.0,-0,-0,-0,0,,,,,,,,,,
10503,0,1.23,0.49,,,,1.05,2.78,3.46,,,,,,,,,,,,,,,,,
10523,0,1.22,0.48,,,,1.04,2.78,3.43,-0.01,-0.02,1.0,-0,-0,-0,0,,,,,,,,,,
10543,0,1.23,0.49,0.0,0.28,1.21,1.05,2.78,3.46,,,,,,,,0,0,0,0,0.0,0.0,0.0,0.0,0.0,0
10563,0,1.23,0.49,,,,1.05,2.79,3.44,-0.01,-0.02,1.0,-0,-0,-0,0,,,,,,,,,,
10583,0,1.23,0.48,,,,1.05,2.79,3.47,,,,,,,,,,,,,,,,,
10603,0,1.23,0.48,,,,1.05,2.78,3.43,-0.01,-0.02,1.0,-0,-0,-0,0,,,,,,,,,,
10623,0,1.23,0.49,,,,1.05,2.79,3.46,,,,,,,,,,,,,,,,,
10643,0,1.23,0.49,0.0,0.28,1.21,1.05,2.79,3.43,-0.01,-0.02,1.0,-0,-0,-0,0,0,0,0,0,0.0,0.0,0.0,0.0,0.0,0
10663,0,1.23,0.49,,,,1.05,2.79,3.46,,,,,,,,,,,,,,,,,
10683,0,1.23,0.49,,,,1.05,2.78,3.43,-0.02,-0.01,1.0,-0,-0,-0,0,,,,,,,,,,
10703,0,1.23,0.49,,,,1.06,2.79,3.45,,,,,,,,,,,,,,,,,
10723,0,1.23,0.49,,,,1.05,2.79,3.43,-0.01,-0.01,0.99,-0,0,0,0,,,,,,,,,,
10743,0,1.23,0.49,0.0,0.28,1.22,1.05,2.79,3.44,,,,,,,,0,0,0,0,0.0,0.0,0.0,0.0,0.0,0
10763,0,1.23,0.49,,,,1.05,2.79,3.41,-0.01,-0.02,0.98,-0,0,-0,0,,,,,,,,,,
10783,0,1.23,0.48,,,,1.06,2.79,3.44,,,,,,,,,,,,,,,,,
10803,0,1.23,0.49,,,,1.06,2.78,3.4,-0.01,-0.02,0.99,-0,0,-0,0,,,,,,,,,,
10823,0,1.23,0.49,,,,1.06,2.78,3.44,,,,,,,,,,,,,,,,,
10843,0,1.23,0.49,0.0,0.28,1.22,1.06,2.79,3.45,-0.01,-0.02,0.98,-0,-0,-0,0,0,0,0,0,0.0,0.0,0.0,0.0,0.0,0
10863,0,1.23,0.48,,,,1.06,2.79,3.46,,,,,,,,,,,,,,,,,
10883,0,1.24,0.49,,,,1.06,2.79,3.44,-0.01,-0.02,0.99,-0,-0,-0,0,,,,,,,,,,
10903,0,1.23,0.49,,,,1.06,2.79,3.46,,,,,,,,,,,,,,,,,
10923,0,1.23,0.49,,,,1.06,2.78,3.43,-0.01,-0.02,0.99,-0,-0,-0,0,,,,,,,,,,
10943,0,1.23,0.48,0.0,0.28,1.23,1.06,2.78,3.46,,,,,,,,0,0,0,0,0.0,0.0,0.0,0.0,0.0,0
10963,0,1.23,0.48,,,,1.06,2.79,3.44,-0.01,-0.02,0.99,-0,-0,-0,0,,,,,,,,,,
10983,0,1.23,0.49,,,,1.07,2.8,3.47,,,,,,,,,,,,,,,,,
11003,0,1.24,0.49,,,,1.06,2.78,3.43,-0.01,-0.02,1.0,-0,-0,-0,0,,,,,,,,,,
11023,0,1.24,0.49,,,,1.06,2.79,3.46,,,,,,,,,,,,,,,,,
11043,0,1.23,0.49,0.0,0.28,1.23,1.06,2.79,3.43,-0.01,-0.02,1.0,-0,-0,-0,0,0,0,0,0,0.0,0.0,0.0,0.0,0.0,0
11063,0,1.23,0.49,,,,1.07,2.78,3.46,,,,,,,,,,,,,,,,,
11083,0,1.23,0.48,,,,1.07,2.79,3.43,-0.01,-0.02,0.99,-0,-0,-0,0,,,,,,,,,,
11103,0,1.23,0.48,,,,1.07,2.79,3.46,,,,,,,,,,,,,,,,,
11123,0,1.23,0.49,,,,1.06,2.78,3.43,-0.01,-0.02,0.99,-0,-0,-0,0,,,,,,,,,,
11143,0,1.24,0.49,0.0,0.28,1.25,1.07,2.78,3.5,,,,,,,,0,0,0,0,0.0,0.0,0.0,0.0,0.0,0
11163,0,1.23,0.49,,,,1.07,2.79,3.44,-0.01,-0.02,1.0,-0,-0,-0,0,,,,,,,,,,
11183,0,1.23,0.48,,,,1.07,2.8,3.47,,,,,,,,,,,,,,,,,
11203,0,1.23,0.48,,,,1.07,2.78,3.43,-0.01,-0.02,0.99,-0,-0,-0,0,,,,,,,,,,
11223,0,1.23,0.49,,,,1.07,2.78,3.46,,,,,,,,,,,,,,,,,
11243,0,1.23,0.49,0.0,0.28,1.25,1.07,2.79,3.43,-0.01,-0.02,1.0,-0,-0,-0,0,0,0,0,0,0.0,0.0,0.0,0.0,0.0,0
11263,0,1.23,0.49,,,,1.07,2.78,3.46,,,,,,,,,,,,,,,,,
11283,0,1.24,0.48,,,,1.07,2.79,3.43,-0.01,-0.02,1.0,-0,-0,-0,0,,,,,,,,,,
11303,0,1.23,0.49,,,,1.08,2.79,3.46,,,,,,,,,,,,,,,,,
11323,0,1.23,0.48,,,,1.07,2.78,3.43,-0.01,-0.02,1.0,-0,-0,-0,0,,,,,,,,,,
11343,0,1.23,0.49,0.0,0.28,1.26,1.08,2.78,3.46,,,,,,,,0,0,0,0,0.0,0.0,0.0,0.0,0.0,0
11363,0,1.24,0.49,,,,1.07,2.77,3.44,-0.01,-0.02,1.0,-0,-0,-0,0,,,,,,,,,,
11383,0,1.23,0.49,,,,1.08,2.79,3.46,,,,,,,,,,,,,,,,,
11403,0,1.23,0.48,,,,1.08,2.78,3.43,-0.01,-0.02,0.99,-0,-0,-0,0,,,,,,,,,,
11423,0,1.23,0.48,,,,1.08,2.77,3.46,,,,,,,,,,,,,,,,,
11443,0,1.23,0.49,0.0,0.28,1.26,1.08,2.78,3.46,-0.01,-0.02,0.99,-0,-0,-0,0,0,0,0,0,0.0,0.0,0.0,0.0,0.0,0
11463,0,1.23,0.48,,,,1.08,2.78,3.46,,,,,,,,,,,,,,,,,
11483,0,1.23,0.48,,,,1.08,2.78,3.43,-0.01,-0.02,0.99,-0,0,-0,0,,,,,,,,,,
11503,0,1.23,0.49,,,,1.08,2.78,3.46,,,,,,,,,,,,,,,,,
11523,0,1.23,0.49,,,,1.08,2.78,3.43,-0.01,-0.02,0.99,-0,-0,-0,0,,,,,,,,,,
11543,0,1.23,0.48,0.0,0.28,1.27,1.08,2.78,3.46,,,,,,,,0,0,0,0,0.0,0.0,0.0,0.0,0.0,0
11563,0,1.23,0.49,,,,1.08,2.78,3.44,-0.01,-0.02,0.99,-0,-0,-0,0,,,,,,,,,,
11583,0,1.23,0.49,,,,1.09,2.78,3.46,,,,,,,,,,,,,,,,,
11603,0,1.23,0.49,,,,1.08,2.78,3.44,-0.01,-0.02,0.99,-0,-0,-0,0,,,,,,,,,,
11623,0,1.23,0.49,,,,1.09,2.78,3.46,,,,,,,,,,,,,,,,,
11643,0,1.22,0.49,0.0,0.28,1.27,1.08,2.77,3.44,-0.01,-0.02,1.0,-0,-0,-0,0,0,0,0,0,0.0,0.0,0.0,0.0,0.0,0
11663,0,1.23,0.49,,,,1.09,2.77,3.46,,,,,,,,,,,,,,,,,
11683,0,1.23,0.49,,,,1.09,2.77,3.43,-0.01,-0.02,1.0,-0,-0,-0,0,,,,,,,,,,
11703,0,1.21,0.49,,,,1.09,2.78,3.46,,,,,,,,,,,,,,,,,
11723,0,1.22,0.49,,,,1.09,2.77,3.43,-0.01,-0.02,1.01,-0,-0,-0,0,,,,,,,,,,
11743,0,1.23,0.49,0.0,0.28,1.28,1.09,2.78,3.46,,,,,,,,0,0,0,0,0.0,0.0,0.0,0.0,0.0,0
11763,0,1.23,0.48,,,,1.09,2.78,3.44,-0.01,-0.02,1.0,-0,-0,-0,0,,,,,,,,,,
11783,0,1.23,0.48,,,,1.09,2.78,3.46,,,,,,,,,,,,,,,,,
11803,0,1.23,0.49,,,,1.09,2.78,3.44,-0.01,-0.02,1.0,-0,-0,-0,0,,,,,,,,,,
11823,0,1.23,0.49,,,,1.09,2.79,3.46,,,,,,,,,,,,,,,,,
11843,0,1.23,0.48,0.0,0.28,1.28,1.09,2.78,3.44,-0.01,-0.02,1.0,-0,-0,-0,0,0,0,0,0,0.0,0.0,0.0,0.0,0.0,0
11863,0,1.23,0.48,,,,1.09,2.78,3.46,,,,,,,,,,,,,,,,,
11883,0,1.23,0.49,,,,1.1,2.78,3.47,-0.01,-0.02,1.0,-0,-0,-0,0,,,,,,,,,,
11903,0,1.23,0.49,,,,1.1,2.79,3.46,,,,,,,,,,,,,,,,,
11923,0,1.23,0.49,,,,1.09,2.78,3.43,-0.01,-0.02,1.0,-0,-0,-0,0,,,,,,,,,,
11943,0,1.23,0.48,0.0,0.28,1.29,1.1,2.78,3.46,,,,,,,,0,0,0,0,0.0,0.0,0.0,0.0,0.0,0
11963,0,1.23,0.48,,,,1.1,2.78,3.44,-0.01,-0.02,1.0,-0,-0,-0,0,,,,,,,,,,
11983,0,1.23,0.49,,,,1.1,2.78,3.46,,,,,,,,,,,,,,,,,
12003,0,1.23,0.49,,,,1.1,2.78,3.43,-0.01,-0.02,1.0,-0,-0,-0,0,,,,,,,,,,
12023,0,1.23,0.48,,,,1.1,2.78,3.46,,,,,,,,,,,,,,,,,
12043,0,1.23,0.49,0.0,0.28,1.29,1.1,2.77,3.43,-0.01,-0.02,1.0,-0,-0,-0,0,0,0,0,0,0.0,0.0,0.0,0.0,0.0,0
12063,0,1.22,0.48,,,,1.1,2.78,3.45,,,,,,,,,,,,,,,,,
12083,0,1.23,0.48,,,,1.1,2.78,3.43,-0.01,-0.02,1.0,-0,-0,-0,0,,,,,,,,,,
12103,0,1.22,0.48,,,,1.1,2.77,3.46,,,,,,,,,,,,,,,,,
12123,0,1.23,0.48,,,,1.1,2.77,3.43,-0.0,0.02,0.97,-0,-0,-0,0,,,,,,,,,,
12143,0,1.23,0.48,0.0,0.28,1.3,1.1,2.78,3.45,,,,,,,,0,0,0,0,0.0,0.0,0.0,0.0,0.0,0
12163,0,1.22,0.49,,,,1.1,2.78,3.44,0.0,0.02,1.01,-0,-0,-0,0,,,,,,,,,,
12183,0,1.23,0.48,,,,1.1,2.78,3.45,,,,,,,,,,,,,,,,,
12203,0,1.23,0.48,,,,1.1,2.78,3.43,0.0,0.01,1.01,-0,-0,-0,0,,,,,,,,,,
12223,0,1.23,0.48,,,,1.1,2.78,3.46,,,,,,,,,,,,,,,,,
12243,0,1.23,0.49,0.0,0.28,1.29,1.1,2.78,3.43,-0.0,0.0,1.0,-0,-1,-0,0,0,0,0,0,0.0,0.0,0.0,0.0,0.0,0
12263,0,1.23,0.49,,,,1.1,2.78,3.46,,,,,,,,,,,,,,,,,
12283,0,1.23,0.49,,,,1.11,2.78,3.43,-0.0,-0.0,1.0,-0,-0,-0,0,,,,,,,,,,
12303,0,1.23,0.49,,,,1.11,2.78,3.45,,,,,,,,,,,,,,,,,
12323,0,1.24,0.49,,,,1.11,2.78,3.46,-0.0,-0.01,0.99,-0,-0,-0,0,,,,,,,,,,
12343,0,1.23,0.49,0.0,0.28,1.3,1.11,2.78,3.46,,,,,,,,0,0,0,0,0.0,0.0,0.0,0.0,0.0,0
12363,0,1.23,0.49,,,,1.11,2.78,3.44,-0.01,-0.01,0.99,-0,-0,-0,0,,,,,,,,,,
12383,0,1.23,0.48,,,,1.11,2.78,3.45,,,,,,,,,,,,,,,,,
12403,0,1.23,0.48,,,,1.11,2.78,3.43,-0.01,-0.01,0.99,-0,-0,-0,0,,,,,,,,,,
12423,0,1.24,0.49,,,,1.11,2.78,3.46,,,,,,,,,,,,,,,,,
12443,0,1.23,0.49,0.0,0.28,1.31,1.11,2.78,3.43,-0.01,-0.01,0.99,-0,-0,-0,0,0,0,0,0,0.0,0.0,0.0,0.0,0.0,0
12463,0,1.23,0.48,,,,1.11,2.78,3.46,,,,,,,,,,,,,,,,,
12483,0,1.23,0.48,,,,1.11,2.78,3.46,-0.01,-0.01,1.0,-0,-0,-0,0,,,,,,,,,,
12503,0,1.23,0.49,,,,1.11,2.78,3.46,,,,,,,,,,,,,,,,,
12523,0,1.23,0.49,,,,1.11,2.77,3.43,-0.01,-0.01,0.99,-0,-0,-0,0,,,,,,,,,,
12543,0,1.23,0.49,0.0,0.28,1.31,1.11,2.78,3.46,,,,,,,,0,0,0,0,0.0,0.0,0.0,0.0,0.0,0
12563,0,1.24,0.49,,,,1.11,2.78,3.44,-0.01,-0.02,1.0,-0,-0,-0,0,,,,,,,,,,
12583,0,1.23,0.48,,,,1.12,2.78,3.46,,,,,,,,,,,,,,,,,
12603,0,1.23,0.48,,,,1.12,2.79,3.43,-0.01,-0.02,1.0,-0,-0,-0,0,,,,,,,,,,
12623,0,1.23,0.49,,,,1.12,2.79,3.46,,,,,,,,,,,,,,,,,
12643,0,1.23,0.49,0.0,0.28,1.32,1.12,2.78,3.43,-0.01,-0.02,1.0,-0,-0,-0,0,0,0,0,0,0.0,0.0,0.0,0.0,0.0,0
12663,0,1.23,0.49,,,,1.12,2.78,3.46,,,,,,,,,,,,,,,,,
12683,0,1.23,0.48,,,,1.12,2.78,3.43,-0.01,-0.02,1.0,-0,-0,-0,0,,,,,,,,,,
12703,0,1.23,0.49,,,,1.12,2.78,3.46,,,,,,,,,,,,,,,,,
12723,0,1.23,0.49,,,,1.12,2.79,3.44,-0.01,-0.02,1.0,-0,-0,-0,0,,,,,,,,,,
12743,0,1.23,0.48,0.0,0.28,1.32,1.12,2.78,3.46,,,,,,,,0,0,0,0,0.0,0.0,0.0,0.0,0.0,0
12763,0,1.23,0.48,,,,1.12,2.78,3.44,-0.01,-0.02,1.0,-0,-0,-0,0,,,,,,,,,,
12783,0,1.23,0.49,,,,1.12,2.77,3.46,,,,,,,,,,,,,,,,,
12803,0,1.23,0.49,,,,1.12,2.79,3.44,-0.01,-0.02,1.0,-0,-0,-0,0,,,,,,,,,,
12823,0,1.23,0.49,,,,1.12,2.77,3.46,,,,,,,,,,,,,,,,,
12843,0,1.23,0.48,0.0,0.28,1.33,1.12,2.78,3.44,-0.01,-0.02,1.0,-0,-0,-0,0,0,0,0,0,0.0,0.0,0.0,0.0,0.0,0
12863,0,1.23,0.48,,,,1.12,2.79,3.46,,,,,,,,,,,,,,,,,
12883,0,1.23,0.48,,,,1.12,2.78,3.43,-0.01,-0.02,1.0,-0,-0,-0,0,,,,,,,,,,
12903,0,1.23,0.49,,,,1.13,2.78,3.46,,,,,,,,,,,,,,,,,
12923,0,1.23,0.49,,,,1.13,2.78,3.47,-0.01,-0.02,1.0,-0,-0,-0,0,,,,,,,,,,
12943,0,1.23,0.49,0.0,0.28,1.33,1.12,2.78,3.46,,,,,,,,0,0,0,0,0.0,0.0,0.0,0.0,0.0,0
12963,0,1.23,0.48,,,,1.13,2.78,3.44,-0.01,-0.02,1.0,-0,-0,-0,0,,,,,,,,,,
12983,0,1.23,0.48,,,,1.13,2.78,3.46,,,,,,,,,,,,,,,,,
13003,0,1.24,0.48,,,,1.13,2.78,3.43,-0.01,-0.02,1.0,-0,-0,-0,0,,,,,,,,,,
13023,0,1.23,0.49,,,,1.13,2.79,3.46,,,,,,,,,,,,,,,,,
13043,0,1.23,0.49,0.0,0.28,1.34,1.13,2.79,3.43,-0.01,-0.02,1.0,-0,-0,-0,0,0,0,0,0,0.0,0.0,0.0,0.0,0.0,0
13063,0,1.23,0.49,,,,1.13,2.78,3.46,,,,,,,,,,,,,,,,,
13083,0,1.23,0.48,,,,1.13,2.78,3.43,-0.01,-0.02,1.0,-0,-0,-0,0,,,,,,,,,,
13103,0,1.23,0.48,,,,1.13,2.78,3.46,,,,,,,,,,,,,,,,,
13123,0,1.23,0.49,,,,1.13,2.78,3.43,-0.01,-0.02,1.0,-0,-0,-0,0,,,,,,,,,,
13143,0,1.23,0.48,0.0,0.28,1.34,1.13,2.78,3.46,,,,,,,,0,0,0,0,0.0,0.0,0.0,0.0,0.0,0
13163,0,1.22,0.48,,,,1.13,2.77,3.44,-0.01,-0.02,1.0,-0,-0,-0,0,,,,,,,,,,
13183,0,1.23,0.48,,,,1.14,2.78,3.46,,,,,,,,,,,,,,,,,
13203,0,1.23,0.49,,,,1.13,2.77,3.43,-0.01,-0.02,1.0,-0,-0,-0,0,,,,,,,,,,
13223,0,1.23,0.49,,,,1.14,2.78,3.49,,,,,,,,,,,,,,,,,
13243,0,1.23,0.49,0.0,0.28,1.34,1.13,2.77,3.41,-0.01,-0.02,1.0,-0,-0,-0,0,0,0,0,0,0.0,0.0,0.0,0.0,0.0,0
13263,0,1.22,0.48,,,,1.13,2.77,3.43,,,,,,,,,,,,,,,,,
13283,0,1.22,0.48,,,,1.13,2.77,3.4,-0.01,-0.02,1.0,-0,-0,-0,0,,,,,,,,,,
13303,0,1.23,0.48,,,,1.14,2.77,3.42,,,,,,,,,,,,,,,,,
13323,0,1.23,0.48,,,,1.13,2.77,3.4,-0.01,-0.02,1.0,-0,-0,-0,0,,,,,,,,,,
13343,0,1.23,0.49,0.0,0.28,1.35,1.14,2.79,3.46,,,,,,,,0,0,0,0,0.0,0.0,0.0,0.0,0.0,0
13363,0,1.23,0.49,,,,1.13,2.78,3.44,-0.01,-0.02,1.0,-0,-0,-0,0,,,,,,,,,,
13383,0,1.23,0.48,,,,1.14,2.78,3.46,,,,,,,,,,,,,,,,,
13403,0,1.24,0.49,,,,1.14,2.77,3.43,-0.01,-0.02,1.0,-0,-0,-0,0,,,,,,,,,,
13423,0,1.23,0.49,,,,1.14,2.78,3.46,,,,,,,,,,,,,,,,,
13443,0,1.23,0.49,0.0,0.28,1.35,1.14,2.78,3.44,-0.01,-0.02,1.01,-0,-0,-0,0,0,0,0,0,0.0,0.0,0.0,0.0,0.0,0
13463,0,1.23,0.49,,,,1.14,2.78,3.46,,,,,,,,,,,,,,,,,
13483,0,1.22,0.48,,,,1.14,2.78,3.43,-0.01,-0.02,1.0,-0,-0,-0,0,,,,,,,,,,
13503,0,1.23,0.48,,,,1.14,2.77,3.46,,,,,,,,,,,,,,,,,
13523,0,1.22,0.48,,,,1.14,2.78,3.43,-0.01,-0.02,1.0,-0,-0,-0,0,,,,,,,,,,
13543,0,1.23,0.49,0.0,0.28,1.36,1.14,2.77,3.46,,,,,,,,0,0,0,0,0.0,0.0,0.0,0.0,0.0,0
13563,0,1.22,0.49,,,,1.14,2.78,3.44,-0.01,-0.02,1.0,-0,-0,-0,0,,,,,,,,,,
13583,0,1.23,0.49,,,,1.15,2.77,3.46,,,,,,,,,,,,,,,,,
13603,0,1.23,0.49,,,,1.14,2.78,3.44,-0.01,-0.02,1.0,-0,-0,-0,0,,,,,,,,,,
13623,0,1.23,0.48,,,,1.15,2.77,3.46,,,,,,,,,,,,,,,,,
13643,0,1.23,0.48,0.0,0.28,1.36,1.15,2.78,3.43,-0.01,-0.02,1.0,-0,-0,-0,0,0,0,0,0,0.0,0.0,0.0,0.0,0.0,0
13663,0,1.23,0.48,,,,1.15,2.77,3.46,,,,,,,,,,,,,,,,,
13683,0,1.22,0.48,,,,1.15,2.79,3.44,-0.01,-0.02,1.0,-0,-0,-0,0,,,,,,,,,,
13703,0,1.23,0.48,,,,1.15,2.78,3.46,,,,,,,,,,,,,,,,,
13723,0,1.22,0.48,,,,1.15,2.78,3.43,-0.01,-0.02,1.0,-0,-0,-0,0,,,,,,,,,,
13743,0,1.23,0.48,0.0,0.28,1.37,1.15,2.77,3.46,,,,,,,,0,0,0,0,0.0,0.0,0.0,0.0,0.0,0
13763,0,1.23,0.48,,,,1.15,2.77,3.44,-0.01,-0.01,1.01,-0,-0,-0,0,,,,,,,,,,
13783,0,1.23,0.49,,,,1.15,2.78,3.46,,,,,,,,,,,,,,,,,
13803,0,1.23,0.49,,,,1.15,2.77,3.47,-0.02,-0.0,1.0,-0,-0,-0,0,,,,,,,,,,
13823,0,1.23,0.49,,,,1.15,2.77,3.46,,,,,,,,,,,,,,,,,
13843,0,1.23,0.49,0.0,0.28,1.37,1.15,2.77,3.43,-0.01,-0.01,1.01,-0,0,-0,0,0,0,0,0,0.0,0.0,0.0,0.0,0.0,0
13863,0,1.23,0.48,,,,1.15,2.78,3.46,,,,,,,,,,,,,,,,,
13883,0,1.22,0.48,,,,1.15,2.77,3.43,-0.01,-0.01,1.0,-0,-0,-0,0,,,,,,,,,,
13903,0,1.23,0.48,,,,1.15,2.77,3.46,,,,,,,,,,,,,,,,,
13923,0,1.23,0.48,,,,1.15,2.77,3.44,-0.01,-0.01,1.0,-0,-0,-0,0,,,,,,,,,,
13943,0,1.23,0.48,0.0,0.28,1.38,1.15,2.79,3.46,,,,,,,,0,0,0,0,0.0,0.0,0.0,0.0,0.0,0
13963,0,1.23,0.48,,,,1.15,2.78,3.44,-0.01,-0.01,1.0,-0,-0,-0,0,,,,,,,,,,
13983,0,1.23,0.48,,,,1.16,2.79,3.47,,,,,,,,,,,,,,,,,
14003,0,1.23,0.48,,,,1.16,2.78,3.44,-0.01,-0.02,1.0,-0,-0,-0,0,,,,,,,,,,
14023,0,1.23,0.49,,,,1.16,2.78,3.46,,,,,,,,,,,,,,,,,
14043,0,1.23,0.49,0.0,0.28,1.38,1.16,2.78,3.43,-0.01,-0.02,1.0,-0,-0,-0,0,0,0,0,0,0.0,0.0,0.0,0.0,0.0,0
14063,0,1.23,0.49,,,,1.16,2.78,3.47,,,,,,,,,,,,,,,,,
14083,0,1.22,0.49,,,,1.16,2.78,3.43,-0.01,-0.02,1.0,-0,-0,-0,0,,,,,,,,,,
14103,0,1.23,0.49,,,,1.16,2.78,3.5,,,,,,,,,,,,,,,,,
14123,0,1.23,0.48,,,,1.16,2.77,3.43,-0.01,-0.02,1.0,-0,-0,-0,0,,,,,,,,,,
14143,0,1.23,0.48,0.0,0.28,1.38,1.16,2.78,3.46,,,,,,,,0,0,0,0,0.0,0.0,0.0,0.0,0.0,0
14163,0,1.23,0.48,,,,1.16,2.78,3.44,-0.0,-0.02,1.0,-0,-0,-0,0,,,,,,,,,,
14183,0,1.23,0.48,,,,1.16,2.78,3.46,,,,,,,,,,,,,,,,,
14203,0,1.23,0.48,,,,1.16,2.77,3.43,-0.01,-0.02,1.0,-0,-0,-0,0,,,,,,,,,,
14223,0,1.23,0.48,,,,1.16,2.78,3.45,,,,,,,,,,,,,,,,,
14243,0,1.23,0.48,0.0,0.28,1.39,1.16,2.78,3.43,-0.01,-0.02,1.0,-0,-0,-0,0,0,0,0,0,0.0,0.0,0.0,0.0,0.0,0
14263,0,1.23,0.49,,,,1.16,2.78,3.47,,,,,,,,,,,,,,,,,
14283,0,1.23,0.48,,,,1.16,2.79,3.43,-0.0,-0.02,1.0,-0,-0,-0,0,,,,,,,,,,
14303,0,1.23,0.48,,,,1.16,2.78,3.46,,,,,,,,,,,,,,,,,
14323,0,1.23,0.49,,,,1.16,2.78,3.43,-0.0,-0.02,1.0,-0,-0,-0,0,,,,,,,,,,
14343,0,1.23,0.49,0.0,0.28,1.39,1.16,2.78,3.46,,,,,,,,0,0,0,0,0.0,0.0,0.0,0.0,0.0,0
14363,0,1.23,0.48,,,,1.16,2.78,3.44,-0.0,-0.02,1.0,-0,-0,-0,0,,,,,,,,,,
14383,0,1.23,0.49,,,,1.17,2.78,3.46,,,,,,,,,,,,,,,,,
14403,0,1.23,0.49,,,,1.17,2.78,3.46,-0.0,-0.02,1.0,-0,-0,-0,0,,,,,,,,,,
14423,0,1.23,0.49,,,,1.17,2.78,3.45,,,,,,,,,,,,,,,,,
14443,0,1.23,0.48,0.0,0.28,1.39,1.17,2.78,3.43,-0.0,-0.02,1.0,-0,-0,-0,0,0,0,0,0,0.0,0.0,0.0,0.0,0.0,0
14463,0,1.23,0.49,,,,1.17,2.78,3.46,,,,,,,,,,,,,,,,,
14483,0,1.23,0.48,,,,1.17,2.78,3.43,-0.01,-0.02,1.0,-0,-0,-0,0,,,,,,,,,,
14503,0,1.23,0.48,,,,1.17,2.78,3.46,,,,,,,,,,,,,,,,,
14523,0,1.23,0.49,,,,1.17,2.78,3.43,-0.01,-0.02,1.0,-0,-0,-0,0,,,,,,,,,,
14543,0,1.23,0.49,0.0,0.28,1.4,1.17,2.79,3.46,,,,,,,,0,0,0,0,0.0,0.0,0.0,0.0,0.0,0
14563,0,1.23,0.49,,,,1.17,2.78,3.44,-0.01,-0.02,1.0,-0,-0,-0,0,,,,,,,,,,
14583,0,1.23,0.48,,,,1.17,2.79,3.46,,,,,,,,,,,,,,,,,
14603,0,1.23,0.49,,,,1.17,2.78,3.43,-0.01,-0.02,1.0,-0,-0,-0,0,,,,,,,,,,
14623,0,1.23,0.49,,,,1.17,2.78,3.46,,,,,,,,,,,,,,,,,
14643,0,1.23,0.49,0.0,0.28,1.4,1.17,2.78,3.43,-0.01,-0.02,1.0,-0,-0,-0,0,0,0,0,0,0.0,0.0,0.0,0.0,0.0,0
14663,0,1.23,0.48,,,,1.17,2.78,3.46,,,,,,,,,,,,,,,,,
14683,0,1.23,0.48,,,,1.17,2.78,3.43,-0.01,-0.02,1.0,-0,-0,-0,0,,,,,,,,,,
14703,0,1.23,0.48,,,,1.17,2.78,3.46,,,,,,,,,,,,,,,,,
14723,0,1.23,0.49,,,,1.17,2.78,3.44,-0.01,-0.02,1.0,-0,-0,-0,0,,,,,,,,,,
14743,0,1.23,0.49,0.0,0.28,1.41,1.17,2.78,3.47,,,,,,,,0,0,0,0,0.0,0.0,0.0,0.0,0.0,0
14763,0,1.23,0.49,,,,1.17,2.78,3.45,-0.01,-0.02,1.0,-0,-0,-0,0,,,,,,,,,,
14783,0,1.23,0.48,,,,1.18,2.78,3.46,,,,,,,,,,,,,,,,,
14803,0,1.23,0.48,,,,1.17,2.78,3.42,-0.02,-0.02,1.0,-0,-0,-0,0,,,,,,,,,,
14823,0,1.23,0.48,,,,1.18,2.78,3.46,,,,,,,,,,,,,,,,,
14843,0,1.23,0.49,0.0,0.28,1.41,1.17,2.78,3.43,-0.02,-0.02,1.0,-0,-0,-0,0,0,0,0,0,0.0,0.0,0.0,0.0,0.0,0
14863,0,1.23,0.48,,,,1.18,2.78,3.46,,,,,,,,,,,,,,,,,
14883,0,1.23,0.48,,,,1.18,2.79,3.44,-0.02,-0.02,1.0,-0,-0,-0,0,,,,,,,,,,
14903,0,1.23,0.48,,,,1.18,2.79,3.46,,,,,,,,,,,,,,,,,
14923,0,1.23,0.49,,,,1.18,2.78,3.44,-0.02,-0.02,1.0,-0,-0,-0,0,,,,,,,,,,
14943,0,1.23,0.49,0.0,0.28,1.41,1.18,2.78,3.46,,,,,,,,0,0,0,0,0.0,0.0,0.0,0.0,0.0,0
14963,0,1.23,0.48,,,,1.18,2.78,3.44,-0.02,-0.02,1.0,-0,-0,-0,0,,,,,,,,,,
14983,0,1.23,0.48,,,,1.18,2.79,3.46,,,,,,,,,,,,,,,,,
15003,0,1.23,0.48,,,,1.18,2.78,3.47,-0.02,-0.02,1.0,-0,-0,-0,0,,,,,,,,,,
15023,0,1.23,0.48,,,,1.18,2.78,3.46,,,,,,,,,,,,,,,,,
15043,0,1.23,0.48,0.0,0.28,1.42,1.18,2.78,3.43,-0.02,-0.02,1.0,-0,-0,-0,0,0,0,0,0,0.0,0.0,0.0,0.0,0.0,0
15063,0,1.23,0.48,,,,1.18,2.78,3.46,,,,,,,,,,,,,,,,,
15083,0,1.23,0.48,,,,1.18,2.79,3.43,-0.01,-0.02,1.0,-0,-0,-0,0,,,,,,,,,,
15103,0,1.23,0.48,,,,1.18,2.78,3.46,,,,,,,,,,,,,,,,,
15123,0,1.24,0.48,,,,1.18,2.79,3.43,-0.01,-0.02,1.0,-0,-0,-0,0,,,,,,,,,,
15143,0,1.23,0.49,0.0,0.28,1.42,1.18,2.79,3.46,,,,,,,,0,0,0,0,0.0,0.0,0.0,0.0,0.0,0
15163,0,1.23,0.49,,,,1.18,2.78,3.44,-0.01,-0.02,1.0,-0,-0,-0,0,,,,,,,,,,
15183,0,1.23,0.49,,,,1.19,2.78,3.46,,,,,,,,,,,,,,,,,
15203,0,1.23,0.48,,,,1.18,2.78,3.43,-0.01,-0.02,1.0,-0,-0,-0,0,,,,,,,,,,
15223,0,1.23,0.49,,,,1.19,2.78,3.46,,,,,,,,,,,,,,,,,
15243,0,1.23,0.49,0.0,0.28,1.42,1.18,2.78,3.43,-0.0,-0.02,1.01,-0,-0,-0,0,0,0,0,0,0.0,0.0,0.0,0.0,0.0,0
15263,0,1.24,0.49,,,,1.19,2.78,3.46,,,,,,,,,,,,,,,,,
15283,0,1.23,0.5,,,,1.18,2.79,3.43,-0.0,-0.02,1.01,-0,-0,-0,0,,,,,,,,,,
15303,0,1.23,0.5,,,,1.19,2.78,3.45,,,,,,,,,,,,,,,,,
15323,0,1.24,0.51,,,,1.18,2.78,3.43,0.0,-0.02,1.0,-0,-0,-0,0,,,,,,,,,,
15343,0,1.23,0.51,0.0,0.28,1.43,1.19,2.78,3.46,,,,,,,,0,0,0,0,0.0,0.0,0.0,0.0,0.0,0
15363,0,1.23,0.51,,,,1.19,2.78,3.44,0.0,-0.02,1.0,-0,-0,-0,0,,,,,,,,,,
15383,0,1.23,0.51,,,,1.19,2.78,3.45,,,,,,,,,,,,,,,,,
15403,0,1.23,0.51,,,,1.19,2.78,3.43,-0.0,-0.02,1.0,-0,-0,-0,0,,,,,,,,,,
15423,0,1.23,0.52,,,,1.19,2.77,3.46,,,,,,,,,,,,,,,,,
15443,0,1.23,0.52,0.0,0.28,1.43,1.19,2.78,3.46,-0.0,-0.02,1.0,-0,-0,-0,0,0,0,0,0,0.0,0.0,0.0,0.0,0.0,0
15463,0,1.23,0.51,,,,1.19,2.77,3.46,,,,,,,,,,,,,,,,,
15483,0,1.24,0.51,,,,1.19,2.79,3.43,-0.0,-0.02,1.0,-0,-0,-0,0,,,,,,,,,,
15503,0,1.23,0.52,,,,1.19,2.78,3.45,,,,,,,,,,,,,,,,,
15523,0,1.24,0.52,,,,1.19,2.78,3.43,-0.01,-0.02,1.0,-0,-0,-0,0,,,,,,,,,,
15543,0,1.24,0.52,0.0,0.28,1.43,1.19,2.78,3.46,,,,,,,,0,0,0,0,0.0,0.0,0.0,0.0,0.0,0
15563,0,1.23,0.52,,,,1.19,2.78,3.44,-0.01,-0.02,1.0,-0,-0,-0,0,,,,,,,,,,
15583,0,1.23,0.52,,,,1.2,2.78,3.46,,,,,,,,,,,,,,,,,
15603,0,1.23,0.52,,,,1.19,2.78,3.42,-0.01,-0.02,1.0,-0,-0,-0,0,,,,,,,,,,
15623,0,1.24,0.52,,,,1.19,2.79,3.46,,,,,,,,,,,,,,,,,
15643,0,1.23,0.51,0.0,0.28,1.44,1.19,2.79,3.43,-0.01,-0.02,1.0,-0,-0,-0,0,0,0,0,0,0.0,0.0,0.0,0.0,0.0,0
15663,0,1.24,0.51,,,,1.19,2.8,3.46,,,,,,,,,,,,,,,,,
15683,0,1.24,0.51,,,,1.19,2.79,3.43,-0.01,-0.02,1.0,-0,-0,-0,0,,,,,,,,,,
15703,0,1.23,0.51,,,,1.2,2.79,3.45,,,,,,,,,,,,,,,,,
15723,0,1.24,0.51,,,,1.19,2.78,3.43,-0.01,-0.02,1.0,-0,-0,-0,0,,,,,,,,,,
15743,0,1.23,0.51,0.0,0.28,1.44,1.2,2.79,3.45,,,,,,,,0,0,0,0,0.0,0.0,0.0,0.0,0.0,0
15763,0,1.23,0.5,,,,1.19,2.78,3.41,-0.01,-0.02,1.0,-0,-0,-0,0,,,,,,,,,,
15783,0,1.23,0.5,,,,1.2,2.79,3.43,,,,,,,,,,,,,,,,,
15803,0,1.24,0.51,,,,1.2,2.79,3.41,-0.01,-0.02,1.0,-0,-0,-0,0,,,,,,,,,,
15823,0,1.24,0.5,,,,1.19,2.78,3.43,,,,,,,,,,,,,,,,,
15843,0,1.24,0.5,0.0,0.28,1.44,1.2,2.79,3.43,-0.01,-0.02,1.0,-0,-0,-0,0,0,0,0,0,0.0,0.0,0.0,0.0,0.0,0
15863,0,1.23,0.51,,,,1.2,2.8,3.46,,,,,,,,,,,,,,,,,
15883,0,1.24,0.5,,,,1.2,2.78,3.43,-0.01,-0.02,1.0,-0,-0,-0,0,,,,,,,,,,
15903,0,1.23,0.5,,,,1.2,2.78,3.46,,,,,,,,,,,,,,,,,
15923,0,1.24,0.49,,,,1.2,2.78,3.43,-0.01,-0.02,1.0,-0,-0,-0,0,,,,,,,,,,
15943,0,1.24,0.49,0.0,0.28,1.45,1.2,2.78,3.48,,,,,,,,0,0,0,0,0.0,0.0,0.0,0.0,0.0,0
15963,0,1.23,0.49,,,,1.2,2.79,3.44,-0.01,-0.02,1.0,-0,-0,-0,0,,,,,,,,,,
15983,0,1.23,0.49,,,,1.2,2.79,3.46,,,,,,,,,,,,,,,,,
16003,0,1.24,0.49,,,,1.2,2.79,3.43,-0.01,-0.02,1.0,-0,-0,-0,0,,,,,,,,,,
16023,0,1.23,0.49,,,,1.2,2.78,3.46,,,,,,,,,,,,,,,,,
16043,0,1.23,0.49,0.0,0.28,1.45,1.2,2.79,3.46,-0.01,-0.02,1.0,-0,-0,-0,0,0,0,0,0,0.0,0.0,0.0,0.0,0.0,0
16063,0,1.23,0.48,,,,1.2,2.78,3.46,,,,,,,,,,,,,,,,,
16083,0,1.23,0.48,,,,1.2,2.78,3.43,-0.01,-0.02,1.0,-0,-0,-0,0,,,,,,,,,,
16103,0,1.23,0.48,,,,1.2,2.78,3.45,,,,,,,,,,,,,,,,,
16123,0,1.22,0.49,,,,1.2,2.78,3.43,-0.01,-0.02,1.0,-0,-0,-0,0,,,,,,,,,,
16143,0,1.24,0.48,0.0,0.28,1.45,1.2,2.78,3.46,,,,,,,,0,0,0,0,0.0,0.0,0.0,0.0,0.0,0
16163,0,1.24,0.49,,,,1.2,2.79,3.44,-0.01,-0.02,1.0,-0,-0,-0,0,,,,,,,,,,
16183,0,1.24,0.49,,,,1.21,2.78,3.45,,,,,,,,,,,,,,,,,
16203,0,1.23,0.49,,,,1.2,2.78,3.43,-0.01,-0.02,1.0,-0,-0,-0,0,,,,,,,,,,
16223,0,1.23,0.49,,,,1.21,2.78,3.46,,,,,,,,,,,,,,,,,
16243,0,1.23,0.49,0.0,0.28,1.46,1.21,2.78,3.44,-0.01,-0.02,1.0,-0,-0,-0,0,0,0,0,0,0.0,0.0,0.0,0.0,0.0,0
16263,0,1.23,0.49,,,,1.21,2.79,3.45,,,,,,,,,,,,,,,,,
16283,0,1.23,0.49,,,,1.21,2.78,3.43,-0.01,-0.02,1.0,-0,-0,-0,0,,,,,,,,,,
16303,0,1.24,0.49,,,,1.21,2.77,3.46,,,,,,,,,,,,,,,,,
16323,0,1.24,0.49,,,,1.21,2.79,3.43,-0.01,-0.02,1.0,-0,-0,-0,0,,,,,,,,,,
16343,0,1.24,0.49,0.0,0.28,1.46,1.21,2.8,3.5,,,,,,,,0,0,0,0,0.0,0.0,0.0,0.0,0.0,0
16363,0,1.24,0.48,,,,1.21,2.78,3.44,-0.01,-0.02,1.0,-0,-0,-0,0,,,,,,,,,,
16383,0,1.24,0.48,,,,1.21,2.78,3.46,,,,,,,,,,,,,,,,,
16403,0,1.23,0.48,,,,1.21,2.78,3.43,-0.01,-0.02,1.0,-0,-0,-0,0,,,,,,,,,,
16423,0,1.24,0.48,,,,1.21,2.78,3.45,,,,,,,,,,,,,,,,,
16443,0,1.24,0.48,0.0,0.28,1.46,1.21,2.78,3.43,-0.01,-0.02,1.0,-0,-0,-0,0,0,0,0,0,0.0,0.0,0.0,0.0,0.0,0
16463,0,1.23,0.49,,,,1.21,2.78,3.46,,,,,,,,,,,,,,,,,
16483,0,1.24,0.48,,,,1.21,2.78,3.43,-0.01,-0.02,0.99,-0,-0,-0,0,,,,,,,,,,
16503,0,1.24,0.49,,,,1.21,2.78,3.45,,,,,,,,,,,,,,,,,
16523,0,1.24,0.49,,,,1.21,2.78,3.43,-0.01,-0.02,1.0,-0,-0,-0,0,,,,,,,,,,
16543,0,1.24,0.49,0.0,0.28,1.47,1.21,2.78,3.47,,,,,,,,0,0,0,0,0.0,0.0,0.0,0.0,0.0,0
16563,0,1.24,0.49,,,,1.21,2.78,3.44,-0.01,-0.02,1.0,-0,-0,-0,0,,,,,,,,,,
16583,0,1.24,0.48,,,,1.21,2.78,3.46,,,,,,,,,,,,,,,,,
16603,0,1.24,0.49,,,,1.21,2.78,3.43,-0.01,-0.02,1.0,-0,-0,-0,0,,,,,,,,,,
16623,0,1.24,0.49,,,,1.21,2.78,3.46,,,,,,,,,,,,,,,,,
16643,0,1.24,0.49,0.0,0.28,1.47,1.21,2.79,3.45,-0.01,-0.02,1.0,-0,-0,-0,0,0,0,0,0,0.0,0.0,0.0,0.0,0.0,0
16663,0,1.24,0.49,,,,1.21,2.79,3.46,,,,,,,,,,,,,,,,,
16683,0,1.24,0.49,,,,1.21,2.78,3.43,-0.01,-0.02,1.0,-0,-0,-0,0,,,,,,,,,,
16703,0,1.24,0.49,,,,1.22,2.78,3.45,,,,,,,,,,,,,,,,,
16723,0,1.24,0.49,,,,1.21,2.78,3.43,-0.01,-0.02,1.0,-0,-0,-0,0,,,,,,,,,,
16743,0,1.24,0.49,0.0,0.28,1.47,1.22,2.78,3.47,,,,,,,,0,0,0,0,0.0,0.0,0.0,0.0,0.0,0
16763,0,1.24,0.49,,,,1.22,2.79,3.44,-0.01,-0.02,1.0,-0,-0,-0,0,,,,,,,,,,
16783,0,1.24,0.49,,,,1.22,2.79,3.46,,,,,,,,,,,,,,,,,
16803,0,1.24,0.49,,,,1.22,2.79,3.43,-0.01,-0.02,1.0,-0,-0,-0,0,,,,,,,,,,
16823,0,1.24,0.49,,,,1.22,2.79,3.46,,,,,,,,,,,,,,,,,
16843,0,1.24,0.49,0.0,0.28,1.47,1.22,2.78,3.43,-0.01,-0.02,1.0,-0,-0,-0,0,0,0,0,0,0.0,0.0,0.0,0.0,0.0,0
16863,0,1.24,0.49,,,,1.22,2.79,3.46,,,,,,,,,,,,,,,,,
16883,0,1.23,0.49,,,,1.22,2.78,3.43,-0.01,-0.02,1.0,-0,-0,-0,0,,,,,,,,,,
16903,0,1.23,0.49,,,,1.22,2.79,3.45,,,,,,,,,,,,,,,,,
16923,0,1.24,0.49,,,,1.22,2.79,3.43,-0.01,-0.02,1.0,-0,-0,-0,0,,,,,,,,,,
16943,0,1.24,0.49,0.0,0.28,1.48,1.22,2.79,3.47,,,,,,,,0,0,0,0,0.0,0.0,0.0,0.0,0.0,0
16963,0,1.24,0.49,,,,1.22,2.78,3.44,-0.01,-0.02,1.0,-0,-0,-0,0,,,,,,,,,,
16983,0,1.24,0.49,,,,1.22,2.79,3.46,,,,,,,,,,,,,,,,,
17003,0,1.24,0.49,,,,1.22,2.79,3.43,-0.01,-0.02,0.99,-0,-0,-0,0,,,,,,,,,,
17023,0,1.24,0.49,,,,1.22,2.78,3.46,,,,,,,,,,,,,,,,,
17043,0,1.24,0.49,0.0,0.28,1.48,1.22,2.79,3.43,-0.01,-0.02,1.0,-0,-0,-0,0,0,0,0,0,0.0,0.0,0.0,0.0,0.0,0
17063,0,1.24,0.48,,,,1.22,2.8,3.46,,,,,,,,,,,,,,,,,
17083,0,1.24,0.49,,,,1.22,2.79,3.46,-0.01,-0.02,1.0,-0,-0,-0,0,,,,,,,,,,
17103,0,1.24,0.49,,,,1.22,2.79,3.45,,,,,,,,,,,,,,,,,
17123,0,1.24,0.49,,,,1.22,2.79,3.43,-0.01,-0.02,1.0,-0,-0,-0,0,,,,,,,,,,
17143,0,1.24,0.49,0.0,0.28,1.48,1.22,2.79,3.46,,,,,,,,0,0,0,0,0.0,0.0,0.0,0.0,0.0,0
17163,0,1.24,0.49,,,,1.23,2.79,3.44,-0.01,-0.02,1.0,-0,-0,-0,0,,,,,,,,,,
17183,0,1.24,0.49,,,,1.23,2.79,3.46,,,,,,,,,,,,,,,,,
17203,0,1.24,0.49,,,,1.22,2.79,3.43,-0.01,-0.02,1.0,-0,-0,-0,0,,,,,,,,,,
17223,0,1.24,0.49,,,,1.22,2.8,3.46,,,,,,,,,,,,,,,,,
17243,0,1.24,0.49,0.0,0.28,1.48,1.22,2.79,3.43,-0.01,-0.02,1.0,-0,-0,-0,0,0,0,0,0,0.0,0.0,0.0,0.0,0.0,0
17263,0,1.23,0.5,,,,1.23,2.78,3.46,,,,,,,,,,,,,,,,,
17283,0,1.24,0.49,,,,1.23,2.78,3.43,-0.01,-0.02,1.0,-0,-0,-0,0,,,,,,,,,,
17303,0,1.23,0.49,,,,1.23,2.79,3.45,,,,,,,,,,,,,,,,,
17323,0,1.24,0.49,,,,1.22,2.79,3.43,-0.01,-0.02,1.0,-0,-0,-0,0,,,,,,,,,,
17343,0,1.25,0.49,0.0,0.28,1.49,1.23,2.79,3.46,,,,,,,,0,0,0,0,0.0,0.0,0.0,0.0,0.0,0
17363,0,1.24,0.48,,,,1.23,2.78,3.44,-0.01,-0.02,1.0,-0,-0,-0,0,,,,,,,,,,
17383,0,1.24,0.49,,,,1.23,2.79,3.46,,,,,,,,,,,,,,,,,
17403,0,1.24,0.49,,,,1.23,2.79,3.43,-0.01,-0.02,1.0,-0,-0,-0,0,,,,,,,,,,
17423,0,1.24,0.49,,,,1.23,2.79,3.46,,,,,,,,,,,,,,,,,
17443,0,1.23,0.49,0.0,0.28,1.49,1.23,2.79,3.43,-0.01,-0.02,1.0,-0,-0,-0,0,0,0,0,0,0.0,0.0,0.0,0.0,0.0,0
17463,0,1.24,0.49,,,,1.23,2.81,3.46,,,,,,,,,,,,,,,,,
17483,0,1.24,0.49,,,,1.23,2.79,3.42,-0.01,-0.02,1.0,-0,-0,-0,0,,,,,,,,,,
17503,0,1.24,0.49,,,,1.23,2.79,3.46,,,,,,,,,,,,,,,,,
17523,0,1.24,0.5,,,,1.23,2.79,3.46,-0.01,-0.02,1.0,-0,-0,-0,0,,,,,,,,,,
