"Interval|""ms""|0|0|1","Utc|""ms""|0|0|1","AccelX|""G""|-3.0|3.0|50","AccelY|""G""|-3.0|3.0|50","AccelZ|""G""|-3.0|3.0|50","Yaw|""Deg/Sec""|-120|120|50","Pitch|""Deg/Sec""|-120|120|50","Roll|""Deg/Sec""|-120|120|50","FTTS1|""""|0.0|1000.0|10","FTTS2|""""|0.0|1000.0|10","FTTS3|""""|0.0|1000.0|10","FTTS4|""""|0.0|1000.0|10","STR|""""|0.0|1000.0|10","TPS|""""|0.0|1000.0|50","FL|""""|0.0|1000.0|50","FBPS|""""|0.0|1000.0|50","FR|""""|0.0|1000.0|50","MPUAccX|""""|-20.0|20.0|50","MPUAccY|""""|-20.0|20.0|50","MPUAccZ|""""|-20.0|20.0|50","YawMPU|""""|-20.0|20.0|50","PitchMPU|""""|-20.0|20.0|50","RollMPU|""""|-20.0|20.0|50"," RSTR|""""|0.0|1000.0|50"," RL|""""|0.0|1000.0|50"," RBPS|""""|0.0|1000.0|50"," RR |""""|0.0|1000.0|50","Latitude|""Degrees""|-180.0|180.0|10","Longitude|""Degrees""|-180.0|180.0|10","Speed|""mph""|0.0|150.0|10","Altitude|""ft""|0.0|4000.0|10","GPSSats|""""|0|20|10","LapCount|""""|0|0|10","LapTime|""Min""|0.0|0.0|10","Sector|""""|0|0|10","SectorTime|""Min""|0.0|0.0|10","PredTime|""Min""|0.0|0.0|10","ElapsedTime|""Min""|0.0|0.0|10","CurrentLap|""""|0|0|10"
2498197,1.58E+12,0.88,0.24,-0.32,-2,4,16,0,0,0,0,4.38,2.44,2.9,0.56,0,0,0,0,0,0,0,0,0,0,0,13.111252,80.190071,21.48,-18,6,0,0,-1,0,0,0,0
2498217,1.58E+12,0.85,0.28,-0.32,0,-1,11,0,0,0,0,4.38,2.45,3.03,0.55,0,0,0,0,0,0,0,0,0,0,0,13.111252,80.190071,21.48,-18,6,0,0,-1,0,0,0,0
2498237,1.58E+12,0.85,0.26,-0.42,1,0,7,0,0,0,0,4.38,2.45,3.03,0.55,0,0,0,0,0,0,0,0,0,0,0,13.111252,80.190071,21.48,-18,6,0,0,-1,0,0,0,0
2498257,1.58E+12,0.86,0.12,-0.42,2,-3,1,0,0,0,0,4.33,2.45,3.03,0.55,0,0,0,0,0,0,0,0,0,0,0,13.111252,80.190071,21.48,-18,6,0,0,-1,0,0,0,0
2498277,1.58E+12,0.97,0.06,-0.45,3,-4,-5,0,0,0,0,4.33,2.45,3.03,0.55,0,0,0,0,0,0,0,0,0,0,0,13.111252,80.190071,21.48,-18,6,0,0,-1,0,0,0,0
2498297,1.58E+12,0.99,0.11,-0.37,3,-5,-10,0,0,0,0,4.33,2.45,3.03,0.55,0,0,0,0,0,0,0,0,0,0,0,13.111252,80.190071,21.48,-18,6,0,0,-1,0,0,0,0
2498317,1.58E+12,0.92,0.19,-0.37,3,-4,-16,0,0,0,0,4.33,2.44,3.27,0.56,0,0,0,0,0,0,0,0,0,0,0,13.111252,80.190071,21.48,-18,6,0,0,-1,0,0,0,0
2498337,1.58E+12,0.89,0.23,-0.35,3,-2,-20,0,0,0,0,4.33,2.44,3.27,0.56,0,0,0,0,0,0,0,0,0,0,0,13.111252,80.190071,21.48,-18,6,0,0,-1,0,0,0,0
2498357,1.58E+12,0.9,0.26,-0.49,2,-2,-23,0,0,0,0,3.91,2.44,3.27,0.56,0,0,0,0,0,0,0,0,0,0,0,13.111252,80.190071,21.48,-18,6,0,0,-1,0,0,0,0
2498377,1.58E+12,0.89,0.27,-0.64,2,-3,-26,0,0,0,0,3.91,2.44,3.27,0.56,0,0,0,0,0,0,0,0,0,0,0,13.111252,80.190071,21.48,-18,6,0,0,-1,0,0,0,0
2498397,1.58E+12,0.83,0.32,-0.76,1,-4,-29,0,0,0,0,3.91,2.44,3.27,0.56,0,0,0,0,0,0,0,0,0,0,0,13.111252,80.190071,21.48,-18,6,0,0,-1,0,0,0,0
2498417,1.58E+12,0.75,0.33,-0.89,1,-5,-31,0,0,0,0,3.91,2.45,3.24,0.55,0,0,0,0,0,0,0,0,0,0,0,13.111252,80.190071,21.48,-18,6,0,0,-1,0,0,0,0
2498437,1.58E+12,0.71,0.26,-0.97,2,-4,-34,0,0,0,0,3.91,2.45,3.24,0.55,0,0,0,0,0,0,0,0,0,0,0,13.111252,80.190071,21.48,-18,6,0,0,-1,0,0,0,0
2498457,1.58E+12,0.67,0.27,-1.04,2,-2,-36,0,0,0,0,3.49,2.45,3.24,0.55,0,0,0,0,0,0,0,0,0,0,0,13.111252,80.190071,21.48,-18,6,0,0,-1,0,0,0,0
2498477,1.58E+12,0.67,0.21,-1.08,2,-1,-38,0,0,0,0,3.49,2.45,3.24,0.55,0,0,0,0,0,0,0,0,0,0,0,13.111252,80.190071,21.48,-18,6,0,0,-1,0,0,0,0
2498497,1.58E+12,0.67,0.16,-1.17,3,-1,-40,0,0,0,0,3.49,2.45,3.24,0.55,0,0,0,0,0,0,0,0,0,0,0,13.111252,80.190071,21.48,-18,6,0,0,-1,0,0,0,0
2498517,1.58E+12,0.77,0.04,-1.25,4,-1,-42,0,0,0,0,3.49,2.47,3.13,0.53,0,0,0,0,0,0,0,0,0,0,0,13.111252,80.190071,21.48,-18,6,0,0,-1,0,0,0,0
2498537,1.58E+12,0.76,0.05,-1.24,4,-1,-44,0,0,0,0,3.49,2.47,3.13,0.53,0,0,0,0,0,0,0,0,0,0,0,13.111252,80.190071,21.48,-18,6,0,0,-1,0,0,0,0
2498557,1.58E+12,0.76,0.02,-1.16,5,1,-46,0,0,0,0,3.13,2.47,3.13,0.53,0,0,0,0,0,0,0,0,0,0,0,13.111252,80.190071,21.48,-18,6,0,0,-1,0,0,0,0
2498577,1.58E+12,0.78,-0.03,-1.23,5,4,-48,0,0,0,0,3.13,2.47,3.13,0.53,0,0,0,0,0,0,0,0,0,0,0,13.111252,80.190071,21.48,-18,6,0,0,-1,0,0,0,0
2498597,1.58E+12,0.83,-0.04,-1.29,5,5,-51,0,0,0,0,3.13,2.47,3.13,0.53,0,0,0,0,0,0,0,0,0,0,0,13.111252,80.190071,21.48,-18,6,0,0,-1,0,0,0,0
2498617,1.58E+12,0.86,-0.16,-1.27,5,4,-54,0,0,0,0,3.13,2.47,2.75,0.53,0,0,0,0,0,0,0,0,0,0,0,13.111252,80.190071,21.48,-18,6,0,0,-1,0,0,0,0
2498637,1.58E+12,0.86,-0.07,-1.18,4,4,-57,0,0,0,0,3.13,2.47,2.75,0.53,0,0,0,0,0,0,0,0,0,0,0,13.111252,80.190071,21.48,-18,6,0,0,-1,0,0,0,0
2498657,1.58E+12,0.84,0.05,-1.07,3,3,-59,0,0,0,0,2.68,2.47,2.75,0.53,0,0,0,0,0,0,0,0,0,0,0,13.111252,80.190071,21.48,-18,6,0,0,-1,0,0,0,0
2498677,1.58E+12,0.75,0.18,-0.96,2,-3,-63,0,0,0,0,2.68,2.47,2.75,0.53,0,0,0,0,0,0,0,0,0,0,0,13.111252,80.190071,21.48,-18,6,0,0,-1,0,0,0,0
2498697,1.58E+12,0.69,0.26,-0.85,2,-7,-65,0,0,0,0,2.68,2.47,2.75,0.53,0,0,0,0,0,0,0,0,0,0,0,13.111252,80.190071,21.48,-18,6,0,0,-1,0,0,0,0
2498717,1.58E+12,0.71,0.33,-0.77,1,-11,-67,0,0,0,0,2.68,2.49,2.44,0.51,0,0,0,0,0,0,0,0,0,0,0,13.111252,80.190071,21.48,-18,6,0,0,-1,0,0,0,0
2498737,1.58E+12,0.73,0.32,-0.69,1,-18,-69,0,0,0,0,2.68,2.49,2.44,0.51,0,0,0,0,0,0,0,0,0,0,0,13.111252,80.190071,21.48,-18,6,0,0,-1,0,0,0,0
2498757,1.58E+12,0.75,0.27,-0.72,2,-23,-70,0,0,0,0,2.05,2.49,2.44,0.51,0,0,0,0,0,0,0,0,0,0,0,13.111252,80.190071,21.48,-18,6,0,0,-1,0,0,0,0
2498777,1.58E+12,0.8,0.24,-0.57,2,-28,-72,0,0,0,0,2.05,2.49,2.44,0.51,0,0,0,0,0,0,0,0,0,0,0,13.111252,80.190071,21.48,-18,6,0,0,-1,0,0,0,0
2498797,1.58E+12,0.91,0.14,-0.56,3,-31,-74,0,0,0,0,2.05,2.49,2.44,0.51,0,0,0,0,0,0,0,0,0,0,0,13.111252,80.190071,21.48,-18,6,0,0,-1,0,0,0,0
2498817,1.58E+12,1.01,0.11,-0.58,3,-31,-73,0,0,0,0,2.05,2.5,2.48,0.5,0,0,0,0,0,0,0,0,0,0,0,13.111252,80.190071,21.48,-18,6,0,0,-1,0,0,0,0
2498837,1.58E+12,1.08,0.07,-0.57,3,-30,-72,0,0,0,0,2.05,2.5,2.48,0.5,0,0,0,0,0,0,0,0,0,0,0,13.111252,80.190071,21.48,-18,6,0,0,-1,0,0,0,0
2498857,1.58E+12,1.09,0.08,-0.63,2,-25,-70,0,0,0,0,1.74,2.5,2.48,0.5,0,0,0,0,0,0,0,0,0,0,0,13.111252,80.190071,21.48,-18,6,0,0,-1,0,0,0,0
2498877,1.58E+12,1.13,0.03,-0.57,2,-22,-67,0,0,0,0,1.74,2.5,2.48,0.5,0,0,0,0,0,0,0,0,0,0,0,13.111252,80.190071,21.48,-18,6,0,0,-1,0,0,0,0
2498897,1.58E+12,1.13,-0.02,-0.51,2,-15,-63,0,0,0,0,1.74,2.5,2.48,0.5,0,0,0,0,0,0,0,0,0,0,0,13.111252,80.190071,21.48,-18,6,0,0,-1,0,0,0,0
2498917,1.58E+12,1.11,0.1,-0.65,2,-8,-58,0,0,0,0,1.74,2.5,2.05,0.5,0,0,0,0,0,0,0,0,0,0,0,13.111252,80.190071,21.48,-18,6,0,0,-1,0,0,0,0
2498937,1.58E+12,1.17,0.07,-0.76,2,-1,-54,0,0,0,0,1.74,2.5,2.05,0.5,0,0,0,0,0,0,0,0,0,0,0,13.111252,80.190071,21.48,-18,6,0,0,-1,0,0,0,0
2498957,1.58E+12,1.19,0.11,-0.89,2,5,-49,0,0,0,0,1.66,2.5,2.05,0.5,0,0,0,0,0,0,0,0,0,0,0,13.111252,80.190071,21.48,-18,6,0,0,-1,0,0,0,0
2498977,1.58E+12,1.14,0.14,-0.98,3,7,-48,0,0,0,0,1.66,2.5,2.05,0.5,0,0,0,0,0,0,0,0,0,0,0,13.111252,80.190071,21.48,-18,6,0,0,-1,0,0,0,0
2498997,1.58E+12,1,0.32,-0.69,3,1,-48,0,0,0,0,1.66,2.5,2.05,0.5,0,0,0,0,0,0,0,0,0,0,0,13.111252,80.190071,21.48,-18,6,0,0,-1,0,0,0,0
2499017,1.58E+12,1,0.36,-0.42,4,-5,-50,0,0,0,0,1.66,2.5,1.97,0.5,0,0,0,0,0,0,0,0,0,0,0,13.111252,80.190071,21.48,-18,6,0,0,-1,0,0,0,0
2499037,1.58E+12,0.99,0.44,-0.29,5,-9,-50,0,0,0,0,1.66,2.5,1.97,0.5,0,0,0,0,0,0,0,0,0,0,0,13.111252,80.190071,21.48,-18,6,0,0,-1,0,0,0,0
2499057,1.58E+12,1.02,0.38,-0.18,5,-15,-51,0,0,0,0,1.65,2.5,1.97,0.5,0,0,0,0,0,0,0,0,0,0,0,13.111252,80.190071,21.48,-18,6,0,0,-1,0,0,0,0
2499077,1.58E+12,0.95,0.33,-0.33,6,-16,-50,0,0,0,0,1.65,2.5,1.97,0.5,0,0,0,0,0,0,0,0,0,0,0,13.111252,80.190071,21.48,-18,6,0,0,-1,0,0,0,0
2499097,1.58E+12,0.98,0.37,-0.5,5,-10,-46,0,0,0,0,1.65,2.5,1.97,0.5,0,0,0,0,0,0,0,0,0,0,0,13.111252,80.190071,21.48,-18,6,0,0,-1,0,0,0,0
2499117,1.58E+12,0.99,0.37,-0.64,4,-6,-42,0,0,0,0,1.65,2.5,1.88,0.5,0,0,0,0,0,0,0,0,0,0,0,13.111252,80.190071,21.48,-18,6,0,0,-1,0,0,0,0
2499137,1.58E+12,0.94,0.37,-0.38,4,-10,-43,0,0,0,0,1.65,2.5,1.88,0.5,0,0,0,0,0,0,0,0,0,0,0,13.111252,80.190071,21.48,-18,6,0,0,-1,0,0,0,0
2499157,1.58E+12,0.86,0.36,-0.34,3,-15,-43,0,0,0,0,1.66,2.5,1.88,0.5,0,0,0,0,0,0,0,0,0,0,0,13.111252,80.190071,21.48,-18,6,0,0,-1,0,0,0,0
2499177,1.58E+12,0.93,0.44,-0.5,2,-10,-40,0,0,0,0,1.66,2.5,1.88,0.5,0,0,0,0,0,0,0,0,0,0,0,13.111252,80.190071,21.48,-18,6,0,0,-1,0,0,0,0
2499197,1.58E+12,0.98,0.39,-0.61,1,-9,-38,0,0,0,0,1.66,2.5,1.88,0.5,0,0,0,0,0,0,0,0,0,0,0,13.111252,80.190071,21.48,-18,6,0,0,-1,0,0,0,0
2499217,1.58E+12,0.96,0.42,-0.41,1,-10,-39,0,0,0,0,1.66,2.49,1.49,0.51,0,0,0,0,0,0,0,0,0,0,0,13.111252,80.190071,21.48,-18,6,0,0,-1,0,0,0,0
2499237,1.58E+12,0.89,0.46,-0.55,1,-5,-38,0,0,0,0,1.66,2.49,1.49,0.51,0,0,0,0,0,0,0,0,0,0,0,13.111252,80.190071,21.48,-18,6,0,0,-1,0,0,0,0
2499257,1.58E+12,0.92,0.47,-0.52,1,-1,-35,0,0,0,0,1.82,2.49,1.49,0.51,0,0,0,0,0,0,0,0,0,0,0,13.111252,80.190071,21.48,-18,6,0,0,-1,0,0,0,0
2499277,1.58E+12,0.91,0.45,-0.58,2,-2,-33,0,0,0,0,1.82,2.49,1.49,0.51,0,0,0,0,0,0,0,0,0,0,0,13.111252,80.190071,21.48,-18,6,0,0,-1,0,0,0,0
2499297,1.58E+12,0.81,0.43,-0.32,3,-10,-34,0,0,0,0,1.82,2.49,1.49,0.51,0,0,0,0,0,0,0,0,0,0,0,13.111252,80.190071,21.48,-18,6,0,0,-1,0,0,0,0
2499317,1.58E+12,0.86,0.54,-0.49,2,-6,-31,0,0,0,0,1.82,2.51,1.47,0.49,0,0,0,0,0,0,0,0,0,0,0,13.111252,80.190071,21.48,-18,6,0,0,-1,0,0,0,0
2499337,1.58E+12,0.97,0.48,-0.51,3,-5,-28,0,0,0,0,1.82,2.51,1.47,0.49,0,0,0,0,0,0,0,0,0,0,0,13.111252,80.190071,21.48,-18,6,0,0,-1,0,0,0,0
2499357,1.58E+12,0.95,0.46,-0.35,3,-7,-29,0,0,0,0,2.15,2.51,1.47,0.49,0,0,0,0,0,0,0,0,0,0,0,13.111252,80.190071,21.48,-18,6,0,0,-1,0,0,0,0
2499377,1.58E+12,0.95,0.56,-0.4,2,-2,-27,0,0,0,0,2.15,2.51,1.47,0.49,0,0,0,0,0,0,0,0,0,0,0,13.111252,80.190071,21.48,-18,6,0,0,-1,0,0,0,0
2499397,1.58E+12,0.99,0.44,-0.47,3,-2,-25,0,0,0,0,2.15,2.51,1.47,0.49,0,0,0,0,0,0,0,0,0,0,0,13.111252,80.190071,21.48,-18,6,0,0,-1,0,0,0,0
2499417,1.58E+12,0.89,0.5,-0.37,2,-4,-24,0,0,0,0,2.15,2.51,1.39,0.49,0,0,0,0,0,0,0,0,0,0,0,13.111252,80.190071,21.48,-18,6,0,0,-1,0,0,0,0
2499437,1.58E+12,0.99,0.34,-0.4,2,-4,-23,0,0,0,0,2.15,2.51,1.39,0.49,0,0,0,0,0,0,0,0,0,0,0,13.111252,80.190071,21.48,-18,6,0,0,-1,0,0,0,0
2499457,1.58E+12,0.95,0.43,-0.2,1,-1,-22,0,0,0,0,2.42,2.51,1.39,0.49,0,0,0,0,0,0,0,0,0,0,0,13.111252,80.190071,21.48,-18,6,0,0,-1,0,0,0,0
2499477,1.58E+12,0.96,0.42,-0.24,1,0,-21,0,0,0,0,2.42,2.51,1.39,0.49,0,0,0,0,0,0,0,0,0,0,0,13.111252,80.190071,21.48,-18,6,0,0,-1,0,0,0,0
2499497,1.58E+12,0.78,0.45,-0.03,0,-1,-20,0,0,0,0,2.42,2.51,1.39,0.49,0,0,0,0,0,0,0,0,0,0,0,13.111252,80.190071,21.48,-18,6,0,0,-1,0,0,0,0
2499517,1.58E+12,0.87,0.43,-0.23,0,1,-19,0,0,0,0,2.42,2.5,1.67,0.5,0,0,0,0,0,0,0,0,0,0,0,13.111252,80.190071,21.48,-18,6,0,0,-1,0,0,0,0
2499537,1.58E+12,0.76,0.44,-0.08,1,3,-17,0,0,0,0,2.42,2.5,1.67,0.5,0,0,0,0,0,0,0,0,0,0,0,13.111252,80.190071,21.48,-18,6,0,0,-1,0,0,0,0
2499557,1.58E+12,0.88,0.37,-0.23,1,3,-17,0,0,0,0,2.42,2.5,1.67,0.5,0,0,0,0,0,0,0,0,0,0,0,13.111252,80.190071,21.48,-18,6,0,0,-1,0,0,0,0
2499577,1.58E+12,0.82,0.33,-0.14,1,3,-14,0,0,0,0,2.42,2.5,1.67,0.5,0,0,0,0,0,0,0,0,0,0,0,13.111252,80.190071,21.48,-18,6,0,0,-1,0,0,0,0
2499597,1.58E+12,0.91,0.31,-0.2,2,-1,-14,0,0,0,0,2.42,2.5,1.67,0.5,0,0,0,0,0,0,0,0,0,0,0,13.111252,80.190071,21.48,-18,6,0,0,-1,0,0,0,0
2499617,1.58E+12,0.75,0.41,-0.17,1,2,-12,0,0,0,0,2.42,2.51,2.05,0.49,0,0,0,0,0,0,0,0,0,0,0,13.111252,80.190071,21.48,-18,6,0,0,-1,0,0,0,0
2499637,1.58E+12,0.83,0.25,-0.34,1,1,-13,0,0,0,0,2.42,2.51,2.05,0.49,0,0,0,0,0,0,0,0,0,0,0,13.111252,80.190071,21.48,-18,6,0,0,-1,0,0,0,0
2499657,1.58E+12,0.82,0.16,-0.2,2,-3,-12,0,0,0,0,2.52,2.51,2.05,0.49,0,0,0,0,0,0,0,0,0,0,0,13.111252,80.190071,21.48,-18,6,0,0,-1,0,0,0,0
2499677,1.58E+12,0.84,0.21,-0.38,2,-2,-12,0,0,0,0,2.52,2.51,2.05,0.49,0,0,0,0,0,0,0,0,0,0,0,13.111252,80.190071,21.48,-18,6,0,0,-1,0,0,0,0
2499697,1.58E+12,0.8,0.18,-0.23,3,-4,-10,0,0,0,0,2.52,2.51,2.05,0.49,0,0,0,0,0,0,0,0,0,0,0,13.111252,80.190071,21.48,-18,6,0,0,-1,0,0,0,0
2499717,1.58E+12,0.87,0.18,-0.28,2,-1,-11,0,0,0,0,2.52,2.5,2.19,0.5,0,0,0,0,0,0,0,0,0,0,0,13.111252,80.190071,21.48,-18,6,0,0,-1,0,0,0,0
2499737,1.58E+12,0.69,0.21,-0.06,1,-6,-13,0,0,0,0,2.52,2.5,2.19,0.5,0,0,0,0,0,0,0,0,0,0,0,13.111252,80.190071,21.48,-18,6,0,0,-1,0,0,0,0
2499757,1.58E+12,0.77,0.18,-0.18,0,-7,-14,0,0,0,0,2.54,2.5,2.19,0.5,0,0,0,0,0,0,0,0,0,0,0,13.111252,80.190071,21.48,-18,6,0,0,-1,0,0,0,0
2499777,1.58E+12,0.67,0.21,0.02,0,-14,-15,0,0,0,0,2.54,2.5,2.19,0.5,0,0,0,0,0,0,0,0,0,0,0,13.111252,80.190071,21.48,-18,6,0,0,-1,0,0,0,0
2499797,1.58E+12,0.69,0.39,-0.03,-1,-10,-13,0,0,0,0,2.54,2.5,2.19,0.5,0,0,0,0,0,0,0,0,0,0,0,13.111252,80.190071,21.48,-18,6,0,0,-1,0,0,0,0
2499817,1.58E+12,0.73,0.39,-0.13,-2,-9,-11,0,0,0,0,2.54,2.5,2.29,0.5,0,0,0,0,0,0,0,0,0,0,0,13.111252,80.190071,21.48,-18,6,0,0,-1,0,0,0,0
2499837,1.58E+12,0.76,0.34,-0.32,-2,-8,-10,0,0,0,0,2.54,2.5,2.29,0.5,0,0,0,0,0,0,0,0,0,0,0,13.111252,80.190071,21.48,-18,6,0,0,-1,0,0,0,0
2499857,1.58E+12,0.73,0.32,-0.39,-1,-7,-8,0,0,0,0,2.6,2.5,2.29,0.5,0,0,0,0,0,0,0,0,0,0,0,13.111252,80.190071,21.48,-18,6,0,0,-1,0,0,0,0
2499877,1.58E+12,0.71,0.35,-0.48,-1,-6,-6,0,0,0,0,2.6,2.5,2.29,0.5,0,0,0,0,0,0,0,0,0,0,0,13.111252,80.190071,21.48,-18,6,0,0,-1,0,0,0,0
2499897,1.58E+12,0.77,0.35,-0.56,0,-5,-4,0,0,0,0,2.6,2.5,2.29,0.5,0,0,0,0,0,0,0,0,0,0,0,13.111252,80.190071,21.48,-18,6,0,0,-1,0,0,0,0
2499917,1.58E+12,0.76,0.44,-0.41,0,-6,-5,0,0,0,0,2.6,2.5,2.29,0.5,0,0,0,0,0,0,0,0,0,0,0,13.111252,80.190071,21.48,-18,6,0,0,-1,0,0,0,0
2499937,1.58E+12,0.73,0.31,-0.17,1,-12,-6,0,0,0,0,2.6,2.51,2.42,0.49,0,0,0,0,0,0,0,0,0,0,0,13.111252,80.190071,21.48,-18,6,0,0,-1,0,0,0,0
2499957,1.58E+12,0.71,0.24,-0.11,1,-17,-8,0,0,0,0,2.69,2.51,2.42,0.49,0,0,0,0,0,0,0,0,0,0,0,13.111252,80.190071,21.48,-18,6,0,0,-1,0,0,0,0
2499977,1.58E+12,0.72,0.3,-0.21,1,-16,-8,0,0,0,0,2.69,2.51,2.42,0.49,0,0,0,0,0,0,0,0,0,0,0,13.111252,80.190071,21.48,-18,6,0,0,-1,0,0,0,0
2499997,1.58E+12,0.77,0.31,-0.3,0,-11,-6,0,0,0,0,2.69,2.51,2.42,0.49,0,0,0,0,0,0,0,0,0,0,0,13.111252,80.190071,21.48,-18,6,0,0,-1,0,0,0,0
2500017,1.58E+12,0.81,0.33,-0.4,0,-4,-4,0,0,0,0,2.69,2.51,2.42,0.49,0,0,0,0,0,0,0,0,0,0,0,13.111252,80.190071,21.48,-18,6,0,0,-1,0,0,0,0
2500037,1.58E+12,0.83,0.3,-0.38,1,-3,-3,0,0,0,0,2.69,2.51,2.38,0.49,0,0,0,0,0,0,0,0,0,0,0,13.111252,80.190071,21.48,-18,6,0,0,-1,0,0,0,0
2500057,1.58E+12,0.81,0.29,-0.15,2,-8,-4,0,0,0,0,2.74,2.51,2.38,0.49,0,0,0,0,0,0,0,0,0,0,0,13.111252,80.190071,21.48,-18,6,0,0,-1,0,0,0,0
2500077,1.58E+12,0.77,0.23,-0.07,3,-10,-5,0,0,0,0,2.74,2.51,2.38,0.49,0,0,0,0,0,0,0,0,0,0,0,13.111252,80.190071,21.48,-18,6,0,0,-1,0,0,0,0
2500097,1.58E+12,0.84,0.28,-0.16,3,-6,-5,0,0,0,0,2.74,2.51,2.38,0.49,0,0,0,0,0,0,0,0,0,0,0,13.111252,80.190071,21.48,-18,6,0,0,-1,0,0,0,0
2500117,1.58E+12,0.89,0.27,-0.22,3,-2,-3,0,0,0,0,2.74,2.51,2.38,0.49,0,0,0,0,0,0,0,0,0,0,0,13.111252,80.190071,21.48,-18,6,0,0,-1,0,0,0,0
2500137,1.58E+12,0.93,0.3,-0.3,2,-1,-1,0,0,0,0,2.74,2.51,2.51,0.49,0,0,0,0,0,0,0,0,0,0,0,13.111252,80.190071,21.48,-18,6,0,0,-1,0,0,0,0
2500157,1.58E+12,0.93,0.26,-0.14,1,-6,-2,0,0,0,0,2.78,2.51,2.51,0.49,0,0,0,0,0,0,0,0,0,0,0,13.111252,80.190071,21.48,-18,6,0,0,-1,0,0,0,0
2500177,1.58E+12,0.82,0.23,-0.16,0,-7,-2,0,0,0,0,2.78,2.51,2.51,0.49,0,0,0,0,0,0,0,0,0,0,0,13.111252,80.190071,21.48,-18,6,0,0,-1,0,0,0,0
2500197,1.58E+12,0.91,0.27,-0.25,-1,-4,-1,0,0,0,0,2.78,2.51,2.51,0.49,0,0,0,0,0,0,0,0,0,0,0,13.111252,80.190071,21.48,-18,6,0,0,-1,0,0,0,0
2500217,1.58E+12,0.85,0.31,-0.21,-2,-5,0,0,0,0,0,2.78,2.51,2.51,0.49,0,0,0,0,0,0,0,0,0,0,0,13.111252,80.190071,21.48,-18,6,0,0,-1,0,0,0,0
2500237,1.58E+12,0.81,0.25,-0.01,-1,-6,-2,0,0,0,0,2.78,2.52,2.49,0.48,0,0,0,0,0,0,0,0,0,0,0,13.111252,80.190071,21.48,-18,6,0,0,-1,0,0,0,0
2500257,1.58E+12,0.92,0.28,-0.14,-1,-1,-1,0,0,0,0,2.77,2.52,2.49,0.48,0,0,0,0,0,0,0,0,0,0,0,13.111252,80.190071,21.48,-18,6,0,0,-1,0,0,0,0
2500277,1.58E+12,0.99,0.24,-0.29,0,2,0,0,0,0,0,2.77,2.52,2.49,0.48,0,0,0,0,0,0,0,0,0,0,0,13.111252,80.190071,21.48,-18,6,0,0,-1,0,0,0,0
2500297,1.58E+12,1,0.19,-0.29,0,-1,0,0,0,0,0,2.77,2.52,2.49,0.48,0,0,0,0,0,0,0,0,0,0,0,13.111252,80.190071,21.48,-18,6,0,0,-1,0,0,0,0
2500317,1.58E+12,0.95,0.14,-0.26,0,-4,-1,0,0,0,0,2.77,2.52,2.49,0.48,0,0,0,0,0,0,0,0,0,0,0,13.111252,80.190071,21.48,-18,6,0,0,-1,0,0,0,0
2500337,1.58E+12,0.99,0.1,-0.3,0,-2,-1,0,0,0,0,2.77,2.51,2.39,0.49,0,0,0,0,0,0,0,0,0,0,0,13.111252,80.190071,21.48,-18,6,0,0,-1,0,0,0,0
2500357,1.58E+12,0.92,0.14,-0.15,0,-3,-2,0,0,0,0,2.8,2.51,2.39,0.49,0,0,0,0,0,0,0,0,0,0,0,13.111252,80.190071,21.48,-18,6,0,0,-1,0,0,0,0
2500377,1.58E+12,1.02,0.16,-0.16,-2,-1,-2,0,0,0,0,2.8,2.51,2.39,0.49,0,0,0,0,0,0,0,0,0,0,0,13.111252,80.190071,21.48,-18,6,0,0,-1,0,0,0,0
2500397,1.58E+12,1.1,0.13,-0.25,-3,-1,-1,0,0,0,0,2.8,2.51,2.39,0.49,0,0,0,0,0,0,0,0,0,0,0,13.111252,80.190071,21.48,-18,6,0,0,-1,0,0,0,0
2500417,1.58E+12,0.94,0.24,-0.03,-2,-6,-1,0,0,0,0,2.8,2.51,2.39,0.49,0,0,0,0,0,0,0,0,0,0,0,13.111252,80.190071,21.48,-18,6,0,0,-1,0,0,0,0
2500437,1.58E+12,0.93,0.31,-0.04,-2,-7,-2,0,0,0,0,2.8,2.53,2.51,0.47,0,0,0,0,0,0,0,0,0,0,0,13.111252,80.190071,21.48,-18,6,0,0,-1,0,0,0,0
2500457,1.58E+12,0.92,0.19,0.02,-2,-9,-2,0,0,0,0,2.8,2.53,2.51,0.47,0,0,0,0,0,0,0,0,0,0,0,13.111252,80.190071,21.48,-18,6,0,0,-1,0,0,0,0
2500477,1.58E+12,0.91,0.26,0.1,-2,-6,-2,0,0,0,0,2.8,2.53,2.51,0.47,0,0,0,0,0,0,0,0,0,0,0,13.111252,80.190071,21.48,-18,6,0,0,-1,0,0,0,0
2500497,1.58E+12,1.01,0.27,0.11,-1,-3,-1,0,0,0,0,2.8,2.53,2.51,0.47,0,0,0,0,0,0,0,0,0,0,0,13.111252,80.190071,21.48,-18,6,0,0,-1,0,0,0,0
2500517,1.58E+12,0.94,0.27,0.23,0,-3,-1,0,0,0,0,2.8,2.53,2.51,0.47,0,0,0,0,0,0,0,0,0,0,0,13.111252,80.190071,21.48,-18,6,0,0,-1,0,0,0,0
2500537,1.58E+12,0.94,0.44,0.27,0,0,-1,0,0,0,0,2.8,2.52,2.37,0.48,0,0,0,0,0,0,0,0,0,0,0,13.111252,80.190071,21.48,-18,6,0,0,-1,0,0,0,0
2500557,1.58E+12,0.91,0.38,0.31,1,3,-1,0,0,0,0,2.82,2.52,2.37,0.48,0,0,0,0,0,0,0,0,0,0,0,13.111252,80.190071,21.48,-18,6,0,0,-1,0,0,0,0
2500577,1.58E+12,0.94,0.47,0.27,0,6,0,0,0,0,0,2.82,2.52,2.37,0.48,0,0,0,0,0,0,0,0,0,0,0,13.111252,80.190071,21.48,-18,6,0,0,-1,0,0,0,0
2500597,1.58E+12,1.04,0.31,0.08,1,3,0,0,0,0,0,2.82,2.52,2.37,0.48,0,0,0,0,0,0,0,0,0,0,0,13.111252,80.190071,21.48,-18,6,0,0,-1,0,0,0,0
2500617,1.58E+12,0.99,0.39,0.1,0,1,-1,0,0,0,0,2.82,2.52,2.37,0.48,0,0,0,0,0,0,0,0,0,0,0,13.111252,80.190071,21.48,-18,6,0,0,-1,0,0,0,0
2500637,1.58E+12,0.97,0.3,-0.05,0,-1,-1,0,0,0,0,2.82,2.52,2.51,0.48,0,0,0,0,0,0,0,0,0,0,0,13.111252,80.190071,21.48,-18,6,0,0,-1,0,0,0,0
2500657,1.58E+12,0.91,0.42,0.16,-1,0,0,0,0,0,0,2.86,2.52,2.51,0.48,0,0,0,0,0,0,0,0,0,0,0,13.111252,80.190071,21.48,-18,6,0,0,-1,0,0,0,0
2500677,1.58E+12,1.01,0.29,0,-1,0,0,0,0,0,0,2.86,2.52,2.51,0.48,0,0,0,0,0,0,0,0,0,0,0,13.111252,80.190071,21.48,-18,6,0,0,-1,0,0,0,0
2500697,1.58E+12,0.86,0.37,0.16,-1,0,0,0,0,0,0,2.86,2.52,2.51,0.48,0,0,0,0,0,0,0,0,0,0,0,13.111252,80.190071,21.48,-18,6,0,0,-1,0,0,0,0
2500717,1.58E+12,0.95,0.21,-0.06,-1,0,0,0,0,0,0,2.86,2.52,2.51,0.48,0,0,0,0,0,0,0,0,0,0,0,13.111252,80.190071,21.48,-18,6,0,0,-1,0,0,0,0
2500737,1.58E+12,0.83,0.21,0.12,0,-1,1,0,0,0,0,2.86,2.5,2.5,0.5,0,0,0,0,0,0,0,0,0,0,0,13.111252,80.190071,21.48,-18,6,0,0,-1,0,0,0,0
2500757,1.58E+12,0.87,0.29,-0.03,1,1,1,0,0,0,0,2.86,2.5,2.5,0.5,0,0,0,0,0,0,0,0,0,0,0,13.111252,80.190071,21.48,-18,6,0,0,-1,0,0,0,0
2500777,1.58E+12,0.9,0.17,0.04,2,-2,0,0,0,0,0,2.86,2.5,2.5,0.5,0,0,0,0,0,0,0,0,0,0,0,13.111252,80.190071,21.48,-18,6,0,0,-1,0,0,0,0
2500797,1.58E+12,0.99,0.23,-0.1,2,-5,0,0,0,0,0,2.86,2.5,2.5,0.5,0,0,0,0,0,0,0,0,0,0,0,13.111252,80.190071,21.48,-18,6,0,0,-1,0,0,0,0
2500817,1.58E+12,0.99,0.34,-0.02,1,-9,0,0,0,0,0,2.86,2.5,2.5,0.5,0,0,0,0,0,0,0,0,0,0,0,13.111252,80.190071,21.48,-18,6,0,0,-1,0,0,0,0
2500837,1.58E+12,0.99,0.38,0.06,-1,-5,2,0,0,0,0,2.86,2.52,2.56,0.48,0,0,0,0,0,0,0,0,0,0,0,13.111252,80.190071,21.48,-18,6,0,0,-1,0,0,0,0
2500857,1.58E+12,1,0.35,0,-3,-2,3,0,0,0,0,2.83,2.52,2.56,0.48,0,0,0,0,0,0,0,0,0,0,0,13.111252,80.190071,21.48,-18,6,0,0,-1,0,0,0,0
2500877,1.58E+12,1,0.38,0.06,-3,2,4,0,0,0,0,2.83,2.52,2.56,0.48,0,0,0,0,0,0,0,0,0,0,0,13.111252,80.190071,21.48,-18,6,0,0,-1,0,0,0,0
2500897,1.58E+12,1,0.45,0.06,-4,7,6,0,0,0,0,2.83,2.52,2.56,0.48,0,0,0,0,0,0,0,0,0,0,0,13.111252,80.190071,21.48,-18,6,0,0,-1,0,0,0,0
2500917,1.58E+12,0.97,0.55,0.09,-3,10,7,0,0,0,0,2.83,2.52,2.56,0.48,0,0,0,0,0,0,0,0,0,0,0,13.111252,80.190071,21.48,-18,6,0,0,-1,0,0,0,0
2500937,1.58E+12,0.94,0.66,0.14,-1,10,7,0,0,0,0,2.83,2.51,2.34,0.49,0,0,0,0,0,0,0,0,0,0,0,13.111252,80.190071,21.48,-18,6,0,0,-1,0,0,0,0
2500957,1.58E+12,0.87,0.61,0.32,0,10,7,0,0,0,0,2.85,2.51,2.34,0.49,0,0,0,0,0,0,0,0,0,0,0,13.111252,80.190071,21.48,-18,6,0,0,-1,0,0,0,0
2500977,1.58E+12,0.9,0.59,0.49,1,6,6,0,0,0,0,2.85,2.51,2.34,0.49,0,0,0,0,0,0,0,0,0,0,0,13.111252,80.190071,21.48,-18,6,0,0,-1,0,0,0,0
2500997,1.58E+12,0.95,0.48,0.46,2,1,4,0,0,0,0,2.85,2.51,2.34,0.49,0,0,0,0,0,0,0,0,0,0,0,13.111252,80.190071,21.48,-18,6,0,0,-1,0,0,0,0
2501017,1.58E+12,0.98,0.31,0.38,2,-4,2,0,0,0,0,2.85,2.51,2.34,0.49,0,0,0,0,0,0,0,0,0,0,0,13.111252,80.190071,21.48,-18,6,0,0,-1,0,0,0,0
2501037,1.58E+12,0.83,0.28,0.35,2,-7,-1,0,0,0,0,2.85,2.52,2.3,0.48,0,0,0,0,0,0,0,0,0,0,0,13.111252,80.190071,21.48,-18,6,0,0,-1,0,0,0,0
2501057,1.58E+12,0.79,0.35,0.21,1,-7,0,0,0,0,0,2.84,2.52,2.3,0.48,0,0,0,0,0,0,0,0,0,0,0,13.111252,80.190071,21.48,-18,6,0,0,-1,0,0,0,0
2501077,1.58E+12,0.88,0.36,0.03,0,-6,1,0,0,0,0,2.84,2.52,2.3,0.48,0,0,0,0,0,0,0,0,0,0,0,13.111252,80.190071,21.48,-18,6,0,0,-1,0,0,0,0
2501097,1.58E+12,0.99,0.39,0.03,-1,-3,1,0,0,0,0,2.84,2.52,2.3,0.48,0,0,0,0,0,0,0,0,0,0,0,13.111252,80.190071,21.48,-18,6,0,0,-1,0,0,0,0
2501117,1.58E+12,1.06,0.46,0.15,-2,-4,1,0,0,0,0,2.84,2.52,2.3,0.48,0,0,0,0,0,0,0,0,0,0,0,13.111252,80.190071,21.48,-18,6,0,0,-1,0,0,0,0
2501137,1.58E+12,1.07,0.21,0.33,-1,-5,-1,0,0,0,0,2.84,2.52,2.35,0.48,0,0,0,0,0,0,0,0,0,0,0,13.111252,80.190071,21.48,-18,6,0,0,-1,0,0,0,0
2501157,1.58E+12,0.96,0.16,0.31,-1,-7,-3,0,0,0,0,2.85,2.52,2.35,0.48,0,0,0,0,0,0,0,0,0,0,0,13.111252,80.190071,21.48,-18,6,0,0,-1,0,0,0,0
2501177,1.58E+12,0.89,0.16,0.28,0,-4,-3,0,0,0,0,2.85,2.52,2.35,0.48,0,0,0,0,0,0,0,0,0,0,0,13.111252,80.190071,21.48,-18,6,0,0,-1,0,0,0,0
2501197,1.58E+12,1,0.22,0.24,0,-2,-2,0,0,0,0,2.85,2.52,2.35,0.48,0,0,0,0,0,0,0,0,0,0,0,13.111252,80.190071,21.48,-18,6,0,0,-1,0,0,0,0
2501217,1.58E+12,0.98,0.25,0.25,1,-1,-1,0,0,0,0,2.85,2.52,2.35,0.48,0,0,0,0,0,0,0,0,0,0,0,13.111252,80.190071,21.48,-18,6,0,0,-1,0,0,0,0
2501237,1.58E+12,1.07,0.26,0.04,0,3,0,0,0,0,0,2.85,2.52,2.37,0.48,0,0,0,0,0,0,0,0,0,0,0,13.111252,80.190071,21.48,-18,6,0,0,-1,0,0,0,0
2501257,1.58E+12,1.01,0.27,0.14,0,3,-1,0,0,0,0,2.86,2.52,2.37,0.48,0,0,0,0,0,0,0,0,0,0,0,13.111252,80.190071,21.48,-18,6,0,0,-1,0,0,0,0
2501277,1.58E+12,1,0.24,0.27,-1,1,-2,0,0,0,0,2.86,2.52,2.37,0.48,0,0,0,0,0,0,0,0,0,0,0,13.111252,80.190071,21.48,-18,6,0,0,-1,0,0,0,0
2501297,1.58E+12,0.86,0.15,0.2,0,1,-3,0,0,0,0,2.86,2.52,2.37,0.48,0,0,0,0,0,0,0,0,0,0,0,13.111252,80.190071,21.48,-18,6,0,0,-1,0,0,0,0
2501317,1.58E+12,0.79,0.34,0.16,-1,6,-2,0,0,0,0,2.86,2.52,2.37,0.48,0,0,0,0,0,0,0,0,0,0,0,13.111252,80.190071,21.48,-18,6,0,0,-1,0,0,0,0
2501337,1.58E+12,0.87,0.29,-0.05,-1,11,0,0,0,0,0,2.86,2.52,2.53,0.48,0,0,0,0,0,0,0,0,0,0,0,13.111252,80.190071,21.48,-18,6,0,0,-1,0,0,0,0
2501357,1.58E+12,0.93,0.28,-0.18,-1,11,1,0,0,0,0,2.87,2.52,2.53,0.48,0,0,0,0,0,0,0,0,0,0,0,13.111252,80.190071,21.48,-18,6,0,0,-1,0,0,0,0
2501377,1.58E+12,0.87,0.29,-0.14,0,6,0,0,0,0,0,2.87,2.52,2.53,0.48,0,0,0,0,0,0,0,0,0,0,0,13.111252,80.190071,21.48,-18,6,0,0,-1,0,0,0,0
2501397,1.58E+12,0.78,0.18,-0.06,1,0,0,0,0,0,0,2.87,2.52,2.53,0.48,0,0,0,0,0,0,0,0,0,0,0,13.111252,80.190071,21.48,-18,6,0,0,-1,0,0,0,0
2501417,1.58E+12,0.76,0.26,-0.14,1,-1,0,0,0,0,0,2.87,2.52,2.53,0.48,0,0,0,0,0,0,0,0,0,0,0,13.111252,80.190071,21.48,-18,6,0,0,-1,0,0,0,0
2501437,1.58E+12,0.86,0.32,-0.09,1,2,2,0,0,0,0,2.87,2.52,2.32,0.48,0,0,0,0,0,0,0,0,0,0,0,13.111252,80.190071,21.48,-18,6,0,0,-1,0,0,0,0
2501457,1.58E+12,0.94,0.28,-0.12,2,1,2,0,0,0,0,2.87,2.52,2.32,0.48,0,0,0,0,0,0,0,0,0,0,0,13.111252,80.190071,21.48,-18,6,0,0,-1,0,0,0,0
2501477,1.58E+12,0.97,0.29,0.09,1,1,1,0,0,0,0,2.87,2.52,2.32,0.48,0,0,0,0,0,0,0,0,0,0,0,13.111252,80.190071,21.48,-18,6,0,0,-1,0,0,0,0
2501497,1.58E+12,0.95,0.21,0.14,1,2,0,0,0,0,0,2.87,2.52,2.32,0.48,0,0,0,0,0,0,0,0,0,0,0,13.111252,80.190071,21.48,-18,6,0,0,-1,0,0,0,0
2501517,1.58E+12,0.94,0.34,0.1,-1,7,1,0,0,0,0,2.87,2.52,2.32,0.48,0,0,0,0,0,0,0,0,0,0,0,13.111252,80.190071,21.48,-18,6,0,0,-1,0,0,0,0
2501537,1.58E+12,1,0.33,0.06,-1,11,3,0,0,0,0,2.87,2.51,2.57,0.49,0,0,0,0,0,0,0,0,0,0,0,13.111252,80.190071,21.48,-18,6,0,0,-1,0,0,0,0
2501557,1.58E+12,0.97,0.36,0.14,0,11,1,0,0,0,0,2.85,2.51,2.57,0.49,0,0,0,0,0,0,0,0,0,0,0,13.111252,80.190071,21.48,-18,6,0,0,-1,0,0,0,0
2501577,1.58E+12,0.98,0.34,0.12,0,12,2,0,0,0,0,2.85,2.51,2.57,0.49,0,0,0,0,0,0,0,0,0,0,0,13.111252,80.190071,21.48,-18,6,0,0,-1,0,0,0,0
2501597,1.58E+12,1.06,0.38,-0.09,-1,13,1,0,0,0,0,2.85,2.51,2.57,0.49,0,0,0,0,0,0,0,0,0,0,0,13.111252,80.190071,21.48,-18,6,0,0,-1,0,0,0,0
2501617,1.58E+12,1,0.27,-0.22,-1,14,2,0,0,0,0,2.85,2.51,2.57,0.49,0,0,0,0,0,0,0,0,0,0,0,13.111252,80.190071,21.48,-18,6,0,0,-1,0,0,0,0
2501637,1.58E+12,0.99,0.21,-0.17,0,10,0,0,0,0,0,2.85,2.5,2.42,0.5,0,0,0,0,0,0,0,0,0,0,0,13.111252,80.190071,21.48,-18,6,0,0,-1,0,0,0,0
2501657,1.58E+12,0.96,0.22,-0.22,-1,9,1,0,0,0,0,2.86,2.5,2.42,0.5,0,0,0,0,0,0,0,0,0,0,0,13.111252,80.190071,21.48,-18,6,0,0,-1,0,0,0,0
2501677,1.58E+12,1.06,0.21,-0.4,-2,9,0,0,0,0,0,2.86,2.5,2.42,0.5,0,0,0,0,0,0,0,0,0,0,0,13.111252,80.190071,21.48,-18,6,0,0,-1,0,0,0,0
2501697,1.58E+12,1,0.17,-0.41,-2,7,1,0,0,0,0,2.86,2.5,2.42,0.5,0,0,0,0,0,0,0,0,0,0,0,13.111252,80.190071,21.48,-18,6,0,0,-1,0,0,0,0
2501717,1.58E+12,0.89,0.19,-0.19,-1,2,1,0,0,0,0,2.86,2.5,2.42,0.5,0,0,0,0,0,0,0,0,0,0,0,13.111252,80.190071,21.48,-18,6,0,0,-1,0,0,0,0
2501737,1.58E+12,0.99,0.33,-0.34,0,3,2,0,0,0,0,2.86,2.51,2.5,0.49,0,0,0,0,0,0,0,0,0,0,0,13.111252,80.190071,21.48,-18,6,0,0,-1,0,0,0,0
2501757,1.58E+12,0.98,0.13,-0.4,1,2,1,0,0,0,0,2.85,2.51,2.5,0.49,0,0,0,0,0,0,0,0,0,0,0,13.111252,80.190071,21.48,-18,6,0,0,-1,0,0,0,0
2501777,1.58E+12,1.02,0.11,-0.24,1,1,1,0,0,0,0,2.85,2.51,2.5,0.49,0,0,0,0,0,0,0,0,0,0,0,13.111252,80.190071,21.48,-18,6,0,0,-1,0,0,0,0
2501797,1.58E+12,1.06,0.16,-0.16,1,3,1,0,0,0,0,2.85,2.51,2.5,0.49,0,0,0,0,0,0,0,0,0,0,0,13.111252,80.190071,21.48,-18,6,0,0,-1,0,0,0,0
2501817,1.58E+12,1.14,0.13,-0.18,1,2,0,0,0,0,0,2.85,2.51,2.5,0.49,0,0,0,0,0,0,0,0,0,0,0,13.111252,80.190071,21.48,-18,6,0,0,-1,0,0,0,0
2501837,1.58E+12,1.06,0.2,-0.12,1,1,0,0,0,0,0,2.85,2.51,2.42,0.49,0,0,0,0,0,0,0,0,0,0,0,13.111252,80.190071,21.48,-18,6,0,0,-1,0,0,0,0
2501857,1.58E+12,1.07,0.17,-0.12,0,4,0,0,0,0,0,2.85,2.51,2.42,0.49,0,0,0,0,0,0,0,0,0,0,0,13.111252,80.190071,21.48,-18,6,0,0,-1,0,0,0,0
2501877,1.58E+12,1.16,0.11,-0.13,0,7,0,0,0,0,0,2.85,2.51,2.42,0.49,0,0,0,0,0,0,0,0,0,0,0,13.111252,80.190071,21.48,-18,6,0,0,-1,0,0,0,0
2501897,1.58E+12,1.11,0.11,-0.02,-1,7,0,0,0,0,0,2.85,2.51,2.42,0.49,0,0,0,0,0,0,0,0,0,0,0,13.111252,80.190071,21.48,-18,6,0,0,-1,0,0,0,0
2501917,1.58E+12,1.1,0.23,-0.09,-2,7,-2,0,0,0,0,2.85,2.51,2.42,0.49,0,0,0,0,0,0,0,0,0,0,0,13.111252,80.190071,21.48,-18,6,0,0,-1,0,0,0,0
2501937,1.58E+12,1.17,0.22,-0.26,-2,7,-1,0,0,0,0,2.85,2.51,2.4,0.49,0,0,0,0,0,0,0,0,0,0,0,13.111252,80.190071,21.48,-18,6,0,0,-1,0,0,0,0
2501957,1.58E+12,1.09,0.22,-0.1,-1,5,-3,0,0,0,0,2.85,2.51,2.4,0.49,0,0,0,0,0,0,0,0,0,0,0,13.111252,80.190071,21.48,-18,6,0,0,-1,0,0,0,0
2501977,1.58E+12,1.06,0.31,-0.26,-2,7,-3,0,0,0,0,2.85,2.51,2.4,0.49,0,0,0,0,0,0,0,0,0,0,0,13.111252,80.190071,21.48,-18,6,0,0,-1,0,0,0,0
2501997,1.58E+12,1.05,0.23,-0.24,-1,6,-4,0,0,0,0,2.85,2.51,2.4,0.49,0,0,0,0,0,0,0,0,0,0,0,13.111252,80.190071,21.48,-18,6,0,0,-1,0,0,0,0
2502017,1.58E+12,1.04,0.11,-0.26,-1,0,-5,0,0,0,0,2.85,2.51,2.4,0.49,0,0,0,0,0,0,0,0,0,0,0,13.111252,80.190071,21.48,-18,6,0,0,-1,0,0,0,0
2502037,1.58E+12,1.07,0.21,-0.36,-1,-3,-5,0,0,0,0,2.85,2.51,2.4,0.49,0,0,0,0,0,0,0,0,0,0,0,13.111252,80.190071,21.48,-18,6,0,0,-1,0,0,0,0
2502057,1.58E+12,1.06,0.13,-0.38,-1,-6,-5,0,0,0,0,2.85,2.5,2.52,0.5,0,0,0,0,0,0,0,0,0,0,0,13.111252,80.190071,21.48,-18,6,0,0,-1,0,0,0,0
2502077,1.58E+12,0.98,0.17,-0.14,0,-11,-6,0,0,0,0,2.85,2.5,2.52,0.5,0,0,0,0,0,0,0,0,0,0,0,13.111252,80.190071,21.48,-18,6,0,0,-1,0,0,0,0
2502097,1.58E+12,0.95,0.08,-0.26,0,-7,-5,0,0,0,0,2.85,2.5,2.52,0.5,0,0,0,0,0,0,0,0,0,0,0,13.111252,80.190071,21.48,-18,6,0,0,-1,0,0,0,0
2502117,1.58E+12,0.97,0.13,-0.16,1,-4,-4,0,0,0,0,2.85,2.5,2.52,0.5,0,0,0,0,0,0,0,0,0,0,0,13.111252,80.190071,21.48,-18,6,0,0,-1,0,0,0,0
2502137,1.58E+12,0.98,0.03,0,1,-4,-5,0,0,0,0,2.85,2.5,2.52,0.5,0,0,0,0,0,0,0,0,0,0,0,13.111252,80.190071,21.48,-18,6,0,0,-1,0,0,0,0
2502157,1.58E+12,0.94,-0.08,-0.06,2,0,-5,0,0,0,0,2.86,2.49,2.29,0.51,0,0,0,0,0,0,0,0,0,0,0,13.111252,80.190071,21.48,-18,6,0,0,-1,0,0,0,0
2502177,1.58E+12,0.97,0.08,-0.09,2,3,-4,0,0,0,0,2.86,2.49,2.29,0.51,0,0,0,0,0,0,0,0,0,0,0,13.111252,80.190071,21.48,-18,6,0,0,-1,0,0,0,0
2502197,1.58E+12,0.96,-0.05,-0.03,2,4,-5,0,0,0,0,2.86,2.49,2.29,0.51,0,0,0,0,0,0,0,0,0,0,0,13.111252,80.190071,21.48,-18,6,0,0,-1,0,0,0,0
2502217,1.58E+12,0.93,-0.15,-0.11,2,3,-6,0,0,0,0,2.86,2.49,2.29,0.51,0,0,0,0,0,0,0,0,0,0,0,13.111252,80.190071,21.48,-18,6,0,0,-1,0,0,0,0
2502237,1.58E+12,0.95,-0.08,-0.14,3,5,-6,0,0,0,0,2.86,2.49,2.29,0.51,0,0,0,0,0,0,0,0,0,0,0,13.111252,80.190071,21.48,-18,6,0,0,-1,0,0,0,0
2502257,1.58E+12,0.9,-0.11,-0.22,3,7,-7,0,0,0,0,2.85,2.5,2.29,0.5,0,0,0,0,0,0,0,0,0,0,0,13.111252,80.190071,21.48,-18,6,0,0,-1,0,0,0,0
2502277,1.58E+12,0.83,-0.17,-0.05,3,4,-8,0,0,0,0,2.85,2.5,2.29,0.5,0,0,0,0,0,0,0,0,0,0,0,13.111252,80.190071,21.48,-18,6,0,0,-1,0,0,0,0
2502297,1.58E+12,0.8,-0.25,-0.12,3,-1,-10,0,0,0,0,2.85,2.5,2.29,0.5,0,0,0,0,0,0,0,0,0,0,0,13.111252,80.190071,21.48,-18,6,0,0,-1,0,0,0,0
2502317,1.58E+12,0.83,-0.23,-0.29,3,-2,-10,0,0,0,0,2.85,2.5,2.29,0.5,0,0,0,0,0,0,0,0,0,0,0,13.111252,80.190071,21.48,-18,6,0,0,-1,0,0,0,0
2502337,1.58E+12,0.9,-0.13,-0.29,1,-4,-10,0,0,0,0,2.85,2.5,2.29,0.5,0,0,0,0,0,0,0,0,0,0,0,13.111252,80.190071,21.48,-18,6,0,0,-1,0,0,0,0
2502357,1.58E+12,0.85,-0.28,-0.07,0,-5,-11,0,0,0,0,2.83,2.51,2.4,0.49,0,0,0,0,0,0,0,0,0,0,0,13.111252,80.190071,21.48,-18,6,0,0,-1,0,0,0,0
2502377,1.58E+12,0.9,-0.23,-0.01,-1,-8,-13,0,0,0,0,2.83,2.51,2.4,0.49,0,0,0,0,0,0,0,0,0,0,0,13.111252,80.190071,21.48,-18,6,0,0,-1,0,0,0,0
2502397,1.58E+12,0.9,-0.37,-0.09,-1,-11,-15,0,0,0,0,2.83,2.51,2.4,0.49,0,0,0,0,0,0,0,0,0,0,0,13.111252,80.190071,21.48,-18,6,0,0,-1,0,0,0,0
2502417,1.58E+12,0.86,-0.46,-0.12,-1,-12,-14,0,0,0,0,2.83,2.51,2.4,0.49,0,0,0,0,0,0,0,0,0,0,0,13.111252,80.190071,21.48,-18,6,0,0,-1,0,0,0,0
2502437,1.58E+12,0.9,-0.4,-0.14,-1,-12,-13,0,0,0,0,2.83,2.51,2.4,0.49,0,0,0,0,0,0,0,0,0,0,0,13.111252,80.190071,21.48,-18,6,0,0,-1,0,0,0,0
2502457,1.58E+12,0.94,-0.34,-0.22,0,-8,-11,0,0,0,0,2.82,2.51,2.35,0.49,0,0,0,0,0,0,0,0,0,0,0,13.111252,80.190071,21.48,-18,6,0,0,-1,0,0,0,0
2502477,1.58E+12,0.95,-0.37,-0.32,1,-3,-10,0,0,0,0,2.82,2.51,2.35,0.49,0,0,0,0,0,0,0,0,0,0,0,13.111252,80.190071,21.48,-18,6,0,0,-1,0,0,0,0
2502497,1.58E+12,0.93,-0.38,-0.25,2,-3,-12,0,0,0,0,2.82,2.51,2.35,0.49,0,0,0,0,0,0,0,0,0,0,0,13.111252,80.190071,21.48,-18,6,0,0,-1,0,0,0,0
2502517,1.58E+12,0.8,-0.37,-0.22,3,-1,-12,0,0,0,0,2.82,2.51,2.35,0.49,0,0,0,0,0,0,0,0,0,0,0,13.111252,80.190071,21.48,-18,6,0,0,-1,0,0,0,0
2502537,1.58E+12,0.73,-0.39,-0.26,4,-3,-14,0,0,0,0,2.82,2.51,2.35,0.49,0,0,0,0,0,0,0,0,0,0,0,13.111252,80.190071,21.48,-18,6,0,0,-1,0,0,0,0
2502557,1.58E+12,0.63,-0.43,-0.38,4,-4,-14,0,0,0,0,2.83,2.52,2.15,0.48,0,0,0,0,0,0,0,0,0,0,0,13.111252,80.190071,21.48,-18,6,0,0,-1,0,0,0,0
2502577,1.58E+12,0.69,-0.39,-0.48,4,-6,-14,0,0,0,0,2.83,2.52,2.15,0.48,0,0,0,0,0,0,0,0,0,0,0,13.111252,80.190071,21.48,-18,6,0,0,-1,0,0,0,0
2502597,1.58E+12,0.75,-0.48,-0.52,4,-6,-16,0,0,0,0,2.83,2.52,2.15,0.48,0,0,0,0,0,0,0,0,0,0,0,13.111252,80.190071,21.48,-18,6,0,0,-1,0,0,0,0
2502617,1.58E+12,0.8,-0.47,-0.4,4,-10,-18,0,0,0,0,2.83,2.52,2.15,0.48,0,0,0,0,0,0,0,0,0,0,0,13.111252,80.190071,21.48,-18,6,0,0,-1,0,0,0,0
2502637,1.58E+12,0.78,-0.51,-0.5,3,-8,-19,0,0,0,0,2.83,2.52,2.15,0.48,0,0,0,0,0,0,0,0,0,0,0,13.111252,80.190071,21.48,-18,6,0,0,-1,0,0,0,0
2502657,1.58E+12,0.76,-0.45,-0.57,2,-6,-19,0,0,0,0,2.82,2.52,1.99,0.48,0,0,0,0,0,0,0,0,0,0,0,13.111252,80.190071,21.48,-18,6,0,0,-1,0,0,0,0
2502677,1.58E+12,0.62,-0.35,-0.51,2,-9,-20,0,0,0,0,2.82,2.52,1.99,0.48,0,0,0,0,0,0,0,0,0,0,0,13.111252,80.190071,21.48,-18,6,0,0,-1,0,0,0,0
2502697,1.58E+12,0.65,-0.38,-0.66,3,-12,-21,0,0,0,0,2.82,2.52,1.99,0.48,0,0,0,0,0,0,0,0,0,0,0,13.111252,80.190071,21.48,-18,6,0,0,-1,0,0,0,0
2502717,1.58E+12,0.75,-0.45,-0.62,3,-15,-21,0,0,0,0,2.82,2.52,1.99,0.48,0,0,0,0,0,0,0,0,0,0,0,13.111252,80.190071,21.48,-18,6,0,0,-1,0,0,0,0
2502737,1.58E+12,0.77,-0.29,-0.57,3,-17,-21,0,0,0,0,2.82,2.52,1.99,0.48,0,0,0,0,0,0,0,0,0,0,0,13.111252,80.190071,21.48,-18,6,0,0,-1,0,0,0,0
2502757,1.58E+12,0.85,-0.23,-0.5,3,-12,-21,0,0,0,0,2.79,2.38,2.06,0.62,0,0,0,0,0,0,0,0,0,0,0,13.111252,80.190071,21.48,-18,6,0,0,-1,0,0,0,0
2502777,1.58E+12,0.89,-0.2,-0.36,2,-11,-22,0,0,0,0,2.79,2.38,2.06,0.62,0,0,0,0,0,0,0,0,0,0,0,13.111252,80.190071,21.48,-18,6,0,0,-1,0,0,0,0
2502797,1.58E+12,0.97,-0.06,-0.52,1,-10,-22,0,0,0,0,2.79,2.38,2.06,0.62,0,0,0,0,0,0,0,0,0,0,0,13.111252,80.190071,21.48,-18,6,0,0,-1,0,0,0,0
2502817,1.58E+12,0.93,-0.19,-0.57,-1,-11,-23,0,0,0,0,2.79,2.38,2.06,0.62,0,0,0,0,0,0,0,0,0,0,0,13.111252,80.190071,21.48,-18,6,0,0,-1,0,0,0,0
2502837,1.58E+12,0.89,-0.25,-0.72,-1,-11,-25,0,0,0,0,2.79,2.38,2.06,0.62,0,0,0,0,0,0,0,0,0,0,0,13.111252,80.190071,21.48,-18,6,0,0,-1,0,0,0,0
2502857,1.58E+12,0.89,-0.17,-0.83,-2,-5,-25,0,0,0,0,2.8,1.71,2.02,1.29,0,0,0,0,0,0,0,0,0,0,0,13.111252,80.190071,21.48,-18,6,0,0,-1,0,0,0,0
2502877,1.58E+12,0.78,-0.33,-0.69,-1,-5,-26,0,0,0,0,2.8,1.71,2.02,1.29,0,0,0,0,0,0,0,0,0,0,0,13.111252,80.190071,21.48,-18,6,0,0,-1,0,0,0,0
2502897,1.58E+12,0.86,-0.32,-0.78,-1,-5,-26,0,0,0,0,2.8,1.71,2.02,1.29,0,0,0,0,0,0,0,0,0,0,0,13.111252,80.190071,21.48,-18,6,0,0,-1,0,0,0,0
2502917,1.58E+12,0.84,-0.31,-0.9,1,-3,-26,0,0,0,0,2.8,1.71,2.02,1.29,0,0,0,0,0,0,0,0,0,0,0,13.111252,80.190071,21.48,-18,6,0,0,-1,0,0,0,0
2502937,1.58E+12,0.82,-0.27,-0.63,2,-4,-28,0,0,0,0,2.8,1.71,2.02,1.29,0,0,0,0,0,0,0,0,0,0,0,13.111252,80.190071,21.48,-18,6,0,0,-1,0,0,0,0
2502957,1.58E+12,0.93,-0.23,-0.77,2,-3,-30,0,0,0,0,2.81,1.38,1.5,1.62,0,0,0,0,0,0,0,0,0,0,0,13.111252,80.190071,21.48,-18,6,0,0,-1,0,0,0,0
2502977,1.58E+12,1,-0.24,-0.9,2,-2,-32,0,0,0,0,2.81,1.38,1.5,1.62,0,0,0,0,0,0,0,0,0,0,0,13.111252,80.190071,21.48,-18,6,0,0,-1,0,0,0,0
2502997,1.58E+12,0.82,-0.32,-0.84,2,-5,-35,0,0,0,0,2.81,1.38,1.5,1.62,0,0,0,0,0,0,0,0,0,0,0,13.111252,80.190071,21.48,-18,6,0,0,-1,0,0,0,0
2503017,1.58E+12,0.82,-0.35,-0.96,2,-6,-35,0,0,0,0,2.81,1.38,1.5,1.62,0,0,0,0,0,0,0,0,0,0,0,13.111252,80.190071,21.48,-18,6,0,0,-1,0,0,0,0
2503037,1.58E+12,0.81,-0.25,-1,3,-3,-35,0,0,0,0,2.81,1.38,1.5,1.62,0,0,0,0,0,0,0,0,0,0,0,13.111252,80.190071,21.48,-18,6,0,0,-1,0,0,0,0
2503057,1.58E+12,0.77,-0.24,-0.98,4,2,-35,0,0,0,0,2.76,1.33,1.44,1.67,0,0,0,0,0,0,0,0,0,0,0,13.111252,80.190071,21.48,-18,6,0,0,-1,0,0,0,0
2503077,1.58E+12,0.84,-0.32,-0.81,6,-1,-36,0,0,0,0,2.76,1.33,1.44,1.67,0,0,0,0,0,0,0,0,0,0,0,13.111252,80.190071,21.48,-18,6,0,0,-1,0,0,0,0
2503097,1.58E+12,0.88,-0.42,-0.9,7,-2,-38,0,0,0,0,2.76,1.33,1.44,1.67,0,0,0,0,0,0,0,0,0,0,0,13.111252,80.190071,21.48,-18,6,0,0,-1,0,0,0,0
2503117,1.58E+12,0.85,-0.3,-0.97,7,-1,-38,0,0,0,0,2.76,1.33,1.44,1.67,0,0,0,0,0,0,0,0,0,0,0,13.111252,80.190071,21.48,-18,6,0,0,-1,0,0,0,0
2503137,1.58E+12,0.75,-0.32,-1,7,0,-38,0,0,0,0,2.76,1.33,1.44,1.67,0,0,0,0,0,0,0,0,0,0,0,13.111252,80.190071,21.48,-18,6,0,0,-1,0,0,0,0
2503157,1.58E+12,0.66,-0.34,-0.81,7,-3,-42,0,0,0,0,2.75,1.39,1.45,1.61,0,0,0,0,0,0,0,0,0,0,0,13.111252,80.190071,21.48,-18,6,0,0,-1,0,0,0,0
2503177,1.58E+12,0.71,-0.37,-0.89,5,-7,-47,0,0,0,0,2.75,1.39,1.45,1.61,0,0,0,0,0,0,0,0,0,0,0,13.111252,80.190071,21.48,-18,6,0,0,-1,0,0,0,0
2503197,1.58E+12,0.79,-0.24,-0.96,4,-9,-48,0,0,0,0,2.75,1.39,1.45,1.61,0,0,0,0,0,0,0,0,0,0,0,13.111252,80.190071,21.48,-18,6,0,0,-1,0,0,0,0
2503217,1.58E+12,0.78,-0.14,-1.07,3,-6,-49,0,0,0,0,2.75,1.39,1.45,1.61,0,0,0,0,0,0,0,0,0,0,0,13.111252,80.190071,21.48,-18,6,0,0,-1,0,0,0,0
2503237,1.58E+12,0.75,-0.09,-1.15,2,-6,-49,0,0,0,0,2.75,1.39,1.45,1.61,0,0,0,0,0,0,0,0,0,0,0,13.111252,80.190071,21.48,-18,6,0,0,-1,0,0,0,0
2503257,1.58E+12,0.69,-0.1,-0.83,2,-9,-51,0,0,0,0,2.72,1.84,1.52,1.16,0,0,0,0,0,0,0,0,0,0,0,13.111252,80.190071,21.48,-18,6,0,0,-1,0,0,0,0
2503277,1.58E+12,0.74,-0.03,-0.83,2,-12,-53,0,0,0,0,2.72,1.84,1.52,1.16,0,0,0,0,0,0,0,0,0,0,0,13.111252,80.190071,21.48,-18,6,0,0,-1,0,0,0,0
2503297,1.58E+12,0.86,-0.08,-0.92,3,-7,-52,0,0,0,0,2.72,1.84,1.52,1.16,0,0,0,0,0,0,0,0,0,0,0,13.111252,80.190071,21.48,-18,6,0,0,-1,0,0,0,0
2503317,1.58E+12,0.92,-0.01,-1.03,3,-4,-49,0,0,0,0,2.72,1.84,1.52,1.16,0,0,0,0,0,0,0,0,0,0,0,13.111252,80.190071,21.48,-18,6,0,0,-1,0,0,0,0
2503337,1.58E+12,0.81,-0.1,-0.89,3,-5,-50,0,0,0,0,2.72,1.84,1.52,1.16,0,0,0,0,0,0,0,0,0,0,0,13.111252,80.190071,21.48,-18,6,0,0,-1,0,0,0,0
2503357,1.58E+12,0.79,-0.12,-0.76,4,-5,-49,0,0,0,0,2.67,2.36,1.43,0.64,0,0,0,0,0,0,0,0,0,0,0,13.111252,80.190071,21.48,-18,6,0,0,-1,0,0,0,0
2503377,1.58E+12,0.83,-0.12,-0.89,4,0,-47,0,0,0,0,2.67,2.36,1.43,0.64,0,0,0,0,0,0,0,0,0,0,0,13.111252,80.190071,21.48,-18,6,0,0,-1,0,0,0,0
2503397,1.58E+12,0.9,-0.06,-0.97,4,2,-44,0,0,0,0,2.67,2.36,1.43,0.64,0,0,0,0,0,0,0,0,0,0,0,13.111252,80.190071,21.48,-18,6,0,0,-1,0,0,0,0
2503417,1.58E+12,0.86,-0.11,-0.88,5,-2,-45,0,0,0,0,2.67,2.36,1.43,0.64,0,0,0,0,0,0,0,0,0,0,0,13.111252,80.190071,21.48,-18,6,0,0,-1,0,0,0,0
2503437,1.58E+12,0.85,-0.18,-0.97,5,-3,-46,0,0,0,0,2.67,2.36,1.43,0.64,0,0,0,0,0,0,0,0,0,0,0,13.111252,80.190071,21.48,-18,6,0,0,-1,0,0,0,0
2503457,1.58E+12,0.86,-0.12,-1.07,4,3,-44,0,0,0,0,2.37,2.44,1.2,0.56,0,0,0,0,0,0,0,0,0,0,0,13.111252,80.190071,21.48,-18,6,0,0,-1,0,0,0,0
2503477,1.58E+12,0.84,-0.17,-0.94,4,2,-44,0,0,0,0,2.37,2.44,1.2,0.56,0,0,0,0,0,0,0,0,0,0,0,13.111252,80.190071,21.48,-18,6,0,0,-1,0,0,0,0
2503497,1.58E+12,0.86,-0.19,-0.86,3,-3,-46,0,0,0,0,2.37,2.44,1.2,0.56,0,0,0,0,0,0,0,0,0,0,0,13.111252,80.190071,21.48,-18,6,0,0,-1,0,0,0,0
2503517,1.58E+12,0.83,-0.15,-0.9,2,-5,-47,0,0,0,0,2.37,2.44,1.2,0.56,0,0,0,0,0,0,0,0,0,0,0,13.111252,80.190071,21.48,-18,6,0,0,-1,0,0,0,0
2503537,1.58E+12,0.9,-0.05,-1.01,1,-2,-46,0,0,0,0,2.37,2.44,1.2,0.56,0,0,0,0,0,0,0,0,0,0,0,13.111252,80.190071,21.48,-18,6,0,0,-1,0,0,0,0
2503557,1.58E+12,0.83,-0.03,-1.06,1,1,-43,0,0,0,0,2.27,2.43,1.16,0.57,0,0,0,0,0,0,0,0,0,0,0,13.111252,80.190071,21.48,-18,6,0,0,-1,0,0,0,0
2503577,1.58E+12,0.79,-0.04,-0.85,1,-2,-44,0,0,0,0,2.27,2.43,1.16,0.57,0,0,0,0,0,0,0,0,0,0,0,13.111252,80.190071,21.48,-18,6,0,0,-1,0,0,0,0
2503597,1.58E+12,0.87,-0.08,-0.93,1,-7,-45,0,0,0,0,2.27,2.43,1.16,0.57,0,0,0,0,0,0,0,0,0,0,0,13.111252,80.190071,21.48,-18,6,0,0,-1,0,0,0,0
2503617,1.58E+12,0.92,-0.15,-1.01,2,-9,-45,0,0,0,0,2.27,2.43,1.16,0.57,0,0,0,0,0,0,0,0,0,0,0,13.111252,80.190071,21.48,-18,6,0,0,-1,0,0,0,0
2503637,1.58E+12,0.97,-0.08,-1.1,2,-3,-43,0,0,0,0,2.27,2.43,1.16,0.57,0,0,0,0,0,0,0,0,0,0,0,13.111252,80.190071,21.48,-18,6,0,0,-1,0,0,0,0
2503657,1.58E+12,0.99,0,-1.18,1,2,-41,0,0,0,0,2.22,2.48,1.43,0.52,0,0,0,0,0,0,0,0,0,0,0,13.111252,80.190071,21.48,-18,6,0,0,-1,0,0,0,0
2503677,1.58E+12,0.89,0.05,-0.95,2,-1,-41,0,0,0,0,2.22,2.48,1.43,0.52,0,0,0,0,0,0,0,0,0,0,0,13.111252,80.190071,21.48,-18,6,0,0,-1,0,0,0,0
2503697,1.58E+12,0.89,0.05,-0.91,2,-5,-43,0,0,0,0,2.22,2.48,1.43,0.52,0,0,0,0,0,0,0,0,0,0,0,13.111252,80.190071,21.48,-18,6,0,0,-1,0,0,0,0
2503717,1.58E+12,0.87,0.02,-1.02,2,0,-43,0,0,0,0,2.22,2.48,1.43,0.52,0,0,0,0,0,0,0,0,0,0,0,13.111252,80.190071,21.48,-18,6,0,0,-1,0,0,0,0
2503737,1.58E+12,0.88,0.07,-1.12,1,4,-41,0,0,0,0,2.22,2.48,1.43,0.52,0,0,0,0,0,0,0,0,0,0,0,13.111252,80.190071,21.48,-18,6,0,0,-1,0,0,0,0
2503757,1.58E+12,0.83,0.02,-1.09,2,2,-41,0,0,0,0,2.57,2.49,1.38,0.51,0,0,0,0,0,0,0,0,0,0,0,13.111252,80.190071,21.48,-18,6,0,0,-1,0,0,0,0
2503777,1.58E+12,0.83,-0.02,-0.96,2,-5,-43,0,0,0,0,2.57,2.49,1.38,0.51,0,0,0,0,0,0,0,0,0,0,0,13.111252,80.190071,21.48,-18,6,0,0,-1,0,0,0,0
2503797,1.58E+12,0.81,-0.01,-1.05,2,-3,-44,0,0,0,0,2.57,2.49,1.38,0.51,0,0,0,0,0,0,0,0,0,0,0,13.111252,80.190071,21.48,-18,6,0,0,-1,0,0,0,0
2503817,1.58E+12,0.89,0.06,-1.14,1,4,-42,0,0,0,0,2.57,2.49,1.38,0.51,0,0,0,0,0,0,0,0,0,0,0,13.111252,80.190071,21.48,-18,6,0,0,-1,0,0,0,0
2503837,1.58E+12,0.9,0.04,-1.13,2,6,-41,0,0,0,0,2.57,2.49,1.38,0.51,0,0,0,0,0,0,0,0,0,0,0,13.111252,80.190071,21.48,-18,6,0,0,-1,0,0,0,0
2503857,1.58E+12,0.8,0.05,-0.91,3,1,-43,0,0,0,0,2.52,2.5,1.26,0.5,0,0,0,0,0,0,0,0,0,0,0,13.111252,80.190071,21.48,-18,6,0,0,-1,0,0,0,0
2503877,1.58E+12,0.79,-0.06,-0.96,4,-1,-43,0,0,0,0,2.52,2.5,1.26,0.5,0,0,0,0,0,0,0,0,0,0,0,13.111252,80.190071,21.48,-18,6,0,0,-1,0,0,0,0
2503897,1.58E+12,0.79,-0.1,-1.06,5,0,-42,0,0,0,0,2.52,2.5,1.26,0.5,0,0,0,0,0,0,0,0,0,0,0,13.111252,80.190071,21.48,-18,6,0,0,-1,0,0,0,0
2503917,1.58E+12,0.87,-0.11,-1.16,5,4,-41,0,0,0,0,2.52,2.5,1.26,0.5,0,0,0,0,0,0,0,0,0,0,0,13.111252,80.190071,21.48,-18,6,0,0,-1,0,0,0,0
2503937,1.58E+12,0.95,-0.12,-1.24,5,5,-40,0,0,0,0,2.52,2.5,1.26,0.5,0,0,0,0,0,0,0,0,0,0,0,13.111252,80.190071,21.48,-18,6,0,0,-1,0,0,0,0
2503957,1.58E+12,0.94,-0.11,-1.32,5,7,-39,0,0,0,0,2.5,2.5,1.02,0.5,0,0,0,0,0,0,0,0,0,0,0,13.111252,80.190071,21.48,-18,6,0,0,-1,0,0,0,0
2503977,1.58E+12,0.94,-0.13,-1.39,5,6,-40,0,0,0,0,2.5,2.5,1.02,0.5,0,0,0,0,0,0,0,0,0,0,0,13.111252,80.190071,21.48,-18,6,0,0,-1,0,0,0,0
2503997,1.58E+12,0.93,-0.1,-1.45,4,6,-40,0,0,0,0,2.5,2.5,1.02,0.5,0,0,0,0,0,0,0,0,0,0,0,13.111252,80.190071,21.48,-18,6,0,0,-1,0,0,0,0
2504017,1.58E+12,0.9,-0.09,-1.42,3,4,-43,0,0,0,0,2.5,2.5,1.02,0.5,0,0,0,0,0,0,0,0,0,0,0,13.111252,80.190071,21.48,-18,6,0,0,-1,0,0,0,0
2504037,1.58E+12,0.83,-0.04,-1.42,2,-1,-46,0,0,0,0,2.5,2.5,1.02,0.5,0,0,0,0,0,0,0,0,0,0,0,13.111252,80.190071,21.48,-18,6,0,0,-1,0,0,0,0
2504057,1.58E+12,0.69,-0.1,-1.19,1,-6,-50,0,0,0,0,2.52,2.5,1.04,0.5,0,0,0,0,0,0,0,0,0,0,0,13.111252,80.190071,21.48,-18,6,0,0,-1,0,0,0,0
2504077,1.58E+12,0.75,-0.18,-1.02,1,-12,-54,0,0,0,0,2.52,2.5,1.04,0.5,0,0,0,0,0,0,0,0,0,0,0,13.111252,80.190071,21.48,-18,6,0,0,-1,0,0,0,0
2504097,1.58E+12,0.79,-0.17,-1.04,1,-12,-55,0,0,0,0,2.52,2.5,1.04,0.5,0,0,0,0,0,0,0,0,0,0,0,13.111252,80.190071,21.48,-18,6,0,0,-1,0,0,0,0
2504117,1.58E+12,0.84,-0.04,-1.06,1,-7,-54,0,0,0,0,2.52,2.5,1.04,0.5,0,0,0,0,0,0,0,0,0,0,0,13.111252,80.190071,21.48,-18,6,0,0,-1,0,0,0,0
2504137,1.58E+12,0.84,-0.06,-1.16,2,-4,-51,0,0,0,0,2.52,2.5,1.04,0.5,0,0,0,0,0,0,0,0,0,0,0,13.111252,80.190071,21.48,-18,6,0,0,-1,0,0,0,0
2504157,1.58E+12,0.73,-0.16,-0.87,4,-7,-52,0,0,0,0,2.51,2.51,1.27,0.49,0,0,0,0,0,0,0,0,0,0,0,13.111252,80.190071,21.48,-18,6,0,0,-1,0,0,0,0
2504177,1.58E+12,0.74,-0.17,-0.93,5,-10,-52,0,0,0,0,2.51,2.51,1.27,0.49,0,0,0,0,0,0,0,0,0,0,0,13.111252,80.190071,21.48,-18,6,0,0,-1,0,0,0,0
2504197,1.58E+12,0.81,-0.25,-1.04,6,-8,-52,0,0,0,0,2.51,2.51,1.27,0.49,0,0,0,0,0,0,0,0,0,0,0,13.111252,80.190071,21.48,-18,6,0,0,-1,0,0,0,0
2504217,1.58E+12,0.86,-0.18,-1.13,6,0,-50,0,0,0,0,2.51,2.51,1.27,0.49,0,0,0,0,0,0,0,0,0,0,0,13.111252,80.190071,21.48,-18,6,0,0,-1,0,0,0,0
2504237,1.58E+12,0.93,-0.17,-1.22,6,2,-48,0,0,0,0,2.51,2.51,1.27,0.49,0,0,0,0,0,0,0,0,0,0,0,13.111252,80.190071,21.48,-18,6,0,0,-1,0,0,0,0
2504257,1.58E+12,0.92,-0.13,-1.27,5,5,-48,0,0,0,0,2.46,2.51,1.2,0.49,0,0,0,0,0,0,0,0,0,0,0,13.111252,80.190071,21.48,-18,6,0,0,-1,0,0,0,0
2504277,1.58E+12,1.02,-0.05,-1.1,3,1,-48,0,0,0,0,2.46,2.51,1.2,0.49,0,0,0,0,0,0,0,0,0,0,0,13.111252,80.190071,21.48,-18,6,0,0,-1,0,0,0,0
2504297,1.58E+12,1.01,0.02,-1.02,2,-1,-49,0,0,0,0,2.46,2.51,1.2,0.49,0,0,0,0,0,0,0,0,0,0,0,13.111252,80.190071,21.48,-18,6,0,0,-1,0,0,0,0
2504317,1.58E+12,0.87,0.13,-0.8,1,-4,-49,0,0,0,0,2.46,2.51,1.2,0.49,0,0,0,0,0,0,0,0,0,0,0,13.111252,80.190071,21.48,-18,6,0,0,-1,0,0,0,0
2504337,1.58E+12,0.73,0.17,-0.52,0,-10,-50,0,0,0,0,2.46,2.51,1.2,0.49,0,0,0,0,0,0,0,0,0,0,0,13.111252,80.190071,21.48,-18,6,0,0,-1,0,0,0,0
2504357,1.58E+12,0.57,0.19,-0.33,0,-15,-51,0,0,0,0,2.27,2.51,1.37,0.49,0,0,0,0,0,0,0,0,0,0,0,13.111252,80.190071,21.48,-18,6,0,0,-1,0,0,0,0
2504377,1.58E+12,0.48,0.18,-0.22,0,-21,-51,0,0,0,0,2.27,2.51,1.37,0.49,0,0,0,0,0,0,0,0,0,0,0,13.111252,80.190071,21.48,-18,6,0,0,-1,0,0,0,0
2504397,1.58E+12,0.54,0.12,-0.29,1,-23,-51,0,0,0,0,2.27,2.51,1.37,0.49,0,0,0,0,0,0,0,0,0,0,0,13.111252,80.190071,21.48,-18,6,0,0,-1,0,0,0,0
2504417,1.58E+12,0.68,-0.08,-0.36,2,-24,-51,0,0,0,0,2.27,2.51,1.37,0.49,0,0,0,0,0,0,0,0,0,0,0,13.111252,80.190071,21.48,-18,6,0,0,-1,0,0,0,0
2504437,1.58E+12,0.73,-0.12,-0.52,3,-20,-49,0,0,0,0,2.27,2.51,1.37,0.49,0,0,0,0,0,0,0,0,0,0,0,13.111252,80.190071,21.48,-18,6,0,0,-1,0,0,0,0
2504457,1.58E+12,0.79,-0.06,-0.67,3,-12,-48,0,0,0,0,2.05,2.52,1.52,0.48,0,0,0,0,0,0,0,0,0,0,0,13.111252,80.190071,21.48,-18,6,0,0,-1,0,0,0,0
2504477,1.58E+12,0.73,-0.06,-0.66,2,-6,-46,0,0,0,0,2.05,2.52,1.52,0.48,0,0,0,0,0,0,0,0,0,0,0,13.111252,80.190071,21.48,-18,6,0,0,-1,0,0,0,0
2504497,1.58E+12,0.71,0.02,-0.72,1,3,-47,0,0,0,0,2.05,2.52,1.52,0.48,0,0,0,0,0,0,0,0,0,0,0,13.111252,80.190071,21.48,-18,6,0,0,-1,0,0,0,0
2504517,1.58E+12,0.58,0.05,-0.61,0,11,-48,0,0,0,0,2.05,2.52,1.52,0.48,0,0,0,0,0,0,0,0,0,0,0,13.111252,80.190071,21.48,-18,6,0,0,-1,0,0,0,0
2504537,1.58E+12,0.62,0.08,-0.54,0,12,-49,0,0,0,0,2.05,2.52,1.52,0.48,0,0,0,0,0,0,0,0,0,0,0,13.111252,80.190071,21.48,-18,6,0,0,-1,0,0,0,0
2504557,1.58E+12,0.52,0.17,-0.68,0,12,-48,0,0,0,0,2.05,2.51,1.44,0.49,0,0,0,0,0,0,0,0,0,0,0,13.111252,80.190071,21.48,-18,6,0,0,-1,0,0,0,0
2504577,1.58E+12,0.53,0.15,-0.82,0,10,-46,0,0,0,0,2.05,2.51,1.44,0.49,0,0,0,0,0,0,0,0,0,0,0,13.111252,80.190071,21.48,-18,6,0,0,-1,0,0,0,0
2504597,1.58E+12,0.54,0.18,-0.87,0,6,-45,0,0,0,0,2.05,2.51,1.44,0.49,0,0,0,0,0,0,0,0,0,0,0,13.111252,80.190071,21.48,-18,6,0,0,-1,0,0,0,0
2504617,1.58E+12,0.53,0.13,-0.58,2,-5,-48,0,0,0,0,2.05,2.51,1.44,0.49,0,0,0,0,0,0,0,0,0,0,0,13.111252,80.190071,21.48,-18,6,0,0,-1,0,0,0,0
2504637,1.58E+12,0.6,0.07,-0.6,2,-8,-48,0,0,0,0,2.05,2.51,1.44,0.49,0,0,0,0,0,0,0,0,0,0,0,13.111252,80.190071,21.48,-18,6,0,0,-1,0,0,0,0
2504657,1.58E+12,0.63,0.08,-0.74,4,-4,-47,0,0,0,0,1.96,2.5,1.04,0.5,0,0,0,0,0,0,0,0,0,0,0,13.111252,80.190071,21.48,-18,6,0,0,-1,0,0,0,0
2504677,1.58E+12,0.72,0.06,-0.7,4,0,-43,0,0,0,0,1.96,2.5,1.04,0.5,0,0,0,0,0,0,0,0,0,0,0,13.111252,80.190071,21.48,-18,6,0,0,-1,0,0,0,0
2504697,1.58E+12,0.84,0.09,-0.8,4,-3,-39,0,0,0,0,1.96,2.5,1.04,0.5,0,0,0,0,0,0,0,0,0,0,0,13.111252,80.190071,21.48,-18,6,0,0,-1,0,0,0,0
2504717,1.58E+12,0.95,0.11,-0.52,2,-11,-37,0,0,0,0,1.96,2.5,1.04,0.5,0,0,0,0,0,0,0,0,0,0,0,13.111252,80.190071,21.48,-18,6,0,0,-1,0,0,0,0
2504737,1.58E+12,0.88,0.26,-0.36,2,-9,-37,0,0,0,0,1.96,2.5,1.04,0.5,0,0,0,0,0,0,0,0,0,0,0,13.111252,80.190071,21.48,-18,6,0,0,-1,0,0,0,0
2504757,1.58E+12,0.85,0.3,-0.12,1,-12,-38,0,0,0,0,2.4,2.52,1.33,0.48,0,0,0,0,0,0,0,0,0,0,0,13.111252,80.190071,21.48,-18,6,0,0,-1,0,0,0,0
2504777,1.58E+12,0.9,0.3,-0.03,1,-14,-39,0,0,0,0,2.4,2.52,1.33,0.48,0,0,0,0,0,0,0,0,0,0,0,13.111252,80.190071,21.48,-18,6,0,0,-1,0,0,0,0
2504797,1.58E+12,0.84,0.35,0.06,1,-8,-37,0,0,0,0,2.4,2.52,1.33,0.48,0,0,0,0,0,0,0,0,0,0,0,13.111252,80.190071,21.48,-18,6,0,0,-1,0,0,0,0
2504817,1.58E+12,0.95,0.36,-0.15,2,-5,-38,0,0,0,0,2.4,2.52,1.33,0.48,0,0,0,0,0,0,0,0,0,0,0,13.111252,80.190071,21.48,-18,6,0,0,-1,0,0,0,0
2504837,1.58E+12,0.86,0.26,-0.34,3,-1,-36,0,0,0,0,2.4,2.52,1.33,0.48,0,0,0,0,0,0,0,0,0,0,0,13.111252,80.190071,21.48,-18,6,0,0,-1,0,0,0,0
2504857,1.58E+12,0.74,0.04,-0.29,5,-8,-39,0,0,0,0,2.52,2.51,1.01,0.49,0,0,0,0,0,0,0,0,0,0,0,13.111252,80.190071,21.48,-18,6,0,0,-1,0,0,0,0
2504877,1.58E+12,0.71,0.03,-0.07,6,-13,-38,0,0,0,0,2.52,2.51,1.01,0.49,0,0,0,0,0,0,0,0,0,0,0,13.111252,80.190071,21.48,-18,6,0,0,-1,0,0,0,0
2504897,1.58E+12,0.83,0.07,0.02,8,-10,-42,0,0,0,0,2.52,2.51,1.01,0.49,0,0,0,0,0,0,0,0,0,0,0,13.111252,80.190071,21.48,-18,6,0,0,-1,0,0,0,0
2504917,1.58E+12,0.9,0.05,-0.12,9,-6,-42,0,0,0,0,2.52,2.51,1.01,0.49,0,0,0,0,0,0,0,0,0,0,0,13.111252,80.190071,21.48,-18,6,0,0,-1,0,0,0,0
2504937,1.58E+12,0.76,0.08,-0.03,9,1,-42,0,0,0,0,2.52,2.51,1.01,0.49,0,0,0,0,0,0,0,0,0,0,0,13.111252,80.190071,21.48,-18,6,0,0,-1,0,0,0,0
2504957,1.58E+12,0.72,0.03,-0.15,10,4,-44,0,0,0,0,2.22,2.52,1.32,0.48,0,0,0,0,0,0,0,0,0,0,0,13.111252,80.190071,21.48,-18,6,0,0,-1,0,0,0,0
2504977,1.58E+12,0.72,0.01,-0.33,10,4,-43,0,0,0,0,2.22,2.52,1.32,0.48,0,0,0,0,0,0,0,0,0,0,0,13.111252,80.190071,21.48,-18,6,0,0,-1,0,0,0,0
2504997,1.58E+12,0.61,0.08,-0.45,9,0,-45,0,0,0,0,2.22,2.52,1.32,0.48,0,0,0,0,0,0,0,0,0,0,0,13.111252,80.190071,21.48,-18,6,0,0,-1,0,0,0,0
2505017,1.58E+12,0.67,0.12,-0.46,8,-6,-47,0,0,0,0,2.22,2.52,1.32,0.48,0,0,0,0,0,0,0,0,0,0,0,13.111252,80.190071,21.48,-18,6,0,0,-1,0,0,0,0
2505037,1.58E+12,0.68,0.14,-0.62,7,-4,-49,0,0,0,0,2.22,2.52,1.32,0.48,0,0,0,0,0,0,0,0,0,0,0,13.111252,80.190071,21.48,-18,6,0,0,-1,0,0,0,0
2505057,1.58E+12,0.64,0.09,-0.6,6,-10,-51,0,0,0,0,2.55,2.52,1.05,0.48,0,0,0,0,0,0,0,0,0,0,0,13.111252,80.190071,21.48,-18,6,0,0,-1,0,0,0,0
2505077,1.58E+12,0.65,0.06,-0.68,4,-10,-54,0,0,0,0,2.55,2.52,1.05,0.48,0,0,0,0,0,0,0,0,0,0,0,13.111252,80.190071,21.48,-18,6,0,0,-1,0,0,0,0
2505097,1.58E+12,0.59,0.03,-0.65,3,-12,-57,0,0,0,0,2.55,2.52,1.05,0.48,0,0,0,0,0,0,0,0,0,0,0,13.111252,80.190071,21.48,-18,6,0,0,-1,0,0,0,0
2505117,1.58E+12,0.58,0.04,-0.57,2,-14,-60,0,0,0,0,2.55,2.52,1.05,0.48,0,0,0,0,0,0,0,0,0,0,0,13.111252,80.190071,21.48,-18,6,0,0,-1,0,0,0,0
2505137,1.58E+12,0.59,-0.03,-0.43,2,-15,-63,0,0,0,0,2.55,2.52,1.05,0.48,0,0,0,0,0,0,0,0,0,0,0,13.111252,80.190071,21.48,-18,6,0,0,-1,0,0,0,0
2505157,1.58E+12,0.54,-0.13,-0.48,2,-15,-64,0,0,0,0,2.49,2.52,1.17,0.48,0,0,0,0,0,0,0,0,0,0,0,13.111252,80.190071,21.48,-18,6,0,0,-1,0,0,0,0
2505177,1.58E+12,0.6,-0.15,-0.62,3,-11,-64,0,0,0,0,2.49,2.52,1.17,0.48,0,0,0,0,0,0,0,0,0,0,0,13.111252,80.190071,21.48,-18,6,0,0,-1,0,0,0,0
2505197,1.58E+12,0.7,-0.13,-0.76,4,-5,-61,0,0,0,0,2.49,2.52,1.17,0.48,0,0,0,0,0,0,0,0,0,0,0,13.111252,80.190071,21.48,-18,6,0,0,-1,0,0,0,0
2505217,1.58E+12,0.72,-0.07,-0.89,5,2,-59,0,0,0,0,2.49,2.52,1.17,0.48,0,0,0,0,0,0,0,0,0,0,0,13.111252,80.190071,21.48,-18,6,0,0,-1,0,0,0,0
2505237,1.58E+12,0.78,-0.04,-0.97,5,7,-56,0,0,0,0,2.49,2.52,1.17,0.48,0,0,0,0,0,0,0,0,0,0,0,13.111252,80.190071,21.48,-18,6,0,0,-1,0,0,0,0
2505257,1.58E+12,0.85,-0.06,-1.03,5,9,-54,0,0,0,0,2.53,2.52,1.17,0.48,0,0,0,0,0,0,0,0,0,0,0,13.111252,80.190071,21.48,-18,6,0,0,-1,0,0,0,0
2505277,1.58E+12,0.83,0,-1.09,5,11,-53,0,0,0,0,2.53,2.52,1.71,0.48,0,0,0,0,0,0,0,0,0,0,0,13.111252,80.190071,21.48,-18,6,0,0,-1,0,0,0,0
2505297,1.58E+12,0.86,0.04,-0.98,5,11,-52,0,0,0,0,2.53,2.52,1.71,0.48,0,0,0,0,0,0,0,0,0,0,0,13.111252,80.190071,21.48,-18,6,0,0,-1,0,0,0,0
2505317,1.58E+12,0.85,0.17,-0.9,5,12,-51,0,0,0,0,2.53,2.52,1.71,0.48,0,0,0,0,0,0,0,0,0,0,0,13.111252,80.190071,21.48,-18,6,0,0,-1,0,0,0,0
2505337,1.58E+12,0.88,0.13,-0.67,5,9,-51,0,0,0,0,2.53,2.52,1.71,0.48,0,0,0,0,0,0,0,0,0,0,0,13.111252,80.190071,21.48,-18,6,0,0,-1,0,0,0,0
2505357,1.58E+12,0.95,0.16,-0.75,4,9,-49,0,0,0,0,2.18,2.52,1.71,0.48,0,0,0,0,0,0,0,0,0,0,0,13.111252,80.190071,21.48,-18,6,0,0,-1,0,0,0,0
2505377,1.58E+12,0.93,0.14,-0.88,5,11,-49,0,0,0,0,2.18,2.51,1.01,0.49,0,0,0,0,0,0,0,0,0,0,0,13.111252,80.190071,21.48,-18,6,0,0,-1,0,0,0,0
2505397,1.58E+12,0.9,0.1,-0.92,5,10,-48,0,0,0,0,2.18,2.51,1.01,0.49,0,0,0,0,0,0,0,0,0,0,0,13.111252,80.190071,21.48,-18,6,0,0,-1,0,0,0,0
2505417,1.58E+12,0.92,-0.02,-1.01,6,9,-47,0,0,0,0,2.18,2.51,1.01,0.49,0,0,0,0,0,0,0,0,0,0,0,13.111252,80.190071,21.48,-18,6,0,0,-1,0,0,0,0
2505437,1.58E+12,0.97,-0.04,-1.02,5,8,-47,0,0,0,0,2.18,2.51,1.01,0.49,0,0,0,0,0,0,0,0,0,0,0,13.111252,80.190071,21.48,-18,6,0,0,-1,0,0,0,0
2505457,1.58E+12,0.98,0.02,-0.93,5,9,-47,0,0,0,0,2.08,2.51,1.01,0.49,0,0,0,0,0,0,0,0,0,0,0,13.111252,80.190071,21.48,-18,6,0,0,-1,0,0,0,0
2505477,1.58E+12,0.93,0.01,-0.92,5,8,-46,0,0,0,0,2.08,2.52,1.89,0.48,0,0,0,0,0,0,0,0,0,0,0,13.111252,80.190071,21.48,-18,6,0,0,-1,0,0,0,0
2505497,1.58E+12,1.01,-0.05,-1.03,5,8,-47,0,0,0,0,2.08,2.52,1.89,0.48,0,0,0,0,0,0,0,0,0,0,0,13.111252,80.190071,21.48,-18,6,0,0,-1,0,0,0,0
2505517,1.58E+12,0.94,-0.06,-1.13,4,8,-46,0,0,0,0,2.08,2.52,1.89,0.48,0,0,0,0,0,0,0,0,0,0,0,13.111252,80.190071,21.48,-18,6,0,0,-1,0,0,0,0
2505537,1.58E+12,0.93,-0.15,-1.21,3,9,-47,0,0,0,0,2.08,2.52,1.89,0.48,0,0,0,0,0,0,0,0,0,0,0,13.111252,80.190071,21.48,-18,6,0,0,-1,0,0,0,0
2505557,1.58E+12,1.02,-0.24,-1.24,2,9,-48,0,0,0,0,2.19,2.52,1.89,0.48,0,0,0,0,0,0,0,0,0,0,0,13.111252,80.190071,21.48,-18,6,0,0,-1,0,0,0,0
2505577,1.58E+12,1.05,-0.34,-1.32,2,9,-50,0,0,0,0,2.19,2.52,1.93,0.48,0,0,0,0,0,0,0,0,0,0,0,13.111252,80.190071,21.48,-18,6,0,0,-1,0,0,0,0
2505597,1.58E+12,1.06,-0.38,-1.26,1,6,-52,0,0,0,0,2.19,2.52,1.93,0.48,0,0,0,0,0,0,0,0,0,0,0,13.111252,80.190071,21.48,-18,6,0,0,-1,0,0,0,0
2505617,1.58E+12,1.06,-0.45,-1.27,1,5,-54,0,0,0,0,2.19,2.52,1.93,0.48,0,0,0,0,0,0,0,0,0,0,0,13.111252,80.190071,21.48,-18,6,0,0,-1,0,0,0,0
2505637,1.58E+12,1.14,-0.35,-1.3,2,4,-55,0,0,0,0,2.19,2.52,1.93,0.48,0,0,0,0,0,0,0,0,0,0,0,13.111252,80.190071,21.48,-18,6,0,0,-1,0,0,0,0
2505657,1.58E+12,1.17,-0.37,-1.12,2,1,-54,0,0,0,0,2.16,2.52,1.93,0.48,0,0,0,0,0,0,0,0,0,0,0,13.111252,80.190071,21.48,-18,6,0,0,-1,0,0,0,0
2505677,1.58E+12,1.17,-0.36,-1.19,2,1,-55,0,0,0,0,2.16,2.52,1.51,0.48,0,0,0,0,0,0,0,0,0,0,0,13.111252,80.190071,21.48,-18,6,0,0,-1,0,0,0,0
2505697,1.58E+12,1.24,-0.44,-1.26,2,3,-54,0,0,0,0,2.16,2.52,1.51,0.48,0,0,0,0,0,0,0,0,0,0,0,13.111252,80.190071,21.48,-18,6,0,0,-1,0,0,0,0
2505717,1.58E+12,1.25,-0.53,-1.32,4,3,-54,0,0,0,0,2.16,2.52,1.51,0.48,0,0,0,0,0,0,0,0,0,0,0,13.111252,80.190071,21.48,-18,6,0,0,-1,0,0,0,0
2505737,1.58E+12,1.25,-0.5,-1.39,4,2,-55,0,0,0,0,2.16,2.52,1.51,0.48,0,0,0,0,0,0,0,0,0,0,0,13.111252,80.190071,21.48,-18,6,0,0,-1,0,0,0,0
2505757,1.58E+12,1.2,-0.46,-1.44,4,1,-55,0,0,0,0,2.15,2.52,1.51,0.48,0,0,0,0,0,0,0,0,0,0,0,13.111252,80.190071,21.48,-18,6,0,0,-1,0,0,0,0
2505777,1.58E+12,1.18,-0.51,-1.5,5,1,-56,0,0,0,0,2.15,2.51,1.21,0.49,0,0,0,0,0,0,0,0,0,0,0,13.111252,80.190071,21.48,-18,6,0,0,-1,0,0,0,0
2505797,1.58E+12,1.2,-0.44,-1.55,5,1,-56,0,0,0,0,2.15,2.51,1.21,0.49,0,0,0,0,0,0,0,0,0,0,0,13.111252,80.190071,21.48,-18,6,0,0,-1,0,0,0,0
2505817,1.58E+12,1.21,-0.44,-1.57,5,0,-56,0,0,0,0,2.15,2.51,1.21,0.49,0,0,0,0,0,0,0,0,0,0,0,13.111252,80.190071,21.48,-18,6,0,0,-1,0,0,0,0
2505837,1.58E+12,1.21,-0.47,-1.52,5,3,-57,0,0,0,0,2.15,2.51,1.21,0.49,0,0,0,0,0,0,0,0,0,0,0,13.111252,80.190071,21.48,-18,6,0,0,-1,0,0,0,0
2505857,1.58E+12,1.22,-0.44,-1.57,5,6,-58,0,0,0,0,2.36,2.51,1.21,0.49,0,0,0,0,0,0,0,0,0,0,0,13.111252,80.190071,21.48,-18,6,0,0,-1,0,0,0,0
2505877,1.58E+12,1.26,-0.45,-1.61,5,9,-57,0,0,0,0,2.36,2.51,1,0.49,0,0,0,0,0,0,0,0,0,0,0,13.111252,80.190071,21.48,-18,6,0,0,-1,0,0,0,0
2505897,1.58E+12,1.26,-0.33,-1.65,5,12,-56,0,0,0,0,2.36,2.51,1,0.49,0,0,0,0,0,0,0,0,0,0,0,13.111252,80.190071,21.48,-18,6,0,0,-1,0,0,0,0
2505917,1.58E+12,1.25,-0.23,-1.63,4,16,-56,0,0,0,0,2.36,2.51,1,0.49,0,0,0,0,0,0,0,0,0,0,0,13.111252,80.190071,21.48,-18,6,0,0,-1,0,0,0,0
2505937,1.58E+12,1.26,-0.19,-1.67,4,22,-54,0,0,0,0,2.36,2.51,1,0.49,0,0,0,0,0,0,0,0,0,0,0,13.111252,80.190071,21.48,-18,6,0,0,-1,0,0,0,0
2505957,1.58E+12,1.16,-0.13,-1.54,4,22,-54,0,0,0,0,2.22,2.51,1,0.49,0,0,0,0,0,0,0,0,0,0,0,13.111252,80.190071,21.48,-18,6,0,0,-1,0,0,0,0
2505977,1.58E+12,1.1,-0.05,-1.25,4,15,-56,0,0,0,0,2.22,2.52,1.27,0.48,0,0,0,0,0,0,0,0,0,0,0,13.111252,80.190071,21.48,-18,6,0,0,-1,0,0,0,0
2505997,1.58E+12,1.11,-0.08,-1.2,5,7,-60,0,0,0,0,2.22,2.52,1.27,0.48,0,0,0,0,0,0,0,0,0,0,0,13.111252,80.190071,21.48,-18,6,0,0,-1,0,0,0,0
2506017,1.58E+12,1.06,-0.11,-1.28,6,8,-62,0,0,0,0,2.22,2.52,1.27,0.48,0,0,0,0,0,0,0,0,0,0,0,13.111252,80.190071,21.48,-18,6,0,0,-1,0,0,0,0
2506037,1.58E+12,1.1,-0.01,-1.36,5,12,-60,0,0,0,0,2.22,2.52,1.27,0.48,0,0,0,0,0,0,0,0,0,0,0,13.111252,80.190071,21.48,-18,6,0,0,-1,0,0,0,0
2506057,1.58E+12,1.07,-0.07,-1.37,5,12,-58,0,0,0,0,2.08,2.52,1.27,0.48,0,0,0,0,0,0,0,0,0,0,0,13.111252,80.190071,21.48,-18,6,0,0,-1,0,0,0,0
2506077,1.58E+12,0.96,0.04,-1.16,6,8,-59,0,0,0,0,2.08,2.51,1.31,0.49,0,0,0,0,0,0,0,0,0,0,0,13.111252,80.190071,21.48,-18,6,0,0,-1,0,0,0,0
2506097,1.58E+12,0.97,0.1,-1.25,6,10,-58,0,0,0,0,2.08,2.51,1.31,0.49,0,0,0,0,0,0,0,0,0,0,0,13.111252,80.190071,21.48,-18,6,0,0,-1,0,0,0,0
2506117,1.58E+12,1,0.04,-1.15,6,6,-57,0,0,0,0,2.08,2.51,1.31,0.49,0,0,0,0,0,0,0,0,0,0,0,13.111252,80.190071,21.48,-18,6,0,0,-1,0,0,0,0
2506137,1.58E+12,0.95,0.06,-1.21,6,7,-57,0,0,0,0,2.08,2.51,1.31,0.49,0,0,0,0,0,0,0,0,0,0,0,13.111252,80.190071,21.48,-18,6,0,0,-1,0,0,0,0
2506157,1.58E+12,0.94,0.08,-1.23,5,8,-55,0,0,0,0,2.04,2.51,1.31,0.49,0,0,0,0,0,0,0,0,0,0,0,13.111252,80.190071,21.48,-18,6,0,0,-1,0,0,0,0
2506177,1.58E+12,0.85,0.17,-1.04,5,3,-55,0,0,0,0,2.04,2.52,0.9,0.48,0,0,0,0,0,0,0,0,0,0,0,13.111252,80.190071,21.48,-18,6,0,0,-1,0,0,0,0
2506197,1.58E+12,0.89,0.22,-1.01,4,3,-54,0,0,0,0,2.04,2.52,0.9,0.48,0,0,0,0,0,0,0,0,0,0,0,13.111252,80.190071,21.48,-18,6,0,0,-1,0,0,0,0
2506217,1.58E+12,0.82,0.24,-0.84,4,-1,-54,0,0,0,0,2.04,2.52,0.9,0.48,0,0,0,0,0,0,0,0,0,0,0,13.111252,80.190071,21.48,-18,6,0,0,-1,0,0,0,0
2506237,1.58E+12,0.83,0.29,-0.9,3,2,-53,0,0,0,0,2.04,2.52,0.9,0.48,0,0,0,0,0,0,0,0,0,0,0,13.111252,80.190071,21.48,-18,6,0,0,-1,0,0,0,0
2506257,1.58E+12,0.82,0.29,-0.85,3,-1,-51,0,0,0,0,2.05,2.52,0.9,0.48,0,0,0,0,0,0,0,0,0,0,0,13.111252,80.190071,21.48,-18,6,0,0,-1,0,0,0,0
2506277,1.58E+12,0.82,0.4,-0.89,2,-1,-49,0,0,0,0,2.05,2.52,1.18,0.48,0,0,0,0,0,0,0,0,0,0,0,13.111252,80.190071,21.48,-18,6,0,0,-1,0,0,0,0
2506297,1.58E+12,0.8,0.41,-0.73,2,-1,-46,0,0,0,0,2.05,2.52,1.18,0.48,0,0,0,0,0,0,0,0,0,0,0,13.111252,80.190071,21.48,-18,6,0,0,-1,0,0,0,0
2506317,1.58E+12,0.71,0.42,-0.69,2,0,-44,0,0,0,0,2.05,2.52,1.18,0.48,0,0,0,0,0,0,0,0,0,0,0,13.111252,80.190071,21.48,-18,6,0,0,-1,0,0,0,0
2506337,1.58E+12,0.78,0.44,-0.76,1,3,-40,0,0,0,0,2.05,2.52,1.18,0.48,0,0,0,0,0,0,0,0,0,0,0,13.111252,80.190071,21.48,-18,6,0,0,-1,0,0,0,0
2506357,1.58E+12,0.77,0.41,-0.66,2,-3,-39,0,0,0,0,2.07,2.52,1.18,0.48,0,0,0,0,0,0,0,0,0,0,0,13.111252,80.190071,21.48,-18,6,0,0,-1,0,0,0,0
2506377,1.58E+12,0.79,0.43,-0.59,2,-8,-37,0,0,0,0,2.07,2.51,1.27,0.49,0,0,0,0,0,0,0,0,0,0,0,13.111252,80.190071,21.48,-18,6,0,0,-1,0,0,0,0
2506397,1.58E+12,0.74,0.46,-0.61,2,-4,-34,0,0,0,0,2.07,2.51,1.27,0.49,0,0,0,0,0,0,0,0,0,0,0,13.111252,80.190071,21.48,-18,6,0,0,-1,0,0,0,0
2506417,1.58E+12,0.79,0.47,-0.69,1,4,-29,0,0,0,0,2.07,2.51,1.27,0.49,0,0,0,0,0,0,0,0,0,0,0,13.111252,80.190071,21.48,-18,6,0,0,-1,0,0,0,0
2506437,1.58E+12,0.83,0.47,-0.71,1,9,-24,0,0,0,0,2.07,2.51,1.27,0.49,0,0,0,0,0,0,0,0,0,0,0,13.111252,80.190071,21.48,-18,6,0,0,-1,0,0,0,0
2506457,1.58E+12,0.91,0.43,-0.78,1,15,-19,0,0,0,0,2.22,2.51,1.27,0.49,0,0,0,0,0,0,0,0,0,0,0,13.111252,80.190071,21.48,-18,6,0,0,-1,0,0,0,0
2506477,1.58E+12,0.92,0.55,-0.82,2,20,-16,0,0,0,0,2.22,2.53,1.5,0.47,0,0,0,0,0,0,0,0,0,0,0,13.111252,80.190071,21.48,-18,6,0,0,-1,0,0,0,0
2506497,1.58E+12,0.9,0.51,-0.72,2,19,-16,0,0,0,0,2.22,2.53,1.5,0.47,0,0,0,0,0,0,0,0,0,0,0,13.111252,80.190071,21.48,-18,6,0,0,-1,0,0,0,0
2506517,1.58E+12,0.87,0.59,-0.55,2,13,-17,0,0,0,0,2.22,2.53,1.5,0.47,0,0,0,0,0,0,0,0,0,0,0,13.111252,80.190071,21.48,-18,6,0,0,-1,0,0,0,0
2506537,1.58E+12,0.84,0.45,-0.47,3,9,-17,0,0,0,0,2.22,2.53,1.5,0.47,0,0,0,0,0,0,0,0,0,0,0,13.111252,80.190071,21.48,-18,6,0,0,-1,0,0,0,0
2506557,1.58E+12,0.78,0.5,-0.61,2,11,-16,0,0,0,0,2.22,2.53,1.5,0.47,0,0,0,0,0,0,0,0,0,0,0,13.111252,80.190071,21.48,-18,6,0,0,-1,0,0,0,0
2506577,1.58E+12,0.8,0.47,-0.75,1,13,-13,0,0,0,0,2.22,2.52,1.58,0.48,0,0,0,0,0,0,0,0,0,0,0,13.111252,80.190071,21.48,-18,6,0,0,-1,0,0,0,0
2506597,1.58E+12,0.77,0.48,-0.66,1,11,-12,0,0,0,0,2.22,2.52,1.58,0.48,0,0,0,0,0,0,0,0,0,0,0,13.111252,80.190071,21.48,-18,6,0,0,-1,0,0,0,0
2506617,1.58E+12,0.87,0.35,-0.56,1,3,-13,0,0,0,0,2.22,2.52,1.58,0.48,0,0,0,0,0,0,0,0,0,0,0,13.111252,80.190071,21.48,-18,6,0,0,-1,0,0,0,0
2506637,1.58E+12,0.83,0.28,-0.43,1,-4,-14,0,0,0,0,2.22,2.52,1.58,0.48,0,0,0,0,0,0,0,0,0,0,0,13.111252,80.190071,21.48,-18,6,0,0,-1,0,0,0,0
2506657,1.58E+12,0.91,0.37,-0.48,0,-4,-14,0,0,0,0,2.45,2.52,1.58,0.48,0,0,0,0,0,0,0,0,0,0,0,13.111252,80.190071,21.48,-18,6,0,0,-1,0,0,0,0
2506677,1.58E+12,0.98,0.36,-0.47,0,0,-12,0,0,0,0,2.45,2.52,1.58,0.48,0,0,0,0,0,0,0,0,0,0,0,13.111252,80.190071,21.48,-18,6,0,0,-1,0,0,0,0
2506697,1.58E+12,0.91,0.43,-0.34,-1,0,-12,0,0,0,0,2.45,2.53,1.65,0.47,0,0,0,0,0,0,0,0,0,0,0,13.111252,80.190071,21.48,-18,6,0,0,-1,0,0,0,0
2506717,1.58E+12,0.91,0.37,-0.12,-1,-5,-14,0,0,0,0,2.45,2.53,1.65,0.47,0,0,0,0,0,0,0,0,0,0,0,13.111252,80.190071,21.48,-18,6,0,0,-1,0,0,0,0
