"Interval|""ms""|0|0|1","Utc|""ms""|0|0|1","AccelX|""G""|-3.0|3.0|50","AccelY|""G""|-3.0|3.0|50","AccelZ|""G""|-3.0|3.0|50","Yaw|""Deg/Sec""|-120|120|50","Pitch|""Deg/Sec""|-120|120|50","Roll|""Deg/Sec""|-120|120|50","FTTS1|""""|0.0|1000.0|10","FTTS2|""""|0.0|1000.0|10","FTTS3|""""|0.0|1000.0|10","FTTS4|""""|0.0|1000.0|10","STR|""""|0.0|1000.0|10","TPS|""""|0.0|1000.0|50","FL|""""|0.0|1000.0|50","FBPS|""""|0.0|1000.0|50","FR|""""|0.0|1000.0|50","MPUAccX|""""|-20.0|20.0|50","MPUAccY|""""|-20.0|20.0|50","MPUAccZ|""""|-20.0|20.0|50","YawMPU|""""|-20.0|20.0|50","PitchMPU|""""|-20.0|20.0|50","RollMPU|""""|-20.0|20.0|50"," RSTR|""""|0.0|1000.0|50"," RL|""""|0.0|1000.0|50"," RBPS|""""|0.0|1000.0|50"," RR |""""|0.0|1000.0|50","Latitude|""Degrees""|-180.0|180.0|10","Longitude|""Degrees""|-180.0|180.0|10","Speed|""mph""|0.0|150.0|10","Altitude|""ft""|0.0|4000.0|10","GPSSats|""""|0|20|10","LapCount|""""|0|0|10","LapTime|""Min""|0.0|0.0|10","Sector|""""|0|0|10","SectorTime|""Min""|0.0|0.0|10","PredTime|""Min""|0.0|0.0|10","ElapsedTime|""Min""|0.0|0.0|10","CurrentLap|""""|0|0|10"
2475677,1.58E+12,0.65,0.17,-0.8,2,0,-11,0,0,0,0,4.4,2.46,3.11,0.54,0,0,0,0,0,0,0,0,0,0,0,13.109916,80.189835,10.57,-17.5,8,0,0,-1,0,0,0,0
2475697,1.58E+12,0.67,0.19,-0.7,2,1,-18,0,0,0,0,4.4,2.46,3.11,0.54,0,0,0,0,0,0,0,0,0,0,0,13.109916,80.189835,10.57,-17.5,8,0,0,-1,0,0,0,0
2475717,1.58E+12,0.69,0.17,-0.83,1,6,-23,0,0,0,0,4.4,2.46,3.11,0.54,0,0,0,0,0,0,0,0,0,0,0,13.109916,80.189835,10.57,-17.5,8,0,0,-1,0,0,0,0
2475737,1.58E+12,0.67,0.19,-0.95,1,5,-26,0,0,0,0,4.4,2.46,3.11,0.54,0,0,0,0,0,0,0,0,0,0,0,13.109916,80.189835,10.57,-17.5,8,0,0,-1,0,0,0,0
2475757,1.58E+12,0.68,0.17,-0.86,2,-5,-33,0,0,0,0,4.26,2.44,3.27,0.56,0,0,0,0,0,0,0,0,0,0,0,13.109916,80.189835,10.57,-17.5,8,0,0,-1,0,0,0,0
2475777,1.58E+12,0.72,0.19,-0.97,1,-3,-37,0,0,0,0,4.26,2.44,3.27,0.56,0,0,0,0,0,0,0,0,0,0,0,13.10992,80.189835,10.45,-17.5,8,0,0,-1,0,0,0,0
2475797,1.58E+12,0.77,0.22,-1.08,1,-1,-39,0,0,0,0,4.26,2.44,3.27,0.56,0,0,0,0,0,0,0,0,0,0,0,13.10992,80.189835,10.45,-17.5,8,0,0,-1,0,0,0,0
2475817,1.58E+12,0.73,0.18,-1.12,2,0,-41,0,0,0,0,4.26,2.44,3.27,0.56,0,0,0,0,0,0,0,0,0,0,0,13.10992,80.189835,10.45,-17.5,8,0,0,-1,0,0,0,0
2475837,1.58E+12,0.64,0.26,-0.94,4,-7,-46,0,0,0,0,4.26,2.44,3.27,0.56,0,0,0,0,0,0,0,0,0,0,0,13.10992,80.189835,10.45,-17.5,8,0,0,-1,0,0,0,0
2475857,1.58E+12,0.68,0.23,-0.97,5,-11,-50,0,0,0,0,3.39,2.45,3.23,0.55,0,0,0,0,0,0,0,0,0,0,0,13.10992,80.189835,10.45,-17.5,8,0,0,-1,0,0,0,0
2475877,1.58E+12,0.65,0.13,-1.01,5,-10,-52,0,0,0,0,3.39,2.45,3.23,0.55,0,0,0,0,0,0,0,0,0,0,0,13.109919,80.189842,9.91,-17.5,8,0,0,-1,0,0,0,0
2475897,1.58E+12,0.68,0.14,-1.11,5,-2,-51,0,0,0,0,3.39,2.45,3.23,0.55,0,0,0,0,0,0,0,0,0,0,0,13.109919,80.189842,9.91,-17.5,8,0,0,-1,0,0,0,0
2475917,1.58E+12,0.77,0.14,-1.2,5,3,-51,0,0,0,0,3.39,2.45,3.23,0.55,0,0,0,0,0,0,0,0,0,0,0,13.109919,80.189842,9.91,-17.5,8,0,0,-1,0,0,0,0
2475937,1.58E+12,0.71,0.13,-1.14,5,2,-51,0,0,0,0,3.39,2.45,3.23,0.55,0,0,0,0,0,0,0,0,0,0,0,13.109919,80.189842,9.91,-17.5,8,0,0,-1,0,0,0,0
2475957,1.58E+12,0.7,0.17,-0.97,5,-2,-53,0,0,0,0,2.78,2.45,3.3,0.55,0,0,0,0,0,0,0,0,0,0,0,13.109919,80.189842,9.91,-17.5,8,0,0,-1,0,0,0,0
2475977,1.58E+12,0.78,0.1,-1.08,5,-10,-57,0,0,0,0,2.78,2.45,3.3,0.55,0,0,0,0,0,0,0,0,0,0,0,13.109921,80.18985,10,-17.6,8,0,0,-1,0,0,0,0
2475997,1.58E+12,0.78,-0.03,-1.1,5,-13,-61,0,0,0,0,2.78,2.45,3.3,0.55,0,0,0,0,0,0,0,0,0,0,0,13.109921,80.18985,10,-17.6,8,0,0,-1,0,0,0,0
2476017,1.58E+12,0.9,-0.04,-1.14,3,-7,-61,0,0,0,0,2.78,2.45,3.3,0.55,0,0,0,0,0,0,0,0,0,0,0,13.109921,80.18985,10,-17.6,8,0,0,-1,0,0,0,0
2476037,1.58E+12,0.95,-0.03,-1.15,2,-1,-60,0,0,0,0,2.78,2.45,3.3,0.55,0,0,0,0,0,0,0,0,0,0,0,13.109921,80.18985,10,-17.6,8,0,0,-1,0,0,0,0
2476057,1.58E+12,0.94,0.06,-1.01,2,-1,-61,0,0,0,0,2.15,2.48,2.83,0.52,0,0,0,0,0,0,0,0,0,0,0,13.109921,80.18985,10,-17.6,8,0,0,-1,0,0,0,0
2476077,1.58E+12,0.94,0.05,-1.1,2,-5,-63,0,0,0,0,2.15,2.48,2.83,0.52,0,0,0,0,0,0,0,0,0,0,0,13.109926,80.18985,10.19,-17.6,8,0,0,-1,0,0,0,0
2476097,1.58E+12,0.96,0.06,-1.19,1,0,-62,0,0,0,0,2.15,2.48,2.83,0.52,0,0,0,0,0,0,0,0,0,0,0,13.109926,80.18985,10.19,-17.6,8,0,0,-1,0,0,0,0
2476117,1.58E+12,1.05,0.08,-1.27,1,3,-60,0,0,0,0,2.15,2.48,2.83,0.52,0,0,0,0,0,0,0,0,0,0,0,13.109926,80.18985,10.19,-17.6,8,0,0,-1,0,0,0,0
2476137,1.58E+12,1.03,0.18,-1.1,0,1,-60,0,0,0,0,2.15,2.48,2.83,0.52,0,0,0,0,0,0,0,0,0,0,0,13.109926,80.18985,10.19,-17.6,8,0,0,-1,0,0,0,0
2476157,1.58E+12,1.02,0.07,-0.86,1,-7,-63,0,0,0,0,1.69,2.49,2.68,0.51,0,0,0,0,0,0,0,0,0,0,0,13.109926,80.18985,10.19,-17.6,8,0,0,-1,0,0,0,0
2476177,1.58E+12,0.98,0.01,-0.81,2,-11,-63,0,0,0,0,1.69,2.49,2.68,0.51,0,0,0,0,0,0,0,0,0,0,0,13.109933,80.189857,10.57,-17.7,8,0,0,-1,0,0,0,0
2476197,1.58E+12,1,0.09,-0.89,2,-4,-61,0,0,0,0,1.69,2.49,2.68,0.51,0,0,0,0,0,0,0,0,0,0,0,13.109933,80.189857,10.57,-17.7,8,0,0,-1,0,0,0,0
2476217,1.58E+12,1.04,0.17,-1,2,5,-58,0,0,0,0,1.69,2.49,2.68,0.51,0,0,0,0,0,0,0,0,0,0,0,13.109933,80.189857,10.57,-17.7,8,0,0,-1,0,0,0,0
2476237,1.58E+12,1,0.29,-0.8,2,3,-58,0,0,0,0,1.69,2.49,2.68,0.51,0,0,0,0,0,0,0,0,0,0,0,13.109933,80.189857,10.57,-17.7,8,0,0,-1,0,0,0,0
2476257,1.58E+12,0.97,0.3,-0.92,3,4,-58,0,0,0,0,1.57,2.49,2.13,0.51,0,0,0,0,0,0,0,0,0,0,0,13.109933,80.189857,10.57,-17.7,8,0,0,-1,0,0,0,0
2476277,1.58E+12,1.02,0.34,-1.03,3,4,-56,0,0,0,0,1.57,2.49,2.13,0.51,0,0,0,0,0,0,0,0,0,0,0,13.109949,80.189865,10.71,-17.7,8,0,0,-1,0,0,0,0
2476297,1.58E+12,0.96,0.37,-0.88,5,-4,-57,0,0,0,0,1.57,2.49,2.13,0.51,0,0,0,0,0,0,0,0,0,0,0,13.109949,80.189865,10.71,-17.7,8,0,0,-1,0,0,0,0
2476317,1.58E+12,0.93,0.31,-0.99,5,0,-58,0,0,0,0,1.57,2.49,2.13,0.51,0,0,0,0,0,0,0,0,0,0,0,13.109949,80.189865,10.71,-17.7,8,0,0,-1,0,0,0,0
2476337,1.58E+12,0.89,0.24,-1.03,6,2,-56,0,0,0,0,1.57,2.49,2.13,0.51,0,0,0,0,0,0,0,0,0,0,0,13.109949,80.189865,10.71,-17.7,8,0,0,-1,0,0,0,0
2476357,1.58E+12,0.76,0.28,-1.04,6,2,-57,0,0,0,0,1.56,2.5,1.94,0.5,0,0,0,0,0,0,0,0,0,0,0,13.109949,80.189865,10.71,-17.7,8,0,0,-1,0,0,0,0
2476377,1.58E+12,0.85,0.24,-1.03,6,2,-57,0,0,0,0,1.56,2.5,1.94,0.5,0,0,0,0,0,0,0,0,0,0,0,13.109962,80.189873,10.82,-17.8,8,0,0,-1,0,0,0,0
2476397,1.58E+12,0.78,0.31,-1.03,5,1,-56,0,0,0,0,1.56,2.5,1.94,0.5,0,0,0,0,0,0,0,0,0,0,0,13.109962,80.189873,10.82,-17.8,8,0,0,-1,0,0,0,0
2476417,1.58E+12,0.81,0.39,-0.9,5,1,-55,0,0,0,0,1.56,2.5,1.94,0.5,0,0,0,0,0,0,0,0,0,0,0,13.109962,80.189873,10.82,-17.8,8,0,0,-1,0,0,0,0
2476437,1.58E+12,0.87,0.33,-0.89,4,-2,-56,0,0,0,0,1.56,2.5,1.94,0.5,0,0,0,0,0,0,0,0,0,0,0,13.109962,80.189873,10.82,-17.8,8,0,0,-1,0,0,0,0
2476457,1.58E+12,0.83,0.44,-0.99,3,-1,-54,0,0,0,0,1.56,2.5,2,0.5,0,0,0,0,0,0,0,0,0,0,0,13.109962,80.189873,10.82,-17.8,8,0,0,-1,0,0,0,0
2476477,1.58E+12,0.77,0.53,-0.89,2,-1,-53,0,0,0,0,1.56,2.5,2,0.5,0,0,0,0,0,0,0,0,0,0,0,13.109975,80.189873,10.89,-17.8,8,0,0,-1,0,0,0,0
2476497,1.58E+12,0.81,0.46,-1,2,-5,-52,0,0,0,0,1.56,2.5,2,0.5,0,0,0,0,0,0,0,0,0,0,0,13.109975,80.189873,10.89,-17.8,8,0,0,-1,0,0,0,0
2476517,1.58E+12,0.78,0.47,-0.87,2,-6,-51,0,0,0,0,1.56,2.5,2,0.5,0,0,0,0,0,0,0,0,0,0,0,13.109975,80.189873,10.89,-17.8,8,0,0,-1,0,0,0,0
2476537,1.58E+12,0.75,0.51,-0.91,1,-1,-47,0,0,0,0,1.56,2.5,2,0.5,0,0,0,0,0,0,0,0,0,0,0,13.109975,80.189873,10.89,-17.8,8,0,0,-1,0,0,0,0
2476557,1.58E+12,0.79,0.6,-0.81,2,-3,-44,0,0,0,0,1.62,2.51,1.68,0.49,0,0,0,0,0,0,0,0,0,0,0,13.109975,80.189873,10.89,-17.8,8,0,0,-1,0,0,0,0
2476577,1.58E+12,0.85,0.44,-0.86,2,-3,-44,0,0,0,0,1.62,2.51,1.68,0.49,0,0,0,0,0,0,0,0,0,0,0,13.109981,80.189873,10.85,-17.8,8,0,0,-1,0,0,0,0
2476597,1.58E+12,0.8,0.6,-0.74,2,1,-42,0,0,0,0,1.62,2.51,1.68,0.49,0,0,0,0,0,0,0,0,0,0,0,13.109981,80.189873,10.85,-17.8,8,0,0,-1,0,0,0,0
2476617,1.58E+12,0.84,0.69,-0.71,2,-2,-38,0,0,0,0,1.62,2.51,1.68,0.49,0,0,0,0,0,0,0,0,0,0,0,13.109981,80.189873,10.85,-17.8,8,0,0,-1,0,0,0,0
2476637,1.58E+12,0.86,0.82,-0.71,2,-1,-37,0,0,0,0,1.62,2.51,1.68,0.49,0,0,0,0,0,0,0,0,0,0,0,13.109981,80.189873,10.85,-17.8,8,0,0,-1,0,0,0,0
2476657,1.58E+12,0.84,0.76,-0.67,2,-1,-34,0,0,0,0,1.74,2.5,1.36,0.5,0,0,0,0,0,0,0,0,0,0,0,13.109981,80.189873,10.85,-17.8,8,0,0,-1,0,0,0,0
2476677,1.58E+12,0.71,0.75,-0.56,2,1,-32,0,0,0,0,1.74,2.5,1.36,0.5,0,0,0,0,0,0,0,0,0,0,0,13.109985,80.18988,10.83,-17.8,8,0,0,-1,0,0,0,0
2476697,1.58E+12,0.75,0.65,-0.53,2,3,-29,0,0,0,0,1.74,2.5,1.36,0.5,0,0,0,0,0,0,0,0,0,0,0,13.109985,80.18988,10.83,-17.8,8,0,0,-1,0,0,0,0
2476717,1.58E+12,0.69,0.69,-0.44,2,1,-27,0,0,0,0,1.74,2.5,1.36,0.5,0,0,0,0,0,0,0,0,0,0,0,13.109985,80.18988,10.83,-17.8,8,0,0,-1,0,0,0,0
2476737,1.58E+12,0.82,0.45,-0.58,2,0,-25,0,0,0,0,1.74,2.5,1.36,0.5,0,0,0,0,0,0,0,0,0,0,0,13.109985,80.18988,10.83,-17.8,8,0,0,-1,0,0,0,0
2476757,1.58E+12,0.78,0.55,-0.51,1,3,-22,0,0,0,0,2.05,2.51,1.25,0.49,0,0,0,0,0,0,0,0,0,0,0,13.109985,80.18988,10.83,-17.8,8,0,0,-1,0,0,0,0
2476777,1.58E+12,0.84,0.34,-0.64,1,2,-20,0,0,0,0,2.05,2.51,1.25,0.49,0,0,0,0,0,0,0,0,0,0,0,13.109991,80.18988,10.79,-17.8,8,0,0,-1,0,0,0,0
2476797,1.58E+12,0.77,0.4,-0.51,0,3,-18,0,0,0,0,2.05,2.51,1.25,0.49,0,0,0,0,0,0,0,0,0,0,0,13.109991,80.18988,10.79,-17.8,8,0,0,-1,0,0,0,0
2476817,1.58E+12,0.87,0.33,-0.5,1,2,-18,0,0,0,0,2.05,2.51,1.25,0.49,0,0,0,0,0,0,0,0,0,0,0,13.109991,80.18988,10.79,-17.8,8,0,0,-1,0,0,0,0
2476837,1.58E+12,0.92,0.45,-0.39,0,4,-15,0,0,0,0,2.05,2.51,1.25,0.49,0,0,0,0,0,0,0,0,0,0,0,13.109991,80.18988,10.79,-17.8,8,0,0,-1,0,0,0,0
2476857,1.58E+12,0.94,0.42,-0.32,0,3,-12,0,0,0,0,2.18,2.51,1.57,0.49,0,0,0,0,0,0,0,0,0,0,0,13.109991,80.18988,10.79,-17.8,8,0,0,-1,0,0,0,0
2476877,1.58E+12,1,0.41,-0.29,1,-1,-12,0,0,0,0,2.18,2.51,1.57,0.49,0,0,0,0,0,0,0,0,0,0,0,13.109997,80.18988,10.76,-17.8,8,0,0,-1,0,0,0,0
2476897,1.58E+12,0.86,0.5,-0.19,0,2,-9,0,0,0,0,2.18,2.51,1.57,0.49,0,0,0,0,0,0,0,0,0,0,0,13.109997,80.18988,10.76,-17.8,8,0,0,-1,0,0,0,0
2476917,1.58E+12,0.97,0.25,-0.36,1,2,-8,0,0,0,0,2.18,2.51,1.57,0.49,0,0,0,0,0,0,0,0,0,0,0,13.109997,80.18988,10.76,-17.8,8,0,0,-1,0,0,0,0
2476937,1.58E+12,0.91,0.19,-0.19,2,-1,-6,0,0,0,0,2.18,2.51,1.57,0.49,0,0,0,0,0,0,0,0,0,0,0,13.109997,80.18988,10.76,-17.8,8,0,0,-1,0,0,0,0
2476957,1.58E+12,0.96,0.24,-0.33,2,0,-4,0,0,0,0,2.46,2.51,1.77,0.49,0,0,0,0,0,0,0,0,0,0,0,13.109997,80.18988,10.76,-17.8,8,0,0,-1,0,0,0,0
2476977,1.58E+12,0.97,0.14,-0.26,3,0,-4,0,0,0,0,2.46,2.51,1.77,0.49,0,0,0,0,0,0,0,0,0,0,0,13.110013,80.189888,10.94,-17.8,8,0,0,-1,0,0,0,0
2476997,1.58E+12,0.96,0.24,-0.16,2,2,-3,0,0,0,0,2.46,2.51,1.77,0.49,0,0,0,0,0,0,0,0,0,0,0,13.110013,80.189888,10.94,-17.8,8,0,0,-1,0,0,0,0
2477017,1.58E+12,0.96,0.31,-0.12,1,-5,-2,0,0,0,0,2.46,2.51,1.77,0.49,0,0,0,0,0,0,0,0,0,0,0,13.110013,80.189888,10.94,-17.8,8,0,0,-1,0,0,0,0
2477037,1.58E+12,0.91,0.3,-0.2,0,-8,-2,0,0,0,0,2.46,2.51,1.77,0.49,0,0,0,0,0,0,0,0,0,0,0,13.110013,80.189888,10.94,-17.8,8,0,0,-1,0,0,0,0
2477057,1.58E+12,1.01,0.3,-0.38,0,-6,1,0,0,0,0,2.61,2.51,1.96,0.49,0,0,0,0,0,0,0,0,0,0,0,13.110013,80.189888,10.94,-17.8,8,0,0,-1,0,0,0,0
2477077,1.58E+12,0.96,0.2,-0.31,-1,-5,2,0,0,0,0,2.61,2.51,1.96,0.49,0,0,0,0,0,0,0,0,0,0,0,13.110027,80.189896,11.11,-17.8,8,0,0,-1,0,0,0,0
2477097,1.58E+12,0.92,0.32,-0.25,-2,-2,2,0,0,0,0,2.61,2.51,1.96,0.49,0,0,0,0,0,0,0,0,0,0,0,13.110027,80.189896,11.11,-17.8,8,0,0,-1,0,0,0,0
2477117,1.58E+12,0.91,0.39,-0.24,-2,1,4,0,0,0,0,2.61,2.51,1.96,0.49,0,0,0,0,0,0,0,0,0,0,0,13.110027,80.189896,11.11,-17.8,8,0,0,-1,0,0,0,0
2477137,1.58E+12,0.87,0.39,-0.26,-2,2,5,0,0,0,0,2.61,2.51,1.96,0.49,0,0,0,0,0,0,0,0,0,0,0,13.110027,80.189896,11.11,-17.8,8,0,0,-1,0,0,0,0
2477157,1.58E+12,0.87,0.37,-0.33,-1,3,6,0,0,0,0,2.73,2.52,2.12,0.48,0,0,0,0,0,0,0,0,0,0,0,13.110027,80.189896,11.11,-17.8,8,0,0,-1,0,0,0,0
2477177,1.58E+12,0.94,0.33,-0.5,0,5,7,0,0,0,0,2.73,2.52,2.12,0.48,0,0,0,0,0,0,0,0,0,0,0,13.11004,80.189903,11.23,-17.9,8,0,0,-1,0,0,0,0
2477197,1.58E+12,1,0.26,-0.46,0,-1,5,0,0,0,0,2.73,2.52,2.12,0.48,0,0,0,0,0,0,0,0,0,0,0,13.11004,80.189903,11.23,-17.9,8,0,0,-1,0,0,0,0
2477217,1.58E+12,0.9,0.22,-0.32,1,-6,2,0,0,0,0,2.73,2.52,2.12,0.48,0,0,0,0,0,0,0,0,0,0,0,13.11004,80.189903,11.23,-17.9,8,0,0,-1,0,0,0,0
2477237,1.58E+12,0.88,0.32,-0.3,1,-9,2,0,0,0,0,2.73,2.52,2.12,0.48,0,0,0,0,0,0,0,0,0,0,0,13.11004,80.189903,11.23,-17.9,8,0,0,-1,0,0,0,0
2477257,1.58E+12,0.94,0.3,-0.34,0,-5,3,0,0,0,0,2.77,2.52,2.3,0.48,0,0,0,0,0,0,0,0,0,0,0,13.11004,80.189903,11.23,-17.9,8,0,0,-1,0,0,0,0
2477277,1.58E+12,0.93,0.35,-0.38,0,-1,3,0,0,0,0,2.77,2.52,2.3,0.48,0,0,0,0,0,0,0,0,0,0,0,13.110042,80.189903,10.22,-17.9,8,0,0,-1,0,0,0,0
2477297,1.58E+12,0.83,0.39,-0.2,1,-2,3,0,0,0,0,2.77,2.52,2.3,0.48,0,0,0,0,0,0,0,0,0,0,0,13.110042,80.189903,10.22,-17.9,8,0,0,-1,0,0,0,0
2477317,1.58E+12,0.9,0.24,0.02,3,-7,0,0,0,0,0,2.77,2.52,2.3,0.48,0,0,0,0,0,0,0,0,0,0,0,13.110042,80.189903,10.22,-17.9,8,0,0,-1,0,0,0,0
2477337,1.58E+12,0.84,0.34,-0.04,3,-7,-1,0,0,0,0,2.77,2.52,2.3,0.48,0,0,0,0,0,0,0,0,0,0,0,13.110042,80.189903,10.22,-17.9,8,0,0,-1,0,0,0,0
2477357,1.58E+12,0.95,0.33,-0.13,3,-4,0,0,0,0,0,2.84,2.51,2.36,0.49,0,0,0,0,0,0,0,0,0,0,0,13.110042,80.189903,10.22,-17.9,8,0,0,-1,0,0,0,0
2477377,1.58E+12,1.01,0.28,-0.2,3,-2,1,0,0,0,0,2.84,2.51,2.36,0.49,0,0,0,0,0,0,0,0,0,0,0,13.110051,80.189903,10.88,-17.9,8,0,0,-1,0,0,0,0
2477397,1.58E+12,0.96,0.27,-0.16,3,-4,-1,0,0,0,0,2.84,2.51,2.36,0.49,0,0,0,0,0,0,0,0,0,0,0,13.110051,80.189903,10.88,-17.9,8,0,0,-1,0,0,0,0
2477417,1.58E+12,0.92,0.25,-0.22,1,-4,-2,0,0,0,0,2.84,2.51,2.36,0.49,0,0,0,0,0,0,0,0,0,0,0,13.110051,80.189903,10.88,-17.9,8,0,0,-1,0,0,0,0
2477437,1.58E+12,0.96,0.33,-0.19,0,-3,-3,0,0,0,0,2.84,2.51,2.36,0.49,0,0,0,0,0,0,0,0,0,0,0,13.110051,80.189903,10.88,-17.9,8,0,0,-1,0,0,0,0
2477457,1.58E+12,0.95,0.36,-0.08,-1,-2,-3,0,0,0,0,2.87,2.52,2.61,0.48,0,0,0,0,0,0,0,0,0,0,0,13.110051,80.189903,10.88,-17.9,8,0,0,-1,0,0,0,0
2477477,1.58E+12,0.83,0.4,0.05,-1,0,-3,0,0,0,0,2.87,2.52,2.61,0.48,0,0,0,0,0,0,0,0,0,0,0,13.110057,80.189903,11.06,-17.9,8,0,0,-1,0,0,0,0
2477497,1.58E+12,0.91,0.35,-0.16,-2,5,-3,0,0,0,0,2.87,2.52,2.61,0.48,0,0,0,0,0,0,0,0,0,0,0,13.110057,80.189903,11.06,-17.9,8,0,0,-1,0,0,0,0
2477517,1.58E+12,0.99,0.26,-0.22,-1,3,-3,0,0,0,0,2.87,2.52,2.61,0.48,0,0,0,0,0,0,0,0,0,0,0,13.110057,80.189903,11.06,-17.9,8,0,0,-1,0,0,0,0
2477537,1.58E+12,0.91,0.29,-0.05,0,0,-2,0,0,0,0,2.87,2.52,2.61,0.48,0,0,0,0,0,0,0,0,0,0,0,13.110057,80.189903,11.06,-17.9,8,0,0,-1,0,0,0,0
2477557,1.58E+12,1,0.41,-0.12,0,-1,-3,0,0,0,0,2.89,2.52,2.67,0.48,0,0,0,0,0,0,0,0,0,0,0,13.110057,80.189903,11.06,-17.9,8,0,0,-1,0,0,0,0
2477577,1.58E+12,0.98,0.39,-0.11,1,-1,-2,0,0,0,0,2.89,2.52,2.67,0.48,0,0,0,0,0,0,0,0,0,0,0,13.110065,80.189903,11.54,-17.9,8,0,0,-1,0,0,0,0
2477597,1.58E+12,0.89,0.47,-0.01,0,-1,-3,0,0,0,0,2.89,2.52,2.67,0.48,0,0,0,0,0,0,0,0,0,0,0,13.110065,80.189903,11.54,-17.9,8,0,0,-1,0,0,0,0
2477617,1.58E+12,0.93,0.48,-0.21,0,2,-4,0,0,0,0,2.89,2.52,2.67,0.48,0,0,0,0,0,0,0,0,0,0,0,13.110065,80.189903,11.54,-17.9,8,0,0,-1,0,0,0,0
2477637,1.58E+12,0.99,0.4,-0.3,-1,0,-3,0,0,0,0,2.89,2.52,2.67,0.48,0,0,0,0,0,0,0,0,0,0,0,13.110065,80.189903,11.54,-17.9,8,0,0,-1,0,0,0,0
2477657,1.58E+12,0.95,0.43,-0.38,-2,-1,-4,0,0,0,0,2.85,2.52,2.6,0.48,0,0,0,0,0,0,0,0,0,0,0,13.110065,80.189903,11.54,-17.9,8,0,0,-1,0,0,0,0
2477677,1.58E+12,1,0.35,-0.39,-2,-2,-4,0,0,0,0,2.85,2.52,2.6,0.48,0,0,0,0,0,0,0,0,0,0,0,13.110075,80.189903,12.76,-17.9,8,0,0,-1,0,0,0,0
2477697,1.58E+12,0.93,0.42,-0.24,-2,0,-4,0,0,0,0,2.85,2.52,2.6,0.48,0,0,0,0,0,0,0,0,0,0,0,13.110075,80.189903,12.76,-17.9,8,0,0,-1,0,0,0,0
2477717,1.58E+12,1.03,0.33,-0.42,-2,2,-4,0,0,0,0,2.85,2.52,2.6,0.48,0,0,0,0,0,0,0,0,0,0,0,13.110075,80.189903,12.76,-17.9,8,0,0,-1,0,0,0,0
2477737,1.58E+12,0.89,0.33,-0.36,-2,2,-3,0,0,0,0,2.85,2.52,2.6,0.48,0,0,0,0,0,0,0,0,0,0,0,13.110075,80.189903,12.76,-17.9,8,0,0,-1,0,0,0,0
2477757,1.58E+12,0.93,0.46,-0.34,-2,4,-3,0,0,0,0,2.82,2.52,2.83,0.48,0,0,0,0,0,0,0,0,0,0,0,13.110075,80.189903,12.76,-17.9,8,0,0,-1,0,0,0,0
2477777,1.58E+12,0.97,0.4,-0.27,-1,3,-3,0,0,0,0,2.82,2.52,2.83,0.48,0,0,0,0,0,0,0,0,0,0,0,13.110082,80.189903,12.77,-17.9,8,0,0,-1,0,0,0,0
2477797,1.58E+12,0.92,0.55,-0.09,-1,4,-2,0,0,0,0,2.82,2.52,2.83,0.48,0,0,0,0,0,0,0,0,0,0,0,13.110082,80.189903,12.77,-17.9,8,0,0,-1,0,0,0,0
2477817,1.58E+12,0.92,0.5,-0.17,1,3,-2,0,0,0,0,2.82,2.52,2.83,0.48,0,0,0,0,0,0,0,0,0,0,0,13.110082,80.189903,12.77,-17.9,8,0,0,-1,0,0,0,0
2477837,1.58E+12,0.93,0.65,-0.21,1,3,-3,0,0,0,0,2.82,2.52,2.83,0.48,0,0,0,0,0,0,0,0,0,0,0,13.110082,80.189903,12.77,-17.9,8,0,0,-1,0,0,0,0
2477857,1.58E+12,0.96,0.57,-0.11,2,1,-3,0,0,0,0,2.82,2.52,2.49,0.48,0,0,0,0,0,0,0,0,0,0,0,13.110082,80.189903,12.77,-17.9,8,0,0,-1,0,0,0,0
2477877,1.58E+12,0.96,0.71,0.1,0,2,-2,0,0,0,0,2.82,2.52,2.49,0.48,0,0,0,0,0,0,0,0,0,0,0,13.110093,80.189911,13.87,-17.9,8,0,0,-1,0,0,0,0
2477897,1.58E+12,1,0.57,-0.03,0,0,-2,0,0,0,0,2.82,2.52,2.49,0.48,0,0,0,0,0,0,0,0,0,0,0,13.110093,80.189911,13.87,-17.9,8,0,0,-1,0,0,0,0
2477917,1.58E+12,0.94,0.72,0.12,-1,0,-1,0,0,0,0,2.82,2.52,2.49,0.48,0,0,0,0,0,0,0,0,0,0,0,13.110093,80.189911,13.87,-17.9,8,0,0,-1,0,0,0,0
2477937,1.58E+12,0.94,0.63,0.19,0,-1,-1,0,0,0,0,2.82,2.52,2.49,0.48,0,0,0,0,0,0,0,0,0,0,0,13.110093,80.189911,13.87,-17.9,8,0,0,-1,0,0,0,0
2477957,1.58E+12,1.02,0.71,0.17,-1,0,-1,0,0,0,0,2.82,2.51,2.67,0.49,0,0,0,0,0,0,0,0,0,0,0,13.110093,80.189911,13.87,-17.9,8,0,0,-1,0,0,0,0
2477977,1.58E+12,0.99,0.7,0.33,-1,-1,0,0,0,0,0,2.82,2.51,2.67,0.49,0,0,0,0,0,0,0,0,0,0,0,13.110106,80.189911,15.28,-18,8,0,0,-1,0,0,0,0
2477997,1.58E+12,1.01,0.64,0.39,0,-3,-1,0,0,0,0,2.82,2.51,2.67,0.49,0,0,0,0,0,0,0,0,0,0,0,13.110106,80.189911,15.28,-18,8,0,0,-1,0,0,0,0
2478017,1.58E+12,0.86,0.61,0.37,-1,1,2,0,0,0,0,2.82,2.51,2.67,0.49,0,0,0,0,0,0,0,0,0,0,0,13.110106,80.189911,15.28,-18,8,0,0,-1,0,0,0,0
2478037,1.58E+12,0.97,0.42,0.28,0,0,1,0,0,0,0,2.82,2.51,2.67,0.49,0,0,0,0,0,0,0,0,0,0,0,13.110106,80.189911,15.28,-18,8,0,0,-1,0,0,0,0
2478057,1.58E+12,0.88,0.45,0.28,-1,4,4,0,0,0,0,2.82,2.5,2.3,0.5,0,0,0,0,0,0,0,0,0,0,0,13.110106,80.189911,15.28,-18,8,0,0,-1,0,0,0,0
2478077,1.58E+12,0.96,0.29,0.17,0,4,2,0,0,0,0,2.82,2.5,2.3,0.5,0,0,0,0,0,0,0,0,0,0,0,13.110116,80.189911,16.22,-18,8,0,0,-1,0,0,0,0
2478097,1.58E+12,0.89,0.39,0.27,-1,4,3,0,0,0,0,2.82,2.5,2.3,0.5,0,0,0,0,0,0,0,0,0,0,0,13.110116,80.189911,16.22,-18,8,0,0,-1,0,0,0,0
2478117,1.58E+12,0.92,0.18,0.15,0,4,2,0,0,0,0,2.82,2.5,2.3,0.5,0,0,0,0,0,0,0,0,0,0,0,13.110116,80.189911,16.22,-18,8,0,0,-1,0,0,0,0
2478137,1.58E+12,0.95,0.24,0.15,0,0,1,0,0,0,0,2.82,2.5,2.3,0.5,0,0,0,0,0,0,0,0,0,0,0,13.110116,80.189911,16.22,-18,8,0,0,-1,0,0,0,0
2478157,1.58E+12,1.03,0.42,0.06,0,3,2,0,0,0,0,2.83,2.51,2.34,0.49,0,0,0,0,0,0,0,0,0,0,0,13.110116,80.189911,16.22,-18,8,0,0,-1,0,0,0,0
2478177,1.58E+12,1.02,0.57,0.25,-1,-2,2,0,0,0,0,2.83,2.51,2.34,0.49,0,0,0,0,0,0,0,0,0,0,0,13.110125,80.189911,16.62,-18,8,0,0,-1,0,0,0,0
2478197,1.58E+12,0.97,0.71,0.31,-1,2,3,0,0,0,0,2.83,2.51,2.34,0.49,0,0,0,0,0,0,0,0,0,0,0,13.110125,80.189911,16.62,-18,8,0,0,-1,0,0,0,0
2478217,1.58E+12,0.96,0.67,0.22,-2,2,4,0,0,0,0,2.83,2.51,2.34,0.49,0,0,0,0,0,0,0,0,0,0,0,13.110125,80.189911,16.62,-18,8,0,0,-1,0,0,0,0
2478237,1.58E+12,0.91,0.72,0.12,-1,-1,4,0,0,0,0,2.83,2.51,2.34,0.49,0,0,0,0,0,0,0,0,0,0,0,13.110125,80.189911,16.62,-18,8,0,0,-1,0,0,0,0
2478257,1.58E+12,0.93,0.65,0.05,0,-2,4,0,0,0,0,2.83,2.5,2.16,0.5,0,0,0,0,0,0,0,0,0,0,0,13.110125,80.189911,16.62,-18,8,0,0,-1,0,0,0,0
2478277,1.58E+12,0.87,0.62,0.12,2,-9,3,0,0,0,0,2.83,2.5,2.16,0.5,0,0,0,0,0,0,0,0,0,0,0,13.110138,80.189919,17.86,-17.9,8,0,0,-1,0,0,0,0
2478297,1.58E+12,0.94,0.43,0.21,2,-15,1,0,0,0,0,2.83,2.5,2.16,0.5,0,0,0,0,0,0,0,0,0,0,0,13.110138,80.189919,17.86,-17.9,8,0,0,-1,0,0,0,0
2478317,1.58E+12,0.87,0.31,0.39,2,-19,1,0,0,0,0,2.83,2.5,2.16,0.5,0,0,0,0,0,0,0,0,0,0,0,13.110138,80.189919,17.86,-17.9,8,0,0,-1,0,0,0,0
2478337,1.58E+12,0.68,0.32,0.54,1,-14,0,0,0,0,0,2.83,2.5,2.16,0.5,0,0,0,0,0,0,0,0,0,0,0,13.110138,80.189919,17.86,-17.9,8,0,0,-1,0,0,0,0
2478357,1.58E+12,0.7,0.32,0.29,0,-12,1,0,0,0,0,2.82,2.52,2.31,0.48,0,0,0,0,0,0,0,0,0,0,0,13.110138,80.189919,17.86,-17.9,8,0,0,-1,0,0,0,0
2478377,1.58E+12,0.73,0.4,0.15,-1,-9,3,0,0,0,0,2.82,2.52,2.31,0.48,0,0,0,0,0,0,0,0,0,0,0,13.110149,80.189919,18.69,-18,8,0,0,-1,0,0,0,0
2478397,1.58E+12,0.74,0.39,0.08,-1,-13,2,0,0,0,0,2.82,2.52,2.31,0.48,0,0,0,0,0,0,0,0,0,0,0,13.110149,80.189919,18.69,-18,8,0,0,-1,0,0,0,0
2478417,1.58E+12,0.74,0.24,0.08,1,-16,1,0,0,0,0,2.82,2.52,2.31,0.48,0,0,0,0,0,0,0,0,0,0,0,13.110149,80.189919,18.69,-18,8,0,0,-1,0,0,0,0
2478437,1.58E+12,0.69,0.26,0.07,1,-15,1,0,0,0,0,2.82,2.52,2.31,0.48,0,0,0,0,0,0,0,0,0,0,0,13.110149,80.189919,18.69,-18,8,0,0,-1,0,0,0,0
2478457,1.58E+12,0.82,0.34,0.06,0,-10,2,0,0,0,0,2.84,2.52,2.41,0.48,0,0,0,0,0,0,0,0,0,0,0,13.110149,80.189919,18.69,-18,8,0,0,-1,0,0,0,0
2478477,1.58E+12,0.92,0.38,-0.09,0,-11,2,0,0,0,0,2.84,2.52,2.41,0.48,0,0,0,0,0,0,0,0,0,0,0,13.110162,80.189926,19.57,-18,8,0,0,-1,0,0,0,0
2478497,1.58E+12,0.85,0.4,-0.05,0,-13,1,0,0,0,0,2.84,2.52,2.41,0.48,0,0,0,0,0,0,0,0,0,0,0,13.110162,80.189926,19.57,-18,8,0,0,-1,0,0,0,0
2478517,1.58E+12,0.82,0.29,-0.01,0,-14,-1,0,0,0,0,2.84,2.52,2.41,0.48,0,0,0,0,0,0,0,0,0,0,0,13.110162,80.189926,19.57,-18,8,0,0,-1,0,0,0,0
2478537,1.58E+12,0.84,0.28,-0.01,-1,-17,-3,0,0,0,0,2.84,2.52,2.41,0.48,0,0,0,0,0,0,0,0,0,0,0,13.110162,80.189926,19.57,-18,8,0,0,-1,0,0,0,0
2478557,1.58E+12,0.92,0.37,0.02,-1,-14,-2,0,0,0,0,2.88,2.52,2.48,0.48,0,0,0,0,0,0,0,0,0,0,0,13.110162,80.189926,19.57,-18,8,0,0,-1,0,0,0,0
2478577,1.58E+12,0.94,0.4,0.02,-1,-11,-3,0,0,0,0,2.88,2.52,2.48,0.48,0,0,0,0,0,0,0,0,0,0,0,13.110174,80.189926,20.43,-18,8,0,0,-1,0,0,0,0
2478597,1.58E+12,0.89,0.42,0.08,-1,-9,-3,0,0,0,0,2.88,2.52,2.48,0.48,0,0,0,0,0,0,0,0,0,0,0,13.110174,80.189926,20.43,-18,8,0,0,-1,0,0,0,0
2478617,1.58E+12,0.9,0.32,0.19,0,-9,-5,0,0,0,0,2.88,2.52,2.48,0.48,0,0,0,0,0,0,0,0,0,0,0,13.110174,80.189926,20.43,-18,8,0,0,-1,0,0,0,0
2478637,1.58E+12,0.86,0.36,0.11,0,-6,-6,0,0,0,0,2.88,2.52,2.48,0.48,0,0,0,0,0,0,0,0,0,0,0,13.110174,80.189926,20.43,-18,8,0,0,-1,0,0,0,0
2478657,1.58E+12,0.81,0.38,0,0,-4,-4,0,0,0,0,2.85,2.51,2.56,0.49,0,0,0,0,0,0,0,0,0,0,0,13.110174,80.189926,20.43,-18,8,0,0,-1,0,0,0,0
2478677,1.58E+12,0.67,0.42,-0.1,1,-5,-4,0,0,0,0,2.85,2.51,2.56,0.49,0,0,0,0,0,0,0,0,0,0,0,13.110183,80.189926,20.66,-18,8,0,0,-1,0,0,0,0
2478697,1.58E+12,0.74,0.34,-0.02,2,-10,-4,0,0,0,0,2.85,2.51,2.56,0.49,0,0,0,0,0,0,0,0,0,0,0,13.110183,80.189926,20.66,-18,8,0,0,-1,0,0,0,0
2478717,1.58E+12,0.71,0.36,-0.05,2,-12,-5,0,0,0,0,2.85,2.51,2.56,0.49,0,0,0,0,0,0,0,0,0,0,0,13.110183,80.189926,20.66,-18,8,0,0,-1,0,0,0,0
2478737,1.58E+12,0.76,0.45,-0.15,1,-11,-4,0,0,0,0,2.85,2.51,2.56,0.49,0,0,0,0,0,0,0,0,0,0,0,13.110183,80.189926,20.66,-18,8,0,0,-1,0,0,0,0
2478757,1.58E+12,0.75,0.38,-0.13,1,-9,-4,0,0,0,0,2.87,2.52,2.36,0.48,0,0,0,0,0,0,0,0,0,0,0,13.110183,80.189926,20.66,-18,8,0,0,-1,0,0,0,0
2478777,1.58E+12,0.8,0.35,0.02,0,-11,-4,0,0,0,0,2.87,2.52,2.36,0.48,0,0,0,0,0,0,0,0,0,0,0,13.110195,80.189934,21.45,-18,8,0,0,-1,0,0,0,0
2478797,1.58E+12,0.87,0.39,0.01,0,-9,-5,0,0,0,0,2.87,2.52,2.36,0.48,0,0,0,0,0,0,0,0,0,0,0,13.110195,80.189934,21.45,-18,8,0,0,-1,0,0,0,0
2478817,1.58E+12,0.97,0.34,-0.09,0,-8,-5,0,0,0,0,2.87,2.52,2.36,0.48,0,0,0,0,0,0,0,0,0,0,0,13.110195,80.189934,21.45,-18,8,0,0,-1,0,0,0,0
2478837,1.58E+12,1.03,0.31,-0.11,0,-8,-5,0,0,0,0,2.87,2.52,2.36,0.48,0,0,0,0,0,0,0,0,0,0,0,13.110195,80.189934,21.45,-18,8,0,0,-1,0,0,0,0
2478857,1.58E+12,1.01,0.45,-0.05,0,-7,-5,0,0,0,0,2.86,2.52,2.58,0.48,0,0,0,0,0,0,0,0,0,0,0,13.110195,80.189934,21.45,-18,8,0,0,-1,0,0,0,0
2478877,1.58E+12,1.04,0.51,-0.05,-1,-4,-5,0,0,0,0,2.86,2.52,2.58,0.48,0,0,0,0,0,0,0,0,0,0,0,13.110204,80.189934,21.6,-18,8,0,0,-1,0,0,0,0
2478897,1.58E+12,1.06,0.41,-0.18,-1,-5,-5,0,0,0,0,2.86,2.52,2.58,0.48,0,0,0,0,0,0,0,0,0,0,0,13.110204,80.189934,21.6,-18,8,0,0,-1,0,0,0,0
2478917,1.58E+12,0.97,0.38,-0.03,-2,-5,-6,0,0,0,0,2.86,2.52,2.58,0.48,0,0,0,0,0,0,0,0,0,0,0,13.110204,80.189934,21.6,-18,8,0,0,-1,0,0,0,0
2478937,1.58E+12,0.97,0.42,-0.23,-2,-2,-6,0,0,0,0,2.86,2.52,2.58,0.48,0,0,0,0,0,0,0,0,0,0,0,13.110204,80.189934,21.6,-18,8,0,0,-1,0,0,0,0
2478957,1.58E+12,0.91,0.38,-0.33,-1,-2,-6,0,0,0,0,2.85,2.52,2.31,0.48,0,0,0,0,0,0,0,0,0,0,0,13.110204,80.189934,21.6,-18,8,0,0,-1,0,0,0,0
2478977,1.58E+12,0.83,0.35,-0.16,0,-6,-5,0,0,0,0,2.85,2.52,2.31,0.48,0,0,0,0,0,0,0,0,0,0,0,13.110217,80.189941,22.44,-18,8,0,0,-1,0,0,0,0
2478997,1.58E+12,0.85,0.47,-0.3,1,-5,-5,0,0,0,0,2.85,2.52,2.31,0.48,0,0,0,0,0,0,0,0,0,0,0,13.110217,80.189941,22.44,-18,8,0,0,-1,0,0,0,0
2479017,1.58E+12,0.96,0.3,-0.3,2,-7,-5,0,0,0,0,2.85,2.52,2.31,0.48,0,0,0,0,0,0,0,0,0,0,0,13.110217,80.189941,22.44,-18,8,0,0,-1,0,0,0,0
2479037,1.58E+12,0.85,0.31,-0.11,2,-7,-4,0,0,0,0,2.85,2.52,2.31,0.48,0,0,0,0,0,0,0,0,0,0,0,13.110217,80.189941,22.44,-18,8,0,0,-1,0,0,0,0
2479057,1.58E+12,0.85,0.37,-0.23,1,-6,-4,0,0,0,0,2.82,2.52,2.38,0.48,0,0,0,0,0,0,0,0,0,0,0,13.110217,80.189941,22.44,-18,8,0,0,-1,0,0,0,0
2479077,1.58E+12,0.83,0.28,-0.2,2,-7,-4,0,0,0,0,2.82,2.52,2.38,0.48,0,0,0,0,0,0,0,0,0,0,0,13.110229,80.189941,23.25,-18,8,0,0,-1,0,0,0,0
2479097,1.58E+12,0.85,0.35,-0.08,1,-7,-4,0,0,0,0,2.82,2.52,2.38,0.48,0,0,0,0,0,0,0,0,0,0,0,13.110229,80.189941,23.25,-18,8,0,0,-1,0,0,0,0
2479117,1.58E+12,0.92,0.26,-0.1,0,-4,-4,0,0,0,0,2.82,2.52,2.38,0.48,0,0,0,0,0,0,0,0,0,0,0,13.110229,80.189941,23.25,-18,8,0,0,-1,0,0,0,0
2479137,1.58E+12,0.89,0.19,-0.1,0,-3,-5,0,0,0,0,2.82,2.52,2.38,0.48,0,0,0,0,0,0,0,0,0,0,0,13.110229,80.189941,23.25,-18,8,0,0,-1,0,0,0,0
2479157,1.58E+12,0.87,0.24,-0.17,-1,-3,-4,0,0,0,0,2.82,2.5,2.35,0.5,0,0,0,0,0,0,0,0,0,0,0,13.110229,80.189941,23.25,-18,8,0,0,-1,0,0,0,0
2479177,1.58E+12,0.93,0.17,-0.24,-1,-4,-4,0,0,0,0,2.82,2.5,2.35,0.5,0,0,0,0,0,0,0,0,0,0,0,13.110242,80.189941,23.79,-18,8,0,0,-1,0,0,0,0
2479197,1.58E+12,0.85,0.09,-0.16,0,-6,-5,0,0,0,0,2.82,2.5,2.35,0.5,0,0,0,0,0,0,0,0,0,0,0,13.110242,80.189941,23.79,-18,8,0,0,-1,0,0,0,0
2479217,1.58E+12,0.88,-0.04,-0.24,0,-5,-5,0,0,0,0,2.82,2.5,2.35,0.5,0,0,0,0,0,0,0,0,0,0,0,13.110242,80.189941,23.79,-18,8,0,0,-1,0,0,0,0
2479237,1.58E+12,0.98,0.1,-0.32,0,-2,-3,0,0,0,0,2.82,2.5,2.35,0.5,0,0,0,0,0,0,0,0,0,0,0,13.110242,80.189941,23.79,-18,8,0,0,-1,0,0,0,0
2479257,1.58E+12,1.01,0,-0.38,0,-3,-5,0,0,0,0,2.82,2.51,2.32,0.49,0,0,0,0,0,0,0,0,0,0,0,13.110242,80.189941,23.79,-18,8,0,0,-1,0,0,0,0
2479277,1.58E+12,0.96,0,-0.3,0,-4,-5,0,0,0,0,2.82,2.51,2.32,0.49,0,0,0,0,0,0,0,0,0,0,0,13.110251,80.189941,23.79,-18,7,0,0,-1,0,0,0,0
2479297,1.58E+12,0.98,-0.14,-0.37,0,-2,-3,0,0,0,0,2.82,2.51,2.32,0.49,0,0,0,0,0,0,0,0,0,0,0,13.110251,80.189941,23.79,-18,7,0,0,-1,0,0,0,0
2479317,1.58E+12,0.97,-0.1,-0.35,0,-3,-2,0,0,0,0,2.82,2.51,2.32,0.49,0,0,0,0,0,0,0,0,0,0,0,13.110251,80.189941,23.79,-18,7,0,0,-1,0,0,0,0
2479337,1.58E+12,0.88,-0.17,-0.27,1,-6,-3,0,0,0,0,2.82,2.51,2.32,0.49,0,0,0,0,0,0,0,0,0,0,0,13.110251,80.189941,23.79,-18,7,0,0,-1,0,0,0,0
2479357,1.58E+12,0.93,-0.24,-0.3,1,-9,-2,0,0,0,0,2.81,2.5,2.2,0.5,0,0,0,0,0,0,0,0,0,0,0,13.110251,80.189941,23.79,-18,7,0,0,-1,0,0,0,0
2479377,1.58E+12,0.97,-0.16,-0.15,1,-6,-1,0,0,0,0,2.81,2.5,2.2,0.5,0,0,0,0,0,0,0,0,0,0,0,13.110264,80.189949,24.48,-18,7,0,0,-1,0,0,0,0
2479397,1.58E+12,0.95,-0.28,-0.11,2,-5,-3,0,0,0,0,2.81,2.5,2.2,0.5,0,0,0,0,0,0,0,0,0,0,0,13.110264,80.189949,24.48,-18,7,0,0,-1,0,0,0,0
2479417,1.58E+12,0.89,-0.32,-0.07,2,0,-4,0,0,0,0,2.81,2.5,2.2,0.5,0,0,0,0,0,0,0,0,0,0,0,13.110264,80.189949,24.48,-18,7,0,0,-1,0,0,0,0
2479437,1.58E+12,0.89,-0.23,-0.18,2,4,-3,0,0,0,0,2.81,2.5,2.2,0.5,0,0,0,0,0,0,0,0,0,0,0,13.110264,80.189949,24.48,-18,7,0,0,-1,0,0,0,0
2479457,1.58E+12,0.86,-0.13,-0.18,2,6,-3,0,0,0,0,2.82,2.51,2.12,0.49,0,0,0,0,0,0,0,0,0,0,0,13.110264,80.189949,24.48,-18,7,0,0,-1,0,0,0,0
2479477,1.58E+12,0.88,-0.13,-0.2,2,3,-3,0,0,0,0,2.82,2.51,2.12,0.49,0,0,0,0,0,0,0,0,0,0,0,13.110274,80.189949,24.64,-18,7,0,0,-1,0,0,0,0
2479497,1.58E+12,0.85,-0.19,-0.23,3,-1,-5,0,0,0,0,2.82,2.51,2.12,0.49,0,0,0,0,0,0,0,0,0,0,0,13.110274,80.189949,24.64,-18,7,0,0,-1,0,0,0,0
2479517,1.58E+12,0.81,-0.23,-0.11,2,-4,-7,0,0,0,0,2.82,2.51,2.12,0.49,0,0,0,0,0,0,0,0,0,0,0,13.110274,80.189949,24.64,-18,7,0,0,-1,0,0,0,0
2479537,1.58E+12,0.85,-0.34,-0.13,2,-6,-9,0,0,0,0,2.82,2.51,2.12,0.49,0,0,0,0,0,0,0,0,0,0,0,13.110274,80.189949,24.64,-18,7,0,0,-1,0,0,0,0
2479557,1.58E+12,0.93,-0.48,-0.11,2,-6,-11,0,0,0,0,2.82,2.52,2.2,0.48,0,0,0,0,0,0,0,0,0,0,0,13.110274,80.189949,24.64,-18,7,0,0,-1,0,0,0,0
2479577,1.58E+12,0.99,-0.55,-0.14,2,-5,-11,0,0,0,0,2.82,2.52,2.2,0.48,0,0,0,0,0,0,0,0,0,0,0,13.110285,80.189949,24.79,-18,7,0,0,-1,0,0,0,0
2479597,1.58E+12,1.05,-0.63,-0.15,1,-1,-11,0,0,0,0,2.82,2.52,2.2,0.48,0,0,0,0,0,0,0,0,0,0,0,13.110285,80.189949,24.79,-18,7,0,0,-1,0,0,0,0
2479617,1.58E+12,1.14,-0.65,-0.22,1,2,-11,0,0,0,0,2.82,2.52,2.2,0.48,0,0,0,0,0,0,0,0,0,0,0,13.110285,80.189949,24.79,-18,7,0,0,-1,0,0,0,0
2479637,1.58E+12,1.21,-0.64,-0.33,0,4,-11,0,0,0,0,2.82,2.52,2.2,0.48,0,0,0,0,0,0,0,0,0,0,0,13.110285,80.189949,24.79,-18,7,0,0,-1,0,0,0,0
2479657,1.58E+12,1.24,-0.67,-0.42,0,4,-10,0,0,0,0,2.83,2.49,2.26,0.51,0,0,0,0,0,0,0,0,0,0,0,13.110285,80.189949,24.79,-18,7,0,0,-1,0,0,0,0
2479677,1.58E+12,1.28,-0.72,-0.47,1,5,-10,0,0,0,0,2.83,2.49,2.26,0.51,0,0,0,0,0,0,0,0,0,0,0,13.110295,80.189957,24.9,-18,7,0,0,-1,0,0,0,0
2479697,1.58E+12,1.29,-0.79,-0.53,1,6,-11,0,0,0,0,2.83,2.49,2.26,0.51,0,0,0,0,0,0,0,0,0,0,0,13.110295,80.189957,24.9,-18,7,0,0,-1,0,0,0,0
2479717,1.58E+12,1.3,-0.88,-0.55,1,7,-11,0,0,0,0,2.83,2.49,2.26,0.51,0,0,0,0,0,0,0,0,0,0,0,13.110295,80.189957,24.9,-18,7,0,0,-1,0,0,0,0
2479737,1.58E+12,1.23,-0.81,-0.55,2,6,-12,0,0,0,0,2.83,2.49,2.26,0.51,0,0,0,0,0,0,0,0,0,0,0,13.110295,80.189957,24.9,-18,7,0,0,-1,0,0,0,0
2479757,1.58E+12,1.17,-0.77,-0.65,3,3,-13,0,0,0,0,2.84,2.51,2.16,0.49,0,0,0,0,0,0,0,0,0,0,0,13.110295,80.189957,24.9,-18,7,0,0,-1,0,0,0,0
2479777,1.58E+12,1.12,-0.65,-0.52,3,1,-12,0,0,0,0,2.84,2.51,2.16,0.49,0,0,0,0,0,0,0,0,0,0,0,13.110308,80.189957,25.32,-18,7,0,0,-1,0,0,0,0
2479797,1.58E+12,1.06,-0.63,-0.47,3,1,-11,0,0,0,0,2.84,2.51,2.16,0.49,0,0,0,0,0,0,0,0,0,0,0,13.110308,80.189957,25.32,-18,7,0,0,-1,0,0,0,0
2479817,1.58E+12,1.03,-0.55,-0.49,4,0,-12,0,0,0,0,2.84,2.51,2.16,0.49,0,0,0,0,0,0,0,0,0,0,0,13.110308,80.189957,25.32,-18,7,0,0,-1,0,0,0,0
2479837,1.58E+12,1.03,-0.63,-0.54,4,6,-12,0,0,0,0,2.84,2.51,2.16,0.49,0,0,0,0,0,0,0,0,0,0,0,13.110308,80.189957,25.32,-18,7,0,0,-1,0,0,0,0
2479857,1.58E+12,1.03,-0.69,-0.64,3,1,-14,0,0,0,0,2.83,2.41,1.96,0.59,0,0,0,0,0,0,0,0,0,0,0,13.110308,80.189957,25.32,-18,7,0,0,-1,0,0,0,0
2479877,1.58E+12,0.91,-0.66,-0.6,3,-2,-15,0,0,0,0,2.83,2.41,1.96,0.59,0,0,0,0,0,0,0,0,0,0,0,13.11032,80.189957,25.72,-18,7,0,0,-1,0,0,0,0
2479897,1.58E+12,0.86,-0.59,-0.49,2,-6,-17,0,0,0,0,2.83,2.41,1.96,0.59,0,0,0,0,0,0,0,0,0,0,0,13.11032,80.189957,25.72,-18,7,0,0,-1,0,0,0,0
2479917,1.58E+12,0.83,-0.62,-0.49,2,-7,-19,0,0,0,0,2.83,2.41,1.96,0.59,0,0,0,0,0,0,0,0,0,0,0,13.11032,80.189957,25.72,-18,7,0,0,-1,0,0,0,0
2479937,1.58E+12,0.7,-0.63,-0.38,2,-8,-21,0,0,0,0,2.83,2.41,1.96,0.59,0,0,0,0,0,0,0,0,0,0,0,13.11032,80.189957,25.72,-18,7,0,0,-1,0,0,0,0
2479957,1.58E+12,0.76,-0.77,-0.41,3,-8,-22,0,0,0,0,2.82,1.84,2.01,1.16,0,0,0,0,0,0,0,0,0,0,0,13.11032,80.189957,25.72,-18,7,0,0,-1,0,0,0,0
2479977,1.58E+12,0.88,-0.71,-0.48,3,-8,-20,0,0,0,0,2.82,1.84,2.01,1.16,0,0,0,0,0,0,0,0,0,0,0,13.110331,80.189957,25.43,-18,7,0,0,-1,0,0,0,0
2479997,1.58E+12,0.92,-0.54,-0.57,4,-7,-20,0,0,0,0,2.82,1.84,2.01,1.16,0,0,0,0,0,0,0,0,0,0,0,13.110331,80.189957,25.43,-18,7,0,0,-1,0,0,0,0
2480017,1.58E+12,0.97,-0.58,-0.53,4,-6,-20,0,0,0,0,2.82,1.84,2.01,1.16,0,0,0,0,0,0,0,0,0,0,0,13.110331,80.189957,25.43,-18,7,0,0,-1,0,0,0,0
2480037,1.58E+12,1.02,-0.57,-0.39,3,-8,-21,0,0,0,0,2.82,1.84,2.01,1.16,0,0,0,0,0,0,0,0,0,0,0,13.110331,80.189957,25.43,-18,7,0,0,-1,0,0,0,0
2480057,1.58E+12,1.1,-0.51,-0.55,1,-7,-20,0,0,0,0,2.81,1.83,2,1.17,0,0,0,0,0,0,0,0,0,0,0,13.110331,80.189957,25.43,-18,7,0,0,-1,0,0,0,0
2480077,1.58E+12,1.13,-0.44,-0.64,-1,-4,-20,0,0,0,0,2.81,1.83,2,1.17,0,0,0,0,0,0,0,0,0,0,0,13.110342,80.189957,25.66,-18,7,0,0,-1,0,0,0,0
2480097,1.58E+12,1.11,-0.5,-0.7,-2,-1,-21,0,0,0,0,2.81,1.83,2,1.17,0,0,0,0,0,0,0,0,0,0,0,13.110342,80.189957,25.66,-18,7,0,0,-1,0,0,0,0
2480117,1.58E+12,0.96,-0.46,-0.54,-3,-2,-22,0,0,0,0,2.81,1.83,2,1.17,0,0,0,0,0,0,0,0,0,0,0,13.110342,80.189957,25.66,-18,7,0,0,-1,0,0,0,0
2480137,1.58E+12,0.86,-0.49,-0.51,-2,-3,-21,0,0,0,0,2.81,1.83,2,1.17,0,0,0,0,0,0,0,0,0,0,0,13.110342,80.189957,25.66,-18,7,0,0,-1,0,0,0,0
2480157,1.58E+12,0.97,-0.35,-0.66,-2,-2,-19,0,0,0,0,2.82,1.6,1.82,1.4,0,0,0,0,0,0,0,0,0,0,0,13.110342,80.189957,25.66,-18,7,0,0,-1,0,0,0,0
2480177,1.58E+12,0.99,-0.32,-0.78,-1,-3,-19,0,0,0,0,2.82,1.6,1.82,1.4,0,0,0,0,0,0,0,0,0,0,0,13.110353,80.189957,25.97,-18,7,0,0,-1,0,0,0,0
2480197,1.58E+12,0.95,-0.32,-0.62,0,-8,-20,0,0,0,0,2.82,1.6,1.82,1.4,0,0,0,0,0,0,0,0,0,0,0,13.110353,80.189957,25.97,-18,7,0,0,-1,0,0,0,0
2480217,1.58E+12,1.02,-0.29,-0.56,0,-10,-23,0,0,0,0,2.82,1.6,1.82,1.4,0,0,0,0,0,0,0,0,0,0,0,13.110353,80.189957,25.97,-18,7,0,0,-1,0,0,0,0
2480237,1.58E+12,1.11,-0.44,-0.64,1,-6,-23,0,0,0,0,2.82,1.6,1.82,1.4,0,0,0,0,0,0,0,0,0,0,0,13.110353,80.189957,25.97,-18,7,0,0,-1,0,0,0,0
2480257,1.58E+12,1.08,-0.29,-0.71,0,-5,-22,0,0,0,0,2.82,1.44,1.44,1.56,0,0,0,0,0,0,0,0,0,0,0,13.110353,80.189957,25.97,-18,7,0,0,-1,0,0,0,0
2480277,1.58E+12,1.05,-0.23,-0.76,0,-5,-21,0,0,0,0,2.82,1.44,1.44,1.56,0,0,0,0,0,0,0,0,0,0,0,13.110366,80.189957,26.17,-18,7,0,0,-1,0,0,0,0
2480297,1.58E+12,0.85,-0.24,-0.64,1,-6,-23,0,0,0,0,2.82,1.44,1.44,1.56,0,0,0,0,0,0,0,0,0,0,0,13.110366,80.189957,26.17,-18,7,0,0,-1,0,0,0,0
2480317,1.58E+12,0.73,-0.24,-0.42,3,-8,-25,0,0,0,0,2.82,1.44,1.44,1.56,0,0,0,0,0,0,0,0,0,0,0,13.110366,80.189957,26.17,-18,7,0,0,-1,0,0,0,0
2480337,1.58E+12,0.76,-0.36,-0.38,4,-8,-26,0,0,0,0,2.82,1.44,1.44,1.56,0,0,0,0,0,0,0,0,0,0,0,13.110366,80.189957,26.17,-18,7,0,0,-1,0,0,0,0
2480357,1.58E+12,0.87,-0.3,-0.54,5,-6,-26,0,0,0,0,2.8,1.43,1.54,1.57,0,0,0,0,0,0,0,0,0,0,0,13.110366,80.189957,26.17,-18,7,0,0,-1,0,0,0,0
2480377,1.58E+12,0.91,-0.27,-0.69,6,-3,-27,0,0,0,0,2.8,1.43,1.54,1.57,0,0,0,0,0,0,0,0,0,0,0,13.110377,80.189957,26.36,-18,7,0,0,-1,0,0,0,0
2480397,1.58E+12,0.86,-0.26,-0.73,6,-3,-28,0,0,0,0,2.8,1.43,1.54,1.57,0,0,0,0,0,0,0,0,0,0,0,13.110377,80.189957,26.36,-18,7,0,0,-1,0,0,0,0
2480417,1.58E+12,0.74,-0.24,-0.6,6,-5,-31,0,0,0,0,2.8,1.43,1.54,1.57,0,0,0,0,0,0,0,0,0,0,0,13.110377,80.189957,26.36,-18,7,0,0,-1,0,0,0,0
2480437,1.58E+12,0.75,-0.2,-0.43,5,-10,-36,0,0,0,0,2.8,1.43,1.54,1.57,0,0,0,0,0,0,0,0,0,0,0,13.110377,80.189957,26.36,-18,7,0,0,-1,0,0,0,0
2480457,1.58E+12,0.83,-0.31,-0.45,5,-13,-41,0,0,0,0,2.79,1.53,1.7,1.47,0,0,0,0,0,0,0,0,0,0,0,13.110377,80.189957,26.36,-18,7,0,0,-1,0,0,0,0
2480477,1.58E+12,0.84,-0.33,-0.61,4,-12,-44,0,0,0,0,2.79,1.53,1.7,1.47,0,0,0,0,0,0,0,0,0,0,0,13.11039,80.189957,26.67,-18,7,0,0,-1,0,0,0,0
2480497,1.58E+12,0.84,-0.22,-0.74,3,-4,-44,0,0,0,0,2.79,1.53,1.7,1.47,0,0,0,0,0,0,0,0,0,0,0,13.11039,80.189957,26.67,-18,7,0,0,-1,0,0,0,0
2480517,1.58E+12,0.75,-0.21,-0.76,3,-1,-44,0,0,0,0,2.79,1.53,1.7,1.47,0,0,0,0,0,0,0,0,0,0,0,13.11039,80.189957,26.67,-18,7,0,0,-1,0,0,0,0
2480537,1.58E+12,0.72,-0.3,-0.6,3,-7,-47,0,0,0,0,2.79,1.53,1.7,1.47,0,0,0,0,0,0,0,0,0,0,0,13.11039,80.189957,26.67,-18,7,0,0,-1,0,0,0,0
2480557,1.58E+12,0.79,-0.3,-0.74,3,-6,-49,0,0,0,0,2.79,1.63,1.77,1.37,0,0,0,0,0,0,0,0,0,0,0,13.11039,80.189957,26.67,-18,7,0,0,-1,0,0,0,0
2480577,1.58E+12,0.85,-0.3,-0.87,2,-2,-48,0,0,0,0,2.79,1.63,1.77,1.37,0,0,0,0,0,0,0,0,0,0,0,13.110402,80.189957,26.93,-18,7,0,0,-1,0,0,0,0
2480597,1.58E+12,0.83,-0.27,-0.99,2,2,-48,0,0,0,0,2.79,1.63,1.77,1.37,0,0,0,0,0,0,0,0,0,0,0,13.110402,80.189957,26.93,-18,7,0,0,-1,0,0,0,0
2480617,1.58E+12,0.77,-0.25,-0.78,2,-4,-50,0,0,0,0,2.79,1.63,1.77,1.37,0,0,0,0,0,0,0,0,0,0,0,13.110402,80.189957,26.93,-18,7,0,0,-1,0,0,0,0
2480637,1.58E+12,0.81,-0.2,-0.81,3,-7,-51,0,0,0,0,2.79,1.63,1.77,1.37,0,0,0,0,0,0,0,0,0,0,0,13.110402,80.189957,26.93,-18,7,0,0,-1,0,0,0,0
2480657,1.58E+12,0.87,-0.19,-0.75,3,0,-48,0,0,0,0,2.72,2.21,1.15,0.79,0,0,0,0,0,0,0,0,0,0,0,13.110402,80.189957,26.93,-18,7,0,0,-1,0,0,0,0
2480677,1.58E+12,0.88,-0.06,-0.82,3,8,-45,0,0,0,0,2.72,2.21,1.15,0.79,0,0,0,0,0,0,0,0,0,0,0,13.110414,80.189957,27.12,-18,7,0,0,-1,0,0,0,0
2480697,1.58E+12,0.87,-0.09,-0.66,4,7,-46,0,0,0,0,2.72,2.21,1.15,0.79,0,0,0,0,0,0,0,0,0,0,0,13.110414,80.189957,27.12,-18,7,0,0,-1,0,0,0,0
2480717,1.58E+12,0.87,-0.11,-0.68,5,2,-47,0,0,0,0,2.72,2.21,1.15,0.79,0,0,0,0,0,0,0,0,0,0,0,13.110414,80.189957,27.12,-18,7,0,0,-1,0,0,0,0
2480737,1.58E+12,0.82,-0.17,-0.65,6,-2,-49,0,0,0,0,2.72,2.21,1.15,0.79,0,0,0,0,0,0,0,0,0,0,0,13.110414,80.189957,27.12,-18,7,0,0,-1,0,0,0,0
2480757,1.58E+12,0.84,-0.19,-0.79,5,2,-49,0,0,0,0,2.65,2.4,1.46,0.6,0,0,0,0,0,0,0,0,0,0,0,13.110414,80.189957,27.12,-18,7,0,0,-1,0,0,0,0
2480777,1.58E+12,0.94,-0.14,-0.91,4,4,-48,0,0,0,0,2.65,2.4,1.46,0.6,0,0,0,0,0,0,0,0,0,0,0,13.110425,80.189957,27.31,-18,7,0,0,-1,0,0,0,0
2480797,1.58E+12,0.94,-0.1,-0.96,2,5,-48,0,0,0,0,2.65,2.4,1.46,0.6,0,0,0,0,0,0,0,0,0,0,0,13.110425,80.189957,27.31,-18,7,0,0,-1,0,0,0,0
2480817,1.58E+12,0.91,-0.11,-0.92,2,1,-49,0,0,0,0,2.65,2.4,1.46,0.6,0,0,0,0,0,0,0,0,0,0,0,13.110425,80.189957,27.31,-18,7,0,0,-1,0,0,0,0
2480837,1.58E+12,0.88,-0.07,-0.72,2,-4,-50,0,0,0,0,2.65,2.4,1.46,0.6,0,0,0,0,0,0,0,0,0,0,0,13.110425,80.189957,27.31,-18,7,0,0,-1,0,0,0,0
2480857,1.58E+12,0.86,-0.03,-0.82,1,2,-50,0,0,0,0,2.13,2.4,1.46,0.6,0,0,0,0,0,0,0,0,0,0,0,13.110425,80.189957,27.31,-18,7,0,0,-1,0,0,0,0
2480877,1.58E+12,0.94,-0.02,-0.81,1,7,-49,0,0,0,0,2.13,2.42,1.23,0.58,0,0,0,0,0,0,0,0,0,0,0,13.110437,80.189957,27.44,-18,7,0,0,-1,0,0,0,0
2480897,1.58E+12,0.93,-0.05,-0.81,2,5,-49,0,0,0,0,2.13,2.42,1.23,0.58,0,0,0,0,0,0,0,0,0,0,0,13.110437,80.189957,27.44,-18,7,0,0,-1,0,0,0,0
2480917,1.58E+12,0.87,0.03,-0.93,2,8,-49,0,0,0,0,2.13,2.42,1.23,0.58,0,0,0,0,0,0,0,0,0,0,0,13.110437,80.189957,27.44,-18,7,0,0,-1,0,0,0,0
2480937,1.58E+12,0.85,0.05,-1.04,2,9,-47,0,0,0,0,2.13,2.42,1.23,0.58,0,0,0,0,0,0,0,0,0,0,0,13.110437,80.189957,27.44,-18,7,0,0,-1,0,0,0,0
2480957,1.58E+12,0.78,0.08,-0.9,2,4,-47,0,0,0,0,2.23,2.42,1.23,0.58,0,0,0,0,0,0,0,0,0,0,0,13.110437,80.189957,27.44,-18,7,0,0,-1,0,0,0,0
2480977,1.58E+12,0.77,0.05,-0.79,3,-4,-48,0,0,0,0,2.23,2.46,1.87,0.54,0,0,0,0,0,0,0,0,0,0,0,13.11045,80.189964,27.63,-18,7,0,0,-1,0,0,0,0
2480997,1.58E+12,0.82,0.08,-0.86,4,-4,-48,0,0,0,0,2.23,2.46,1.87,0.54,0,0,0,0,0,0,0,0,0,0,0,13.11045,80.189964,27.63,-18,7,0,0,-1,0,0,0,0
2481017,1.58E+12,0.9,0.08,-0.96,4,-2,-46,0,0,0,0,2.23,2.46,1.87,0.54,0,0,0,0,0,0,0,0,0,0,0,13.11045,80.189964,27.63,-18,7,0,0,-1,0,0,0,0
2481037,1.58E+12,0.9,0.02,-1.07,4,0,-44,0,0,0,0,2.23,2.46,1.87,0.54,0,0,0,0,0,0,0,0,0,0,0,13.11045,80.189964,27.63,-18,7,0,0,-1,0,0,0,0
2481057,1.58E+12,0.85,0.02,-1.03,3,0,-44,0,0,0,0,2.29,2.46,1.87,0.54,0,0,0,0,0,0,0,0,0,0,0,13.11045,80.189964,27.63,-18,7,0,0,-1,0,0,0,0
2481077,1.58E+12,0.8,0.05,-0.95,3,-4,-45,0,0,0,0,2.29,2.46,1.47,0.54,0,0,0,0,0,0,0,0,0,0,0,13.110462,80.189964,27.81,-18,7,0,0,-1,0,0,0,0
2481097,1.58E+12,0.73,0.09,-0.82,2,-5,-46,0,0,0,0,2.29,2.46,1.47,0.54,0,0,0,0,0,0,0,0,0,0,0,13.110462,80.189964,27.81,-18,7,0,0,-1,0,0,0,0
2481117,1.58E+12,0.74,0.14,-0.71,2,-3,-46,0,0,0,0,2.29,2.46,1.47,0.54,0,0,0,0,0,0,0,0,0,0,0,13.110462,80.189964,27.81,-18,7,0,0,-1,0,0,0,0
2481137,1.58E+12,0.8,0.12,-0.75,2,-1,-45,0,0,0,0,2.29,2.46,1.47,0.54,0,0,0,0,0,0,0,0,0,0,0,13.110462,80.189964,27.81,-18,7,0,0,-1,0,0,0,0
2481157,1.58E+12,0.79,0.14,-0.7,3,0,-44,0,0,0,0,2.29,2.46,1.47,0.54,0,0,0,0,0,0,0,0,0,0,0,13.110462,80.189964,27.81,-18,7,0,0,-1,0,0,0,0
2481177,1.58E+12,0.82,0.17,-0.73,4,3,-42,0,0,0,0,2.29,2.47,1.31,0.53,0,0,0,0,0,0,0,0,0,0,0,13.110474,80.189964,27.98,-18,7,0,0,-1,0,0,0,0
2481197,1.58E+12,0.82,0.2,-0.72,5,2,-41,0,0,0,0,2.29,2.47,1.31,0.53,0,0,0,0,0,0,0,0,0,0,0,13.110474,80.189964,27.98,-18,7,0,0,-1,0,0,0,0
2481217,1.58E+12,0.74,0.1,-0.67,6,2,-41,0,0,0,0,2.29,2.47,1.31,0.53,0,0,0,0,0,0,0,0,0,0,0,13.110474,80.189964,27.98,-18,7,0,0,-1,0,0,0,0
2481237,1.58E+12,0.76,-0.04,-0.64,7,-4,-44,0,0,0,0,2.29,2.47,1.31,0.53,0,0,0,0,0,0,0,0,0,0,0,13.110474,80.189964,27.98,-18,7,0,0,-1,0,0,0,0
2481257,1.58E+12,0.86,-0.16,-0.77,7,-8,-46,0,0,0,0,2.31,2.47,1.31,0.53,0,0,0,0,0,0,0,0,0,0,0,13.110474,80.189964,27.98,-18,7,0,0,-1,0,0,0,0
2481277,1.58E+12,0.88,-0.22,-0.9,6,-2,-47,0,0,0,0,2.31,2.48,1.27,0.52,0,0,0,0,0,0,0,0,0,0,0,13.110485,80.189964,28.09,-18,7,0,0,-1,0,0,0,0
2481297,1.58E+12,0.98,-0.2,-1.01,5,0,-46,0,0,0,0,2.31,2.48,1.27,0.52,0,0,0,0,0,0,0,0,0,0,0,13.110485,80.189964,28.09,-18,7,0,0,-1,0,0,0,0
2481317,1.58E+12,0.93,-0.2,-1.11,4,1,-47,0,0,0,0,2.31,2.48,1.27,0.52,0,0,0,0,0,0,0,0,0,0,0,13.110485,80.189964,28.09,-18,7,0,0,-1,0,0,0,0
2481337,1.58E+12,0.78,-0.21,-0.89,3,-8,-51,0,0,0,0,2.31,2.48,1.27,0.52,0,0,0,0,0,0,0,0,0,0,0,13.110485,80.189964,28.09,-18,7,0,0,-1,0,0,0,0
2481357,1.58E+12,0.84,-0.28,-0.95,2,-12,-56,0,0,0,0,2.26,2.48,1.27,0.52,0,0,0,0,0,0,0,0,0,0,0,13.110485,80.189964,28.09,-18,7,0,0,-1,0,0,0,0
2481377,1.58E+12,0.88,-0.31,-1.06,1,-7,-58,0,0,0,0,2.26,2.48,1.24,0.52,0,0,0,0,0,0,0,0,0,0,0,13.110497,80.189964,27.69,-18,7,0,0,-1,0,0,0,0
2481397,1.58E+12,0.9,-0.21,-1.15,0,-2,-57,0,0,0,0,2.26,2.48,1.24,0.52,0,0,0,0,0,0,0,0,0,0,0,13.110497,80.189964,27.69,-18,7,0,0,-1,0,0,0,0
2481417,1.58E+12,0.94,-0.14,-1.19,-1,5,-56,0,0,0,0,2.26,2.48,1.24,0.52,0,0,0,0,0,0,0,0,0,0,0,13.110497,80.189964,27.69,-18,7,0,0,-1,0,0,0,0
2481437,1.58E+12,0.93,-0.11,-1.24,0,8,-54,0,0,0,0,2.26,2.48,1.24,0.52,0,0,0,0,0,0,0,0,0,0,0,13.110497,80.189964,27.69,-18,7,0,0,-1,0,0,0,0
2481457,1.58E+12,0.81,-0.02,-1.19,1,8,-52,0,0,0,0,2.26,2.48,1.24,0.52,0,0,0,0,0,0,0,0,0,0,0,13.110497,80.189964,27.69,-18,7,0,0,-1,0,0,0,0
2481477,1.58E+12,0.74,0.09,-1.04,2,4,-51,0,0,0,0,2.26,2.48,1.4,0.52,0,0,0,0,0,0,0,0,0,0,0,13.110507,80.189964,27.55,-18,7,0,0,-1,0,0,0,0
2481497,1.58E+12,0.7,0.17,-0.94,4,3,-49,0,0,0,0,2.26,2.48,1.4,0.52,0,0,0,0,0,0,0,0,0,0,0,13.110507,80.189964,27.55,-18,7,0,0,-1,0,0,0,0
2481517,1.58E+12,0.62,0.27,-0.91,5,0,-48,0,0,0,0,2.26,2.48,1.4,0.52,0,0,0,0,0,0,0,0,0,0,0,13.110507,80.189964,27.55,-18,7,0,0,-1,0,0,0,0
2481537,1.58E+12,0.58,0.35,-0.89,6,-3,-49,0,0,0,0,2.26,2.48,1.4,0.52,0,0,0,0,0,0,0,0,0,0,0,13.110507,80.189964,27.55,-18,7,0,0,-1,0,0,0,0
2481557,1.58E+12,0.56,0.27,-0.8,6,-7,-51,0,0,0,0,2.11,2.48,1.4,0.52,0,0,0,0,0,0,0,0,0,0,0,13.110507,80.189964,27.55,-18,7,0,0,-1,0,0,0,0
2481577,1.58E+12,0.65,0.18,-0.92,6,-7,-54,0,0,0,0,2.11,2.48,1.4,0.52,0,0,0,0,0,0,0,0,0,0,0,13.110519,80.189964,27.55,-18,7,0,0,-1,0,0,0,0
2481597,1.58E+12,0.66,0.08,-0.96,6,-8,-56,0,0,0,0,2.11,2.48,1.4,0.52,0,0,0,0,0,0,0,0,0,0,0,13.110519,80.189964,27.55,-18,7,0,0,-1,0,0,0,0
2481617,1.58E+12,0.78,0.1,-1.06,3,-2,-56,0,0,0,0,2.11,2.49,1.53,0.51,0,0,0,0,0,0,0,0,0,0,0,13.110519,80.189964,27.55,-18,7,0,0,-1,0,0,0,0
2481637,1.58E+12,0.74,0.04,-1.01,2,-1,-58,0,0,0,0,2.11,2.49,1.53,0.51,0,0,0,0,0,0,0,0,0,0,0,13.110519,80.189964,27.55,-18,7,0,0,-1,0,0,0,0
2481657,1.58E+12,0.67,0.01,-0.97,0,3,-59,0,0,0,0,2.2,2.49,1.53,0.51,0,0,0,0,0,0,0,0,0,0,0,13.110519,80.189964,27.55,-18,7,0,0,-1,0,0,0,0
2481677,1.58E+12,0.62,0.03,-0.92,-1,-3,-61,0,0,0,0,2.2,2.49,1.53,0.51,0,0,0,0,0,0,0,0,0,0,0,13.110531,80.189964,27.77,-18,7,0,0,-1,0,0,0,0
2481697,1.58E+12,0.66,0.09,-1.03,-1,-4,-59,0,0,0,0,2.2,2.49,1.53,0.51,0,0,0,0,0,0,0,0,0,0,0,13.110531,80.189964,27.77,-18,7,0,0,-1,0,0,0,0
2481717,1.58E+12,0.69,0.1,-1.09,0,-6,-57,0,0,0,0,2.2,2.49,1.3,0.51,0,0,0,0,0,0,0,0,0,0,0,13.110531,80.189964,27.77,-18,7,0,0,-1,0,0,0,0
2481737,1.58E+12,0.69,0.17,-0.86,1,-10,-59,0,0,0,0,2.2,2.49,1.3,0.51,0,0,0,0,0,0,0,0,0,0,0,13.110531,80.189964,27.77,-18,7,0,0,-1,0,0,0,0
2481757,1.58E+12,0.81,0.06,-0.97,2,-10,-58,0,0,0,0,2.15,2.49,1.3,0.51,0,0,0,0,0,0,0,0,0,0,0,13.110531,80.189964,27.77,-18,7,0,0,-1,0,0,0,0
2481777,1.58E+12,0.77,0.11,-1.08,3,-9,-56,0,0,0,0,2.15,2.49,1.3,0.51,0,0,0,0,0,0,0,0,0,0,0,13.110541,80.189964,27.7,-18,7,0,0,-1,0,0,0,0
2481797,1.58E+12,0.88,0,-1.17,3,-3,-54,0,0,0,0,2.15,2.49,1.3,0.51,0,0,0,0,0,0,0,0,0,0,0,13.110541,80.189964,27.7,-18,7,0,0,-1,0,0,0,0
2481817,1.58E+12,0.88,0,-1.25,3,-1,-53,0,0,0,0,2.15,2.5,1.41,0.5,0,0,0,0,0,0,0,0,0,0,0,13.110541,80.189964,27.7,-18,7,0,0,-1,0,0,0,0
2481837,1.58E+12,0.88,-0.04,-1.24,3,1,-52,0,0,0,0,2.15,2.5,1.41,0.5,0,0,0,0,0,0,0,0,0,0,0,13.110541,80.189964,27.7,-18,7,0,0,-1,0,0,0,0
2481857,1.58E+12,0.78,-0.13,-1.06,2,1,-52,0,0,0,0,2.07,2.5,1.41,0.5,0,0,0,0,0,0,0,0,0,0,0,13.110541,80.189964,27.7,-18,7,0,0,-1,0,0,0,0
2481877,1.58E+12,0.9,-0.1,-0.93,2,-2,-53,0,0,0,0,2.07,2.5,1.41,0.5,0,0,0,0,0,0,0,0,0,0,0,13.110554,80.189964,27.76,-18,7,0,0,-1,0,0,0,0
2481897,1.58E+12,0.88,-0.1,-0.99,1,-1,-53,0,0,0,0,2.07,2.5,1.41,0.5,0,0,0,0,0,0,0,0,0,0,0,13.110554,80.189964,27.76,-18,7,0,0,-1,0,0,0,0
2481917,1.58E+12,0.83,0.01,-1.06,1,0,-53,0,0,0,0,2.07,2.49,1.32,0.51,0,0,0,0,0,0,0,0,0,0,0,13.110554,80.189964,27.76,-18,7,0,0,-1,0,0,0,0
2481937,1.58E+12,0.72,0.01,-0.94,1,-3,-52,0,0,0,0,2.07,2.49,1.32,0.51,0,0,0,0,0,0,0,0,0,0,0,13.110554,80.189964,27.76,-18,7,0,0,-1,0,0,0,0
2481957,1.58E+12,0.66,-0.08,-1.03,2,-1,-52,0,0,0,0,2.19,2.49,1.32,0.51,0,0,0,0,0,0,0,0,0,0,0,13.110554,80.189964,27.76,-18,7,0,0,-1,0,0,0,0
2481977,1.58E+12,0.67,-0.03,-1.13,2,-2,-51,0,0,0,0,2.19,2.49,1.32,0.51,0,0,0,0,0,0,0,0,0,0,0,13.110565,80.189964,27.7,-18,7,0,0,-1,0,0,0,0
2481997,1.58E+12,0.73,0.05,-1.21,3,-2,-48,0,0,0,0,2.19,2.49,1.32,0.51,0,0,0,0,0,0,0,0,0,0,0,13.110565,80.189964,27.7,-18,7,0,0,-1,0,0,0,0
2482017,1.58E+12,0.73,0.11,-1.04,3,2,-45,0,0,0,0,2.19,2.5,1.04,0.5,0,0,0,0,0,0,0,0,0,0,0,13.110565,80.189964,27.7,-18,7,0,0,-1,0,0,0,0
2482037,1.58E+12,0.8,0.23,-0.73,3,-5,-45,0,0,0,0,2.19,2.5,1.04,0.5,0,0,0,0,0,0,0,0,0,0,0,13.110565,80.189964,27.7,-18,7,0,0,-1,0,0,0,0
2482057,1.58E+12,0.91,0.39,-0.46,1,4,-43,0,0,0,0,2.06,2.5,1.04,0.5,0,0,0,0,0,0,0,0,0,0,0,13.110565,80.189964,27.7,-18,7,0,0,-1,0,0,0,0
2482077,1.58E+12,0.81,0.38,-0.52,2,8,-41,0,0,0,0,2.06,2.5,1.04,0.5,0,0,0,0,0,0,0,0,0,0,0,13.110577,80.189964,27.71,-18,7,0,0,-1,0,0,0,0
2482097,1.58E+12,0.73,0.35,-0.42,1,5,-39,0,0,0,0,2.06,2.5,1.04,0.5,0,0,0,0,0,0,0,0,0,0,0,13.110577,80.189964,27.71,-18,7,0,0,-1,0,0,0,0
2482117,1.58E+12,0.63,0.38,-0.32,1,4,-38,0,0,0,0,2.06,2.5,1.38,0.5,0,0,0,0,0,0,0,0,0,0,0,13.110577,80.189964,27.71,-18,7,0,0,-1,0,0,0,0
2482137,1.58E+12,0.56,0.36,-0.09,2,2,-38,0,0,0,0,2.06,2.5,1.38,0.5,0,0,0,0,0,0,0,0,0,0,0,13.110577,80.189964,27.71,-18,7,0,0,-1,0,0,0,0
2482157,1.58E+12,0.58,0.41,0.02,2,2,-38,0,0,0,0,2.29,2.5,1.38,0.5,0,0,0,0,0,0,0,0,0,0,0,13.110577,80.189964,27.71,-18,7,0,0,-1,0,0,0,0
2482177,1.58E+12,0.64,0.28,0.14,4,0,-38,0,0,0,0,2.29,2.5,1.38,0.5,0,0,0,0,0,0,0,0,0,0,0,13.110587,80.189964,27.63,-18,7,0,0,-1,0,0,0,0
2482197,1.58E+12,0.7,0.22,0.16,5,-4,-40,0,0,0,0,2.29,2.5,1.38,0.5,0,0,0,0,0,0,0,0,0,0,0,13.110587,80.189964,27.63,-18,7,0,0,-1,0,0,0,0
2482217,1.58E+12,0.71,0.16,0.09,6,-7,-41,0,0,0,0,2.29,2.49,1.12,0.51,0,0,0,0,0,0,0,0,0,0,0,13.110587,80.189964,27.63,-18,7,0,0,-1,0,0,0,0
2482237,1.58E+12,0.75,0.19,0.13,7,-3,-41,0,0,0,0,2.29,2.49,1.12,0.51,0,0,0,0,0,0,0,0,0,0,0,13.110587,80.189964,27.63,-18,7,0,0,-1,0,0,0,0
2482257,1.58E+12,0.87,0.2,0.11,7,3,-41,0,0,0,0,2.29,2.49,1.12,0.51,0,0,0,0,0,0,0,0,0,0,0,13.110587,80.189964,27.63,-18,7,0,0,-1,0,0,0,0
2482277,1.58E+12,0.9,0.19,-0.03,8,4,-41,0,0,0,0,2.29,2.49,1.12,0.51,0,0,0,0,0,0,0,0,0,0,0,13.110599,80.189964,27.63,-18,7,0,0,-1,0,0,0,0
2482297,1.58E+12,0.97,0.21,-0.23,7,14,-40,0,0,0,0,2.29,2.49,1.12,0.51,0,0,0,0,0,0,0,0,0,0,0,13.110599,80.189964,27.63,-18,7,0,0,-1,0,0,0,0
2482317,1.58E+12,1.02,0.15,-0.41,7,15,-39,0,0,0,0,2.29,2.5,1.54,0.5,0,0,0,0,0,0,0,0,0,0,0,13.110599,80.189964,27.63,-18,7,0,0,-1,0,0,0,0
2482337,1.58E+12,0.92,0.18,-0.38,7,18,-41,0,0,0,0,2.29,2.5,1.54,0.5,0,0,0,0,0,0,0,0,0,0,0,13.110599,80.189964,27.63,-18,7,0,0,-1,0,0,0,0
2482357,1.58E+12,0.99,0.11,-0.51,6,17,-41,0,0,0,0,2.32,2.5,1.54,0.5,0,0,0,0,0,0,0,0,0,0,0,13.110599,80.189964,27.63,-18,7,0,0,-1,0,0,0,0
2482377,1.58E+12,0.92,0.14,-0.53,6,14,-42,0,0,0,0,2.32,2.5,1.54,0.5,0,0,0,0,0,0,0,0,0,0,0,13.11061,80.189964,27.63,-18,7,0,0,-1,0,0,0,0
2482397,1.58E+12,0.94,0.14,-0.65,5,15,-42,0,0,0,0,2.32,2.5,1.54,0.5,0,0,0,0,0,0,0,0,0,0,0,13.11061,80.189964,27.63,-18,7,0,0,-1,0,0,0,0
2482417,1.58E+12,0.94,0.19,-0.69,4,15,-42,0,0,0,0,2.32,2.51,1.22,0.49,0,0,0,0,0,0,0,0,0,0,0,13.11061,80.189964,27.63,-18,7,0,0,-1,0,0,0,0
2482437,1.58E+12,0.97,0.26,-0.71,2,15,-41,0,0,0,0,2.32,2.51,1.22,0.49,0,0,0,0,0,0,0,0,0,0,0,13.11061,80.189964,27.63,-18,7,0,0,-1,0,0,0,0
2482457,1.58E+12,1.02,0.25,-0.74,1,14,-40,0,0,0,0,2.55,2.51,1.22,0.49,0,0,0,0,0,0,0,0,0,0,0,13.11061,80.189964,27.63,-18,7,0,0,-1,0,0,0,0
2482477,1.58E+12,0.95,0.25,-0.79,-1,19,-38,0,0,0,0,2.55,2.51,1.22,0.49,0,0,0,0,0,0,0,0,0,0,0,13.11062,80.189964,27.63,-18,7,0,0,-1,0,0,0,0
2482497,1.58E+12,0.91,0.25,-0.77,0,18,-36,0,0,0,0,2.55,2.51,1.22,0.49,0,0,0,0,0,0,0,0,0,0,0,13.11062,80.189964,27.63,-18,7,0,0,-1,0,0,0,0
2482517,1.58E+12,0.89,0.23,-0.77,0,15,-33,0,0,0,0,2.55,2.51,1.46,0.49,0,0,0,0,0,0,0,0,0,0,0,13.11062,80.189964,27.63,-18,7,0,0,-1,0,0,0,0
2482537,1.58E+12,0.88,0.19,-0.7,1,12,-31,0,0,0,0,2.55,2.51,1.46,0.49,0,0,0,0,0,0,0,0,0,0,0,13.11062,80.189964,27.63,-18,7,0,0,-1,0,0,0,0
2482557,1.58E+12,0.89,0.19,-0.83,3,13,-29,0,0,0,0,2.55,2.51,1.46,0.49,0,0,0,0,0,0,0,0,0,0,0,13.11062,80.189964,27.63,-18,7,0,0,-1,0,0,0,0
2482577,1.58E+12,0.95,0.15,-0.87,4,10,-28,0,0,0,0,2.55,2.51,1.46,0.49,0,0,0,0,0,0,0,0,0,0,0,13.11062,80.189964,27.63,-18,7,0,0,-1,0,0,0,0
2482597,1.58E+12,0.99,0.17,-0.87,4,9,-27,0,0,0,0,2.55,2.51,1.46,0.49,0,0,0,0,0,0,0,0,0,0,0,13.11062,80.189964,27.63,-18,7,0,0,-1,0,0,0,0
2482617,1.58E+12,0.91,0.26,-0.87,5,13,-27,0,0,0,0,2.55,2.51,1.63,0.49,0,0,0,0,0,0,0,0,0,0,0,13.11062,80.189964,27.63,-18,7,0,0,-1,0,0,0,0
2482637,1.58E+12,0.84,0.26,-0.98,5,13,-28,0,0,0,0,2.55,2.51,1.63,0.49,0,0,0,0,0,0,0,0,0,0,0,13.11062,80.189964,27.63,-18,7,0,0,-1,0,0,0,0
2482657,1.58E+12,0.76,0.27,-1.09,5,14,-28,0,0,0,0,2.68,2.51,1.63,0.49,0,0,0,0,0,0,0,0,0,0,0,13.11062,80.189964,27.63,-18,7,0,0,-1,0,0,0,0
2482677,1.58E+12,0.78,0.23,-1.17,5,14,-29,0,0,0,0,2.68,2.51,1.63,0.49,0,0,0,0,0,0,0,0,0,0,0,13.11062,80.189964,27.63,-18,7,0,0,-1,0,0,0,0
2482697,1.58E+12,0.87,0.22,-1.25,4,16,-30,0,0,0,0,2.68,2.51,1.63,0.49,0,0,0,0,0,0,0,0,0,0,0,13.11062,80.189964,27.63,-18,7,0,0,-1,0,0,0,0
2482717,1.58E+12,0.88,0.15,-1.31,4,19,-31,0,0,0,0,2.68,2.51,1.21,0.49,0,0,0,0,0,0,0,0,0,0,0,13.11062,80.189964,27.63,-18,7,0,0,-1,0,0,0,0
2482737,1.58E+12,0.99,0.11,-1.38,4,25,-32,0,0,0,0,2.68,2.51,1.21,0.49,0,0,0,0,0,0,0,0,0,0,0,13.11062,80.189964,27.63,-18,7,0,0,-1,0,0,0,0
2482757,1.58E+12,0.98,0.09,-1.44,4,27,-34,0,0,0,0,2.61,2.51,1.21,0.49,0,0,0,0,0,0,0,0,0,0,0,13.11062,80.189964,27.63,-18,7,0,0,-1,0,0,0,0
2482777,1.58E+12,1.03,0.05,-1.41,3,29,-35,0,0,0,0,2.61,2.51,1.21,0.49,0,0,0,0,0,0,0,0,0,0,0,13.11062,80.189964,27.63,-18,7,0,0,-1,0,0,0,0
2482797,1.58E+12,1.07,-0.01,-1.4,3,33,-36,0,0,0,0,2.61,2.51,1.21,0.49,0,0,0,0,0,0,0,0,0,0,0,13.11062,80.189964,27.63,-18,7,0,0,-1,0,0,0,0
2482817,1.58E+12,1.1,-0.05,-1.26,4,28,-38,0,0,0,0,2.61,2.52,1.74,0.48,0,0,0,0,0,0,0,0,0,0,0,13.11062,80.189964,27.63,-18,7,0,0,-1,0,0,0,0
2482837,1.58E+12,1.18,-0.25,-1.26,4,23,-42,0,0,0,0,2.61,2.52,1.74,0.48,0,0,0,0,0,0,0,0,0,0,0,13.11062,80.189964,27.63,-18,7,0,0,-1,0,0,0,0
2482857,1.58E+12,1.15,-0.42,-1.33,4,19,-46,0,0,0,0,2.45,2.52,1.74,0.48,0,0,0,0,0,0,0,0,0,0,0,13.11062,80.189964,27.63,-18,7,0,0,-1,0,0,0,0
2482877,1.58E+12,1.23,-0.58,-1.37,3,15,-48,0,0,0,0,2.45,2.52,1.74,0.48,0,0,0,0,0,0,0,0,0,0,0,13.11062,80.189964,27.63,-18,7,0,0,-1,0,0,0,0
2482897,1.58E+12,1.3,-0.62,-1.35,3,11,-50,0,0,0,0,2.45,2.52,1.74,0.48,0,0,0,0,0,0,0,0,0,0,0,13.11062,80.189964,27.63,-18,7,0,0,-1,0,0,0,0
2482917,1.58E+12,1.34,-0.72,-1.29,2,7,-53,0,0,0,0,2.45,2.51,1.89,0.49,0,0,0,0,0,0,0,0,0,0,0,13.11062,80.189964,27.63,-18,7,0,0,-1,0,0,0,0
2482937,1.58E+12,1.34,-0.76,-1.22,2,1,-56,0,0,0,0,2.45,2.51,1.89,0.49,0,0,0,0,0,0,0,0,0,0,0,13.11062,80.189964,27.63,-18,7,0,0,-1,0,0,0,0
2482957,1.58E+12,1.31,-0.73,-1.22,2,-2,-58,0,0,0,0,2.54,2.51,1.89,0.49,0,0,0,0,0,0,0,0,0,0,0,13.11062,80.189964,27.63,-18,7,0,0,-1,0,0,0,0
2482977,1.58E+12,1.37,-0.8,-1.22,3,-1,-57,0,0,0,0,2.54,2.51,1.89,0.49,0,0,0,0,0,0,0,0,0,0,0,13.11062,80.189964,27.63,-18,7,0,0,-1,0,0,0,0
2482997,1.58E+12,1.36,-0.76,-1.3,3,-3,-58,0,0,0,0,2.54,2.51,1.89,0.49,0,0,0,0,0,0,0,0,0,0,0,13.11062,80.189964,27.63,-18,7,0,0,-1,0,0,0,0
2483017,1.58E+12,1.39,-0.88,-1.36,3,-5,-59,0,0,0,0,2.54,2.52,1.56,0.48,0,0,0,0,0,0,0,0,0,0,0,13.11062,80.189964,27.63,-18,7,0,0,-1,0,0,0,0
2483037,1.58E+12,1.3,-0.82,-1.42,4,-6,-60,0,0,0,0,2.54,2.52,1.56,0.48,0,0,0,0,0,0,0,0,0,0,0,13.11062,80.189964,27.63,-18,7,0,0,-1,0,0,0,0
2483057,1.58E+12,1.36,-0.8,-1.48,5,-1,-59,0,0,0,0,2.61,2.52,1.56,0.48,0,0,0,0,0,0,0,0,0,0,0,13.11062,80.189964,27.63,-18,7,0,0,-1,0,0,0,0
2483077,1.58E+12,1.37,-0.74,-1.48,5,-1,-58,0,0,0,0,2.61,2.52,1.56,0.48,0,0,0,0,0,0,0,0,0,0,0,13.11062,80.189964,27.63,-18,7,0,0,-1,0,0,0,0
2483097,1.58E+12,1.32,-0.57,-1.53,5,7,-57,0,0,0,0,2.61,2.52,1.56,0.48,0,0,0,0,0,0,0,0,0,0,0,13.11062,80.189964,27.63,-18,7,0,0,-1,0,0,0,0
2483117,1.58E+12,1.35,-0.57,-1.58,4,12,-55,0,0,0,0,2.61,2.52,1.38,0.48,0,0,0,0,0,0,0,0,0,0,0,13.11062,80.189964,27.63,-18,7,0,0,-1,0,0,0,0
2483137,1.58E+12,1.28,-0.5,-1.62,4,15,-53,0,0,0,0,2.61,2.52,1.38,0.48,0,0,0,0,0,0,0,0,0,0,0,13.11062,80.189964,27.63,-18,7,0,0,-1,0,0,0,0
2483157,1.58E+12,1.21,-0.49,-1.66,4,16,-52,0,0,0,0,2.4,2.52,1.38,0.48,0,0,0,0,0,0,0,0,0,0,0,13.11062,80.189964,27.63,-18,7,0,0,-1,0,0,0,0
2483177,1.58E+12,1.13,-0.36,-1.62,4,18,-52,0,0,0,0,2.4,2.52,1.38,0.48,0,0,0,0,0,0,0,0,0,0,0,13.11062,80.189964,27.63,-18,7,0,0,-1,0,0,0,0
2483197,1.58E+12,1.03,-0.23,-1.49,4,15,-53,0,0,0,0,2.4,2.52,1.38,0.48,0,0,0,0,0,0,0,0,0,0,0,13.11062,80.189964,27.63,-18,7,0,0,-1,0,0,0,0
2483217,1.58E+12,0.93,-0.16,-1.27,4,10,-55,0,0,0,0,2.4,2.52,1.24,0.48,0,0,0,0,0,0,0,0,0,0,0,13.11062,80.189964,27.63,-18,7,0,0,-1,0,0,0,0
2483237,1.58E+12,0.89,-0.14,-1.15,5,4,-58,0,0,0,0,2.4,2.52,1.24,0.48,0,0,0,0,0,0,0,0,0,0,0,13.11062,80.189964,27.63,-18,7,0,0,-1,0,0,0,0
2483257,1.58E+12,0.85,-0.1,-1.02,5,-2,-59,0,0,0,0,2.26,2.52,1.24,0.48,0,0,0,0,0,0,0,0,0,0,0,13.11062,80.189964,27.63,-18,7,0,0,-1,0,0,0,0
2483277,1.58E+12,0.85,-0.16,-0.99,6,-5,-62,0,0,0,0,2.26,2.52,1.24,0.48,0,0,0,0,0,0,0,0,0,0,0,13.11062,80.189964,27.63,-18,7,0,0,-1,0,0,0,0
2483297,1.58E+12,0.9,-0.28,-1.09,7,-6,-63,0,0,0,0,2.26,2.52,1.24,0.48,0,0,0,0,0,0,0,0,0,0,0,13.11062,80.189964,27.63,-18,7,0,0,-1,0,0,0,0
2483317,1.58E+12,0.95,-0.33,-1.17,7,-6,-62,0,0,0,0,2.26,2.52,1.57,0.48,0,0,0,0,0,0,0,0,0,0,0,13.11062,80.189964,27.63,-18,7,0,0,-1,0,0,0,0
2483337,1.58E+12,1,-0.38,-1.17,7,-4,-62,0,0,0,0,2.26,2.52,1.57,0.48,0,0,0,0,0,0,0,0,0,0,0,13.11062,80.189964,27.63,-18,7,0,0,-1,0,0,0,0
2483357,1.58E+12,1.07,-0.42,-1.25,7,1,-61,0,0,0,0,2.17,2.52,1.57,0.48,0,0,0,0,0,0,0,0,0,0,0,13.11062,80.189964,27.63,-18,7,0,0,-1,0,0,0,0
2483377,1.58E+12,1.09,-0.43,-1.31,8,2,-60,0,0,0,0,2.17,2.52,1.57,0.48,0,0,0,0,0,0,0,0,0,0,0,13.109422,80.189476,27.63,-17.9,7,0,0,-1,0,0,0,0
2483397,1.58E+12,1.12,-0.4,-1.38,7,7,-59,0,0,0,0,2.17,2.52,1.57,0.48,0,0,0,0,0,0,0,0,0,0,0,13.109422,80.189476,27.63,-17.9,7,0,0,-1,0,0,0,0
2483417,1.58E+12,1.15,-0.38,-1.44,6,12,-58,0,0,0,0,2.17,2.52,1.52,0.48,0,0,0,0,0,0,0,0,0,0,0,13.109422,80.189476,27.63,-17.9,7,0,0,-1,0,0,0,0
2483437,1.58E+12,1.14,-0.36,-1.5,6,15,-57,0,0,0,0,2.17,2.52,1.52,0.48,0,0,0,0,0,0,0,0,0,0,0,13.109422,80.189476,27.63,-17.9,7,0,0,-1,0,0,0,0
2483457,1.58E+12,1.14,-0.25,-1.45,5,20,-55,0,0,0,0,2.24,2.52,1.52,0.48,0,0,0,0,0,0,0,0,0,0,0,13.109422,80.189476,27.63,-17.9,7,0,0,-1,0,0,0,0
2483477,1.58E+12,1.17,-0.22,-1.51,5,24,-53,0,0,0,0,2.24,2.52,1.52,0.48,0,0,0,0,0,0,0,0,0,0,0,13.109422,80.189476,27.63,-17.9,7,0,0,-1,0,0,0,0
2483497,1.58E+12,1.18,-0.22,-1.53,4,23,-52,0,0,0,0,2.24,2.52,1.52,0.48,0,0,0,0,0,0,0,0,0,0,0,13.109422,80.189476,27.63,-17.9,7,0,0,-1,0,0,0,0
2483517,1.58E+12,1.11,-0.18,-1.39,3,23,-51,0,0,0,0,2.24,2.51,1.02,0.49,0,0,0,0,0,0,0,0,0,0,0,13.109422,80.189476,27.63,-17.9,7,0,0,-1,0,0,0,0
2483537,1.58E+12,1.06,-0.12,-1.4,3,25,-50,0,0,0,0,2.24,2.51,1.02,0.49,0,0,0,0,0,0,0,0,0,0,0,13.109422,80.189476,27.63,-17.9,7,0,0,-1,0,0,0,0
2483557,1.58E+12,1.02,-0.05,-1.35,2,23,-48,0,0,0,0,2.22,2.51,1.02,0.49,0,0,0,0,0,0,0,0,0,0,0,13.109422,80.189476,27.63,-17.9,7,0,0,-1,0,0,0,0
2483577,1.58E+12,0.98,0.1,-1.2,2,17,-47,0,0,0,0,2.22,2.51,1.02,0.49,0,0,0,0,0,0,0,0,0,0,0,13.109422,80.189476,27.63,-17.9,7,0,0,-1,0,0,0,0
2483597,1.58E+12,0.98,0.13,-1.08,2,7,-48,0,0,0,0,2.22,2.51,1.02,0.49,0,0,0,0,0,0,0,0,0,0,0,13.109422,80.189476,27.63,-17.9,7,0,0,-1,0,0,0,0
2483617,1.58E+12,1.02,0.08,-1.01,2,-3,-50,0,0,0,0,2.22,2.52,1.37,0.48,0,0,0,0,0,0,0,0,0,0,0,13.109422,80.189476,27.63,-17.9,7,0,0,-1,0,0,0,0
2483637,1.58E+12,1.06,0.06,-1.04,3,-8,-51,0,0,0,0,2.22,2.52,1.37,0.48,0,0,0,0,0,0,0,0,0,0,0,13.109422,80.189476,27.63,-17.9,7,0,0,-1,0,0,0,0
2483657,1.58E+12,1.06,0.08,-1.01,3,-12,-50,0,0,0,0,2.22,2.52,1.37,0.48,0,0,0,0,0,0,0,0,0,0,0,13.109422,80.189476,27.63,-17.9,7,0,0,-1,0,0,0,0
2483677,1.58E+12,1.13,0.1,-1.03,3,-10,-49,0,0,0,0,2.22,2.52,1.37,0.48,0,0,0,0,0,0,0,0,0,0,0,13.109432,80.189476,26.36,-18,7,0,0,-1,0,0,0,0
2483697,1.58E+12,1.16,0.17,-1.07,3,-2,-46,0,0,0,0,2.22,2.52,1.37,0.48,0,0,0,0,0,0,0,0,0,0,0,13.109432,80.189476,26.36,-18,7,0,0,-1,0,0,0,0
2483717,1.58E+12,1.13,0.17,-1.09,2,6,-42,0,0,0,0,2.22,2.52,1.44,0.48,0,0,0,0,0,0,0,0,0,0,0,13.109432,80.189476,26.36,-18,7,0,0,-1,0,0,0,0
2483737,1.58E+12,1.08,0.17,-1.13,2,11,-39,0,0,0,0,2.22,2.52,1.44,0.48,0,0,0,0,0,0,0,0,0,0,0,13.109432,80.189476,26.36,-18,7,0,0,-1,0,0,0,0
2483757,1.58E+12,1,0.21,-1.12,2,16,-38,0,0,0,0,2.22,2.52,1.44,0.48,0,0,0,0,0,0,0,0,0,0,0,13.109432,80.189476,26.36,-18,7,0,0,-1,0,0,0,0
2483777,1.58E+12,0.89,0.24,-0.85,3,13,-39,0,0,0,0,2.22,2.52,1.44,0.48,0,0,0,0,0,0,0,0,0,0,0,13.109444,80.189476,25.37,-18,7,0,0,-1,0,0,0,0
2483797,1.58E+12,0.87,0.28,-0.78,4,5,-39,0,0,0,0,2.22,2.52,1.44,0.48,0,0,0,0,0,0,0,0,0,0,0,13.109444,80.189476,25.37,-18,7,0,0,-1,0,0,0,0
2483817,1.58E+12,0.88,0.21,-0.77,5,-1,-40,0,0,0,0,2.22,2.52,1.54,0.48,0,0,0,0,0,0,0,0,0,0,0,13.109444,80.189476,25.37,-18,7,0,0,-1,0,0,0,0
2483837,1.58E+12,0.86,0.11,-0.88,5,0,-40,0,0,0,0,2.22,2.52,1.54,0.48,0,0,0,0,0,0,0,0,0,0,0,13.109444,80.189476,25.37,-18,7,0,0,-1,0,0,0,0
2483857,1.58E+12,0.81,0.2,-0.9,4,4,-37,0,0,0,0,2.22,2.52,1.54,0.48,0,0,0,0,0,0,0,0,0,0,0,13.109444,80.189476,25.37,-18,7,0,0,-1,0,0,0,0
2483877,1.58E+12,0.9,0.18,-1,3,9,-33,0,0,0,0,2.22,2.52,1.54,0.48,0,0,0,0,0,0,0,0,0,0,0,13.109454,80.189476,24.37,-18,7,0,0,-1,0,0,0,0
2483897,1.58E+12,0.86,0.24,-1.03,2,12,-30,0,0,0,0,2.22,2.52,1.54,0.48,0,0,0,0,0,0,0,0,0,0,0,13.109454,80.189476,24.37,-18,7,0,0,-1,0,0,0,0
2483917,1.58E+12,0.85,0.34,-0.93,2,9,-29,0,0,0,0,2.22,2.51,1.63,0.49,0,0,0,0,0,0,0,0,0,0,0,13.109454,80.189476,24.37,-18,7,0,0,-1,0,0,0,0
2483937,1.58E+12,0.82,0.41,-0.65,2,2,-30,0,0,0,0,2.22,2.51,1.63,0.49,0,0,0,0,0,0,0,0,0,0,0,13.109454,80.189476,24.37,-18,7,0,0,-1,0,0,0,0
2483957,1.58E+12,0.88,0.33,-0.55,2,-5,-31,0,0,0,0,2.24,2.51,1.63,0.49,0,0,0,0,0,0,0,0,0,0,0,13.109454,80.189476,24.37,-18,7,0,0,-1,0,0,0,0
2483977,1.58E+12,0.89,0.24,-0.54,2,-5,-30,0,0,0,0,2.24,2.51,1.63,0.49,0,0,0,0,0,0,0,0,0,0,0,13.109464,80.189476,23.45,-18,7,0,0,-1,0,0,0,0
2483997,1.58E+12,0.9,0.3,-0.61,1,-3,-27,0,0,0,0,2.24,2.51,1.63,0.49,0,0,0,0,0,0,0,0,0,0,0,13.109464,80.189476,23.45,-18,7,0,0,-1,0,0,0,0
2484017,1.58E+12,0.96,0.31,-0.56,0,1,-25,0,0,0,0,2.24,2.51,1.55,0.49,0,0,0,0,0,0,0,0,0,0,0,13.109464,80.189476,23.45,-18,7,0,0,-1,0,0,0,0
2484037,1.58E+12,1.03,0.4,-0.56,-1,6,-23,0,0,0,0,2.24,2.51,1.55,0.49,0,0,0,0,0,0,0,0,0,0,0,13.109464,80.189476,23.45,-18,7,0,0,-1,0,0,0,0
2484057,1.58E+12,0.99,0.45,-0.47,-1,7,-22,0,0,0,0,2.36,2.51,1.55,0.49,0,0,0,0,0,0,0,0,0,0,0,13.109464,80.189476,23.45,-18,7,0,0,-1,0,0,0,0
2484077,1.58E+12,0.88,0.45,-0.37,-1,4,-22,0,0,0,0,2.36,2.51,1.55,0.49,0,0,0,0,0,0,0,0,0,0,0,13.109473,80.189476,22.59,-18,7,0,0,-1,0,0,0,0
2484097,1.58E+12,0.9,0.48,-0.44,-1,6,-21,0,0,0,0,2.36,2.51,1.55,0.49,0,0,0,0,0,0,0,0,0,0,0,13.109473,80.189476,22.59,-18,7,0,0,-1,0,0,0,0
2484117,1.58E+12,0.92,0.42,-0.6,-1,10,-18,0,0,0,0,2.36,2.52,1.4,0.48,0,0,0,0,0,0,0,0,0,0,0,13.109473,80.189476,22.59,-18,7,0,0,-1,0,0,0,0
2484137,1.58E+12,0.92,0.45,-0.55,0,10,-16,0,0,0,0,2.36,2.52,1.4,0.48,0,0,0,0,0,0,0,0,0,0,0,13.109473,80.189476,22.59,-18,7,0,0,-1,0,0,0,0
2484157,1.58E+12,0.94,0.36,-0.44,1,4,-16,0,0,0,0,2.5,2.52,1.4,0.48,0,0,0,0,0,0,0,0,0,0,0,13.109473,80.189476,22.59,-18,7,0,0,-1,0,0,0,0
2484177,1.58E+12,0.91,0.39,-0.35,2,1,-16,0,0,0,0,2.5,2.52,1.4,0.48,0,0,0,0,0,0,0,0,0,0,0,13.109479,80.189468,21.76,-18,7,0,0,-1,0,0,0,0
