Interval|"ms"|0|0|1,Utc|"ms"|0|0|1,AccelX|"G"|-3.0|3.0|50,AccelY|"G"|-3.0|3.0|50,AccelZ|"G"|-3.0|3.0|50,Yaw|"Deg/Sec"|-120|120|50,Pitch|"Deg/Sec"|-120|120|50,Roll|"Deg/Sec"|-120|120|50,FTTS1|""|0.0|1000.0|50,FTTS2|""|0.0|1000.0|50,FTTS3|""|0.0|1000.0|50,FTTS4|""|0.0|1000.0|50,FR|""|0.0|1000.0|50,TPS|""|0.0|1000.0|50,FBPS|""|0.0|1000.0|50,STR|""|0.0|1000.0|50,MPUAccX|""|-20.0|20.0|50,MPUAccY|""|-20.0|20.0|50,MPUAccZ|""|-20.0|20.0|50,YawMPU|""|-20.0|20.0|50,PitchMPU|""|-20.0|20.0|50,RollMPU|""|-20.0|20.0|50, RSTR|""|0.0|1000.0|50, RL|""|0.0|1000.0|50, RBPS|""|0.0|1000.0|50, RR |""|0.0|1000.0|50,Latitude|"Degrees"|-180.0|180.0|10,Longitude|"Degrees"|-180.0|180.0|10,Speed|"mph"|0.0|150.0|10,Altitude|"ft"|0.0|4000.0|10,GPSSats|""|0|20|10,LapCount|""|0|0|10,LapTime|"Min"|0.0|0.0|10,Sector|""|0|0|10,SectorTime|"Min"|0.0|0.0|10,PredTime|"Min"|0.0|0.0|10,ElapsedTime|"Min"|0.0|0.0|10,CurrentLap|""|0|0|10
2165457,1.58E+12,0.97,0.07,-0.04,0,1,0,0,0,0,0,0,0.9,1.41,2.95,0,0,0,0,0,0,0,0,0,0,12.992236,80.230309,0,30.2,10,0,0,-1,0,0,0,0
2165477,1.58E+12,0.97,0.08,-0.03,0,1,0,0,0,0,0,0,0.89,1.43,2.95,0,0,0,0,0,0,0,0,0,0,12.992236,80.230309,0,30.2,10,0,0,-1,0,0,0,0
2165497,1.58E+12,0.96,0.08,-0.03,0,1,0,0,0,0,0,0,0.89,1.43,2.95,0,0,0,0,0,0,0,0,0,0,12.992236,80.230309,0,30.2,10,0,0,-1,0,0,0,0
2165517,1.58E+12,0.96,0.08,-0.04,0,0,0,0,0,0,0,0,0.89,1.43,2.95,0,0,0,0,0,0,0,0,0,0,12.992236,80.230309,0,30.2,10,0,0,-1,0,0,0,0
2165537,1.58E+12,0.96,0.07,-0.04,0,1,0,0,0,0,0,0,0.89,1.43,2.95,0,0,0,0,0,0,0,0,0,0,12.992236,80.230309,0,30.2,10,0,0,-1,0,0,0,0
2165557,1.58E+12,0.95,0.08,-0.04,0,1,0,0,0,0,0,0,0.89,1.43,2.95,0,0,0,0,0,0,0,0,0,0,12.992236,80.230309,0,30.2,10,0,0,-1,0,0,0,0
2165577,1.58E+12,0.95,0.08,-0.03,0,1,0,0,0,0,0,0,0.96,1.43,3.02,0,0,0,0,0,0,0,0,0,0,12.992236,80.230309,0,30.2,10,0,0,-1,0,0,0,0
2165597,1.58E+12,0.95,0.07,-0.04,0,1,0,0,0,0,0,0,0.96,1.43,3.02,0,0,0,0,0,0,0,0,0,0,12.992236,80.230309,0,30.2,10,0,0,-1,0,0,0,0
2165617,1.58E+12,0.95,0.06,-0.04,0,1,0,0,0,0,0,0,0.96,1.43,3.02,0,0,0,0,0,0,0,0,0,0,12.992236,80.230309,0,30.2,10,0,0,-1,0,0,0,0
2165637,1.58E+12,0.95,0.06,-0.05,0,1,0,0,0,0,0,0,0.96,1.43,3.02,0,0,0,0,0,0,0,0,0,0,12.992236,80.230309,0,30.2,10,0,0,-1,0,0,0,0
2165657,1.58E+12,0.94,0.06,-0.05,0,1,0,0,0,0,0,0,0.96,1.43,3.02,0,0,0,0,0,0,0,0,0,0,12.992236,80.230309,0,30.2,10,0,0,-1,0,0,0,0
2165677,1.58E+12,0.94,0.06,-0.05,0,1,0,0,0,0,0,0,0.89,1.43,2.94,0,0,0,0,0,0,0,0,0,0,12.992236,80.230309,0,30.2,10,0,0,-1,0,0,0,0
2165697,1.58E+12,0.94,0.06,-0.06,0,0,0,0,0,0,0,0,0.89,1.43,2.94,0,0,0,0,0,0,0,0,0,0,12.992236,80.230309,0,30.2,10,0,0,-1,0,0,0,0
2165717,1.58E+12,0.94,0.06,-0.06,0,0,0,0,0,0,0,0,0.89,1.43,2.94,0,0,0,0,0,0,0,0,0,0,12.992236,80.230309,0,30.2,10,0,0,-1,0,0,0,0
2165737,1.58E+12,0.94,0.06,-0.06,0,0,0,0,0,0,0,0,0.89,1.43,2.94,0,0,0,0,0,0,0,0,0,0,12.992236,80.230309,0,30.2,10,0,0,-1,0,0,0,0
2165757,1.58E+12,0.94,0.06,-0.06,0,0,0,0,0,0,0,0,0.89,1.43,2.94,0,0,0,0,0,0,0,0,0,0,12.992236,80.230309,0,30.2,10,0,0,-1,0,0,0,0
2165777,1.58E+12,0.95,0.06,-0.06,0,0,0,0,0,0,0,0,0.89,1.43,2.95,0,0,0,0,0,0,0,0,0,0,12.992236,80.230309,0,30.2,10,0,0,-1,0,0,0,0
2165797,1.58E+12,0.95,0.07,-0.08,0,0,0,0,0,0,0,0,0.89,1.43,2.95,0,0,0,0,0,0,0,0,0,0,12.992236,80.230309,0,30.2,10,0,0,-1,0,0,0,0
2165817,1.58E+12,0.95,0.07,-0.1,0,0,0,0,0,0,0,0,0.89,1.43,2.95,0,0,0,0,0,0,0,0,0,0,12.992236,80.230309,0,30.2,10,0,0,-1,0,0,0,0
2165837,1.58E+12,0.93,0.07,-0.12,0,-1,0,0,0,0,0,0,0.89,1.43,2.95,0,0,0,0,0,0,0,0,0,0,12.992236,80.230309,0,30.2,10,0,0,-1,0,0,0,0
2165857,1.58E+12,0.92,0.07,-0.12,0,-1,0,0,0,0,0,0,0.89,1.43,2.95,0,0,0,0,0,0,0,0,0,0,12.992236,80.230309,0,30.2,10,0,0,-1,0,0,0,0
2165877,1.58E+12,0.92,0.07,-0.12,0,-1,0,0,0,0,0,0,0.93,1.44,2.98,0,0,0,0,0,0,0,0,0,0,12.992236,80.230309,0,30.2,10,0,0,-1,0,0,0,0
2165897,1.58E+12,0.91,0.03,-0.11,0,-1,0,0,0,0,0,0,0.93,1.44,2.98,0,0,0,0,0,0,0,0,0,0,12.992236,80.230309,0,30.2,10,0,0,-1,0,0,0,0
2165917,1.58E+12,0.89,0.05,-0.12,0,0,0,0,0,0,0,0,0.93,1.44,2.98,0,0,0,0,0,0,0,0,0,0,12.992236,80.230309,0,30.2,10,0,0,-1,0,0,0,0
2165937,1.58E+12,0.89,0.04,-0.11,0,-1,0,0,0,0,0,0,0.93,1.44,2.98,0,0,0,0,0,0,0,0,0,0,12.992236,80.230309,0,30.2,10,0,0,-1,0,0,0,0
2165957,1.58E+12,0.88,0.04,-0.12,0,0,0,0,0,0,0,0,0.93,1.44,2.98,0,0,0,0,0,0,0,0,0,0,12.992236,80.230309,0,30.2,10,0,0,-1,0,0,0,0
2165977,1.58E+12,0.89,0.04,-0.12,0,0,0,0,0,0,0,0,0.93,1.44,2.98,0,0,0,0,0,0,0,0,0,0,12.992236,80.230309,0,30.2,10,0,0,-1,0,0,0,0
2165997,1.58E+12,0.89,0.04,-0.11,0,0,0,0,0,0,0,0,0.93,1.44,2.98,0,0,0,0,0,0,0,0,0,0,12.992236,80.230309,0,30.2,10,0,0,-1,0,0,0,0
2166017,1.58E+12,0.9,0.04,-0.12,0,0,0,0,0,0,0,0,1,1.43,3.05,0,0,0,0,0,0,0,0,0,0,12.992236,80.230309,0,30.2,10,0,0,-1,0,0,0,0
2166037,1.58E+12,0.91,0.05,-0.11,0,0,0,0,0,0,0,0,1,1.43,3.05,0,0,0,0,0,0,0,0,0,0,12.992236,80.230309,0,30.2,10,0,0,-1,0,0,0,0
2166057,1.58E+12,0.91,0.06,-0.11,0,0,0,0,0,0,0,0,1,1.43,3.05,0,0,0,0,0,0,0,0,0,0,12.992236,80.230309,0,30.2,10,0,0,-1,0,0,0,0
2166077,1.58E+12,0.91,0.06,-0.1,0,0,0,0,0,0,0,0,1,1.43,3.05,0,0,0,0,0,0,0,0,0,0,12.992236,80.230309,0,30.2,10,0,0,-1,0,0,0,0
2166097,1.58E+12,0.91,0.05,-0.1,0,0,0,0,0,0,0,0,1,1.43,3.05,0,0,0,0,0,0,0,0,0,0,12.992236,80.230309,0,30.2,10,0,0,-1,0,0,0,0
2166117,1.58E+12,0.92,0.06,-0.09,0,0,0,0,0,0,0,0,0.99,1.45,3.06,0,0,0,0,0,0,0,0,0,0,12.992236,80.230309,0,30.2,10,0,0,-1,0,0,0,0
2166137,1.58E+12,0.92,0.06,-0.06,0,0,0,0,0,0,0,0,0.99,1.45,3.06,0,0,0,0,0,0,0,0,0,0,12.992236,80.230309,0,30.2,10,0,0,-1,0,0,0,0
2166157,1.58E+12,0.93,0.06,-0.07,0,0,0,0,0,0,0,0,0.99,1.45,3.06,0,0,0,0,0,0,0,0,0,0,12.992236,80.230309,0,30.2,10,0,0,-1,0,0,0,0
2166177,1.58E+12,0.94,0.05,-0.07,0,0,0,0,0,0,0,0,0.99,1.45,3.06,0,0,0,0,0,0,0,0,0,0,12.992236,80.230309,0,30.2,10,0,0,-1,0,0,0,0
2166197,1.58E+12,0.94,0.05,-0.07,0,0,0,0,0,0,0,0,0.99,1.45,3.06,0,0,0,0,0,0,0,0,0,0,12.992236,80.230309,0,30.2,10,0,0,-1,0,0,0,0
2166217,1.58E+12,0.94,0.05,-0.07,0,0,0,0,0,0,0,0,0.91,1.44,2.96,0,0,0,0,0,0,0,0,0,0,12.992236,80.230309,0,30.2,10,0,0,-1,0,0,0,0
2166237,1.58E+12,0.94,0.05,-0.07,0,0,0,0,0,0,0,0,0.91,1.44,2.96,0,0,0,0,0,0,0,0,0,0,12.992236,80.230309,0,30.2,10,0,0,-1,0,0,0,0
2166257,1.58E+12,0.94,0.05,-0.07,0,0,0,0,0,0,0,0,0.91,1.44,2.96,0,0,0,0,0,0,0,0,0,0,12.992236,80.230309,0,30.2,10,0,0,-1,0,0,0,0
2166277,1.58E+12,0.94,0.05,-0.07,0,0,0,0,0,0,0,0,0.91,1.44,2.96,0,0,0,0,0,0,0,0,0,0,12.992236,80.230309,0,30.2,10,0,0,-1,0,0,0,0
2166297,1.58E+12,0.94,0.05,-0.08,0,0,0,0,0,0,0,0,0.91,1.44,2.96,0,0,0,0,0,0,0,0,0,0,12.992236,80.230309,0,30.2,10,0,0,-1,0,0,0,0
2166317,1.58E+12,0.93,0.05,-0.08,0,0,0,0,0,0,0,0,0.91,1.45,2.95,0,0,0,0,0,0,0,0,0,0,12.992236,80.230309,0,30.2,10,0,0,-1,0,0,0,0
2166337,1.58E+12,0.94,0.05,-0.08,0,0,0,0,0,0,0,0,0.91,1.45,2.95,0,0,0,0,0,0,0,0,0,0,12.992236,80.230309,0,30.2,10,0,0,-1,0,0,0,0
2166357,1.58E+12,0.94,0.06,-0.08,0,-1,0,0,0,0,0,0,0.91,1.45,2.95,0,0,0,0,0,0,0,0,0,0,12.992236,80.230309,0,30.2,10,0,0,-1,0,0,0,0
2166377,1.58E+12,0.93,0.06,-0.07,0,0,0,0,0,0,0,0,0.91,1.45,2.95,0,0,0,0,0,0,0,0,0,0,12.992236,80.230309,0,30.2,10,0,0,-1,0,0,0,0
2166397,1.58E+12,0.93,0.06,-0.06,0,0,0,0,0,0,0,0,0.91,1.45,2.95,0,0,0,0,0,0,0,0,0,0,12.992236,80.230309,0,30.2,10,0,0,-1,0,0,0,0
2166417,1.58E+12,0.94,0.06,-0.08,0,0,0,0,0,0,0,0,0.99,1.44,3.05,0,0,0,0,0,0,0,0,0,0,12.992236,80.230309,0,30.2,10,0,0,-1,0,0,0,0
2166437,1.58E+12,0.95,0.06,-0.08,0,0,0,0,0,0,0,0,0.99,1.44,3.05,0,0,0,0,0,0,0,0,0,0,12.992236,80.230309,0,30.2,10,0,0,-1,0,0,0,0
2166457,1.58E+12,0.95,0.06,-0.07,0,0,0,0,0,0,0,0,0.99,1.44,3.05,0,0,0,0,0,0,0,0,0,0,12.992236,80.230309,0,30.2,10,0,0,-1,0,0,0,0
2166477,1.58E+12,0.95,0.06,-0.06,0,0,0,0,0,0,0,0,0.99,1.44,3.05,0,0,0,0,0,0,0,0,0,0,12.992236,80.230309,0,30.2,10,0,0,-1,0,0,0,0
2166497,1.58E+12,0.95,0.05,-0.07,0,0,0,0,0,0,0,0,0.99,1.44,3.05,0,0,0,0,0,0,0,0,0,0,12.992236,80.230309,0,30.2,10,0,0,-1,0,0,0,0
2166517,1.58E+12,0.94,0.05,-0.07,0,0,0,0,0,0,0,0,0.91,1.44,2.94,0,0,0,0,0,0,0,0,0,0,12.992236,80.230309,0,30.2,10,0,0,-1,0,0,0,0
2166537,1.58E+12,0.94,0.06,-0.07,0,0,0,0,0,0,0,0,0.91,1.44,2.94,0,0,0,0,0,0,0,0,0,0,12.992236,80.230309,0,30.2,10,0,0,-1,0,0,0,0
2166557,1.58E+12,0.93,0.06,-0.07,0,0,0,0,0,0,0,0,0.91,1.44,2.94,0,0,0,0,0,0,0,0,0,0,12.992236,80.230309,0,30.2,10,0,0,-1,0,0,0,0
2166577,1.58E+12,0.93,0.06,-0.07,0,0,0,0,0,0,0,0,0.91,1.44,2.94,0,0,0,0,0,0,0,0,0,0,12.992236,80.230309,0,30.2,10,0,0,-1,0,0,0,0
2166597,1.58E+12,0.92,0.06,-0.08,0,0,0,0,0,0,0,0,0.91,1.44,2.94,0,0,0,0,0,0,0,0,0,0,12.992236,80.230309,0,30.2,10,0,0,-1,0,0,0,0
2166617,1.58E+12,0.92,0.06,-0.08,0,0,0,0,0,0,0,0,1,1.44,3.04,0,0,0,0,0,0,0,0,0,0,12.992236,80.230309,0,30.2,10,0,0,-1,0,0,0,0
2166637,1.58E+12,0.92,0.07,-0.09,0,0,0,0,0,0,0,0,1,1.44,3.04,0,0,0,0,0,0,0,0,0,0,12.992236,80.230309,0,30.2,10,0,0,-1,0,0,0,0
2166657,1.58E+12,0.91,0.07,-0.09,0,0,0,0,0,0,0,0,1,1.44,3.04,0,0,0,0,0,0,0,0,0,0,12.992236,80.230309,0,30.2,10,0,0,-1,0,0,0,0
2166677,1.58E+12,0.92,0.07,-0.08,0,1,0,0,0,0,0,0,1,1.44,3.04,0,0,0,0,0,0,0,0,0,0,12.992236,80.230309,0,30.2,10,0,0,-1,0,0,0,0
2166697,1.58E+12,0.91,0.06,-0.09,0,1,0,0,0,0,0,0,1,1.44,3.04,0,0,0,0,0,0,0,0,0,0,12.992236,80.230309,0,30.2,10,0,0,-1,0,0,0,0
2166717,1.58E+12,0.9,0.06,-0.1,0,1,0,0,0,0,0,0,0.94,1.44,2.98,0,0,0,0,0,0,0,0,0,0,12.992236,80.230309,0,30.2,10,0,0,-1,0,0,0,0
2166737,1.58E+12,0.91,0.05,-0.09,0,0,0,0,0,0,0,0,0.94,1.44,2.98,0,0,0,0,0,0,0,0,0,0,12.992236,80.230309,0,30.2,10,0,0,-1,0,0,0,0
2166757,1.58E+12,0.92,0.04,-0.14,0,0,0,0,0,0,0,0,0.94,1.44,2.98,0,0,0,0,0,0,0,0,0,0,12.992236,80.230309,0,30.2,10,0,0,-1,0,0,0,0
2166777,1.58E+12,0.9,0.04,-0.16,0,0,0,0,0,0,0,0,0.94,1.44,2.98,0,0,0,0,0,0,0,0,0,0,12.992236,80.230309,0,30.2,10,0,0,-1,0,0,0,0
2166797,1.58E+12,0.91,0.02,-0.21,0,0,0,0,0,0,0,0,0.94,1.44,2.98,0,0,0,0,0,0,0,0,0,0,12.992236,80.230309,0,30.2,10,0,0,-1,0,0,0,0
2166817,1.58E+12,0.88,0.06,-0.34,0,0,0,0,0,0,0,0,0.91,1.44,2.94,0,0,0,0,0,0,0,0,0,0,12.992236,80.230309,0,30.2,10,0,0,-1,0,0,0,0
2166837,1.58E+12,0.85,0.07,-0.33,0,-2,0,0,0,0,0,0,0.91,1.44,2.94,0,0,0,0,0,0,0,0,0,0,12.992236,80.230309,0,30.2,10,0,0,-1,0,0,0,0
2166857,1.58E+12,0.85,0.04,-0.32,-1,-3,0,0,0,0,0,0,0.91,1.44,2.94,0,0,0,0,0,0,0,0,0,0,12.992236,80.230309,0,30.2,10,0,0,-1,0,0,0,0
2166877,1.58E+12,0.87,0.03,-0.4,0,-2,-1,0,0,0,0,0,0.91,1.44,2.94,0,0,0,0,0,0,0,0,0,0,12.992236,80.230309,0,30.2,10,0,0,-1,0,0,0,0
2166897,1.58E+12,0.87,-0.01,-0.26,0,-1,-2,0,0,0,0,0,0.91,1.44,2.94,0,0,0,0,0,0,0,0,0,0,12.992236,80.230309,0,30.2,10,0,0,-1,0,0,0,0
2166917,1.58E+12,0.88,-0.04,-0.31,0,-3,0,0,0,0,0,0,0.9,1.45,2.94,0,0,0,0,0,0,0,0,0,0,12.992236,80.230309,0,30.2,10,0,0,-1,0,0,0,0
2166937,1.58E+12,0.85,-0.01,-0.2,0,-1,-1,0,0,0,0,0,0.9,1.45,2.94,0,0,0,0,0,0,0,0,0,0,12.992236,80.230309,0,30.2,10,0,0,-1,0,0,0,0
2166957,1.58E+12,0.93,0,-0.32,0,-2,1,0,0,0,0,0,0.9,1.45,2.94,0,0,0,0,0,0,0,0,0,0,12.992236,80.230309,0,30.2,10,0,0,-1,0,0,0,0
2166977,1.58E+12,0.89,-0.04,-0.2,0,-2,-1,0,0,0,0,0,0.9,1.45,2.94,0,0,0,0,0,0,0,0,0,0,12.992236,80.230309,0,30.2,10,0,0,-1,0,0,0,0
2166997,1.58E+12,0.94,-0.06,-0.28,0,-2,1,0,0,0,0,0,0.9,1.45,2.94,0,0,0,0,0,0,0,0,0,0,12.992236,80.230309,0,30.2,10,0,0,-1,0,0,0,0
2167017,1.58E+12,0.96,-0.05,-0.25,0,1,0,0,0,0,0,0,0.9,1.45,2.94,0,0,0,0,0,0,0,0,0,0,12.992236,80.230309,0,30.2,10,0,0,-1,0,0,0,0
2167037,1.58E+12,0.91,0,-0.15,0,1,0,0,0,0,0,0,0.94,1.44,2.99,0,0,0,0,0,0,0,0,0,0,12.992236,80.230309,0,30.2,10,0,0,-1,0,0,0,0
2167057,1.58E+12,0.85,0.02,-0.11,0,-1,0,0,0,0,0,0,0.94,1.44,2.99,0,0,0,0,0,0,0,0,0,0,12.992236,80.230309,0,30.2,10,0,0,-1,0,0,0,0
2167077,1.58E+12,0.88,0.04,-0.19,0,-2,0,0,0,0,0,0,0.94,1.44,2.99,0,0,0,0,0,0,0,0,0,0,12.992236,80.230309,0,30.2,10,0,0,-1,0,0,0,0
2167097,1.58E+12,0.9,0.03,-0.28,0,-3,1,0,0,0,0,0,0.94,1.44,2.99,0,0,0,0,0,0,0,0,0,0,12.992236,80.230309,0,30.2,10,0,0,-1,0,0,0,0
2167117,1.58E+12,0.91,0.05,-0.29,0,-4,0,0,0,0,0,0,0.94,1.44,2.99,0,0,0,0,0,0,0,0,0,0,12.992236,80.230309,0,30.2,10,0,0,-1,0,0,0,0
2167137,1.58E+12,0.94,0.07,-0.28,0,-5,1,0,0,0,0,0,0.9,1.45,2.94,0,0,0,0,0,0,0,0,0,0,12.992236,80.230309,0,30.2,10,0,0,-1,0,0,0,0
2167157,1.58E+12,0.96,0.09,-0.23,0,-5,1,0,0,0,0,0,0.9,1.45,2.94,0,0,0,0,0,0,0,0,0,0,12.992236,80.230309,0,30.2,10,0,0,-1,0,0,0,0
2167177,1.58E+12,1,0.08,-0.24,0,-4,1,0,0,0,0,0,0.9,1.45,2.94,0,0,0,0,0,0,0,0,0,0,12.992236,80.230309,0,30.2,10,0,0,-1,0,0,0,0
2167197,1.58E+12,1.02,0.1,-0.27,0,-3,1,0,0,0,0,0,0.9,1.45,2.94,0,0,0,0,0,0,0,0,0,0,12.992236,80.230309,0,30.2,10,0,0,-1,0,0,0,0
2167217,1.58E+12,1.04,0.09,-0.27,0,-3,2,0,0,0,0,0,0.9,1.45,2.94,0,0,0,0,0,0,0,0,0,0,12.992236,80.230309,0,30.2,10,0,0,-1,0,0,0,0
2167237,1.58E+12,1.04,0.08,-0.28,0,-3,2,0,0,0,0,0,0.92,1.44,2.97,0,0,0,0,0,0,0,0,0,0,12.992236,80.230309,0,30.2,10,0,0,-1,0,0,0,0
2167257,1.58E+12,1.03,0.07,-0.23,0,-4,1,0,0,0,0,0,0.92,1.44,2.97,0,0,0,0,0,0,0,0,0,0,12.992236,80.230309,0,30.2,10,0,0,-1,0,0,0,0
2167277,1.58E+12,1.02,0.06,-0.18,0,-4,1,0,0,0,0,0,0.92,1.44,2.97,0,0,0,0,0,0,0,0,0,0,12.992236,80.230309,0,30.2,10,0,0,-1,0,0,0,0
2167297,1.58E+12,1.03,0.03,-0.18,0,-4,1,0,0,0,0,0,0.92,1.44,2.97,0,0,0,0,0,0,0,0,0,0,12.992236,80.230309,0,30.2,10,0,0,-1,0,0,0,0
2167317,1.58E+12,1.05,0.04,-0.18,0,-2,1,0,0,0,0,0,0.92,1.44,2.97,0,0,0,0,0,0,0,0,0,0,12.992236,80.230309,0,30.2,10,0,0,-1,0,0,0,0
2167337,1.58E+12,1.04,0.04,-0.12,0,-3,0,0,0,0,0,0,0.92,1.45,2.95,0,0,0,0,0,0,0,0,0,0,12.992236,80.230309,0,30.2,10,0,0,-1,0,0,0,0
2167357,1.58E+12,1.01,0,-0.09,0,-4,1,0,0,0,0,0,0.92,1.45,2.95,0,0,0,0,0,0,0,0,0,0,12.992236,80.230309,0,30.2,10,0,0,-1,0,0,0,0
2167377,1.58E+12,1.01,-0.01,-0.06,0,-4,0,0,0,0,0,0,0.92,1.45,2.95,0,0,0,0,0,0,0,0,0,0,12.992236,80.230309,0,30.2,10,0,0,-1,0,0,0,0
2167397,1.58E+12,0.98,0.02,-0.05,0,-4,0,0,0,0,0,0,0.92,1.45,2.95,0,0,0,0,0,0,0,0,0,0,12.992236,80.230309,0,30.2,10,0,0,-1,0,0,0,0
2167417,1.58E+12,0.98,0.01,-0.06,0,-3,0,0,0,0,0,0,0.92,1.45,2.95,0,0,0,0,0,0,0,0,0,0,12.992236,80.230309,0,30.2,10,0,0,-1,0,0,0,0
2167437,1.58E+12,0.97,-0.01,-0.02,0,-3,-1,0,0,0,0,0,0.86,1.45,2.9,0,0,0,0,0,0,0,0,0,0,12.992236,80.230309,0,30.2,10,0,0,-1,0,0,0,0
2167457,1.58E+12,0.96,-0.01,0,0,-3,0,0,0,0,0,0,0.86,1.45,2.9,0,0,0,0,0,0,0,0,0,0,12.992236,80.230309,0,30.2,10,0,0,-1,0,0,0,0
2167477,1.58E+12,0.95,-0.01,0.04,0,-2,-1,0,0,0,0,0,0.86,1.45,2.9,0,0,0,0,0,0,0,0,0,0,12.992236,80.230309,0,30.2,10,0,0,-1,0,0,0,0
2167497,1.58E+12,0.94,-0.02,0.03,0,-1,-1,0,0,0,0,0,0.86,1.45,2.9,0,0,0,0,0,0,0,0,0,0,12.992236,80.230309,0,30.2,10,0,0,-1,0,0,0,0
2167517,1.58E+12,0.94,-0.05,0.07,0,0,-2,0,0,0,0,0,0.86,1.45,2.9,0,0,0,0,0,0,0,0,0,0,12.992236,80.230309,0,30.2,10,0,0,-1,0,0,0,0
2167537,1.58E+12,0.94,-0.07,0.06,0,0,-2,0,0,0,0,0,0.86,1.45,2.89,0,0,0,0,0,0,0,0,0,0,12.992236,80.230309,0,30.2,10,0,0,-1,0,0,0,0
2167557,1.58E+12,0.93,-0.08,0.11,0,1,-3,0,0,0,0,0,0.86,1.45,2.89,0,0,0,0,0,0,0,0,0,0,12.992236,80.230309,0,30.2,10,0,0,-1,0,0,0,0
2167577,1.58E+12,0.91,-0.09,0.15,0,1,-2,0,0,0,0,0,0.86,1.45,2.89,0,0,0,0,0,0,0,0,0,0,12.992236,80.230309,0,30.2,10,0,0,-1,0,0,0,0
2167597,1.58E+12,0.91,-0.09,0.16,0,0,-2,0,0,0,0,0,0.86,1.45,2.89,0,0,0,0,0,0,0,0,0,0,12.992236,80.230309,0,30.2,10,0,0,-1,0,0,0,0
2167617,1.58E+12,0.91,-0.09,0.16,0,1,-2,0,0,0,0,0,0.86,1.45,2.89,0,0,0,0,0,0,0,0,0,0,12.992236,80.230309,0,30.2,10,0,0,-1,0,0,0,0
2167637,1.58E+12,0.93,-0.09,0.09,0,3,-1,0,0,0,0,0,0.85,1.45,2.89,0,0,0,0,0,0,0,0,0,0,12.992236,80.230309,0,30.2,10,0,0,-1,0,0,0,0
2167657,1.58E+12,0.94,-0.06,0.04,0,4,-1,0,0,0,0,0,0.85,1.45,2.89,0,0,0,0,0,0,0,0,0,0,12.992236,80.230309,0,30.2,10,0,0,-1,0,0,0,0
2167677,1.58E+12,0.96,-0.02,-0.05,0,6,0,0,0,0,0,0,0.85,1.45,2.89,0,0,0,0,0,0,0,0,0,0,12.992236,80.230309,0,30.2,10,0,0,-1,0,0,0,0
2167697,1.58E+12,0.97,-0.02,-0.14,0,8,-1,0,0,0,0,0,0.85,1.45,2.89,0,0,0,0,0,0,0,0,0,0,12.992236,80.230309,0,30.2,10,0,0,-1,0,0,0,0
2167717,1.58E+12,0.98,-0.03,-0.19,0,9,-1,0,0,0,0,0,0.85,1.45,2.89,0,0,0,0,0,0,0,0,0,0,12.992236,80.230309,0,30.2,10,0,0,-1,0,0,0,0
2167737,1.58E+12,0.98,-0.02,-0.26,0,9,-1,0,0,0,0,0,0.83,1.44,2.84,0,0,0,0,0,0,0,0,0,0,12.992236,80.230309,0,30.2,10,0,0,-1,0,0,0,0
2167757,1.58E+12,0.95,-0.02,-0.29,0,9,-1,0,0,0,0,0,0.83,1.44,2.84,0,0,0,0,0,0,0,0,0,0,12.992236,80.230309,0,30.2,10,0,0,-1,0,0,0,0
2167777,1.58E+12,0.95,0.01,-0.36,0,9,0,0,0,0,0,0,0.83,1.44,2.84,0,0,0,0,0,0,0,0,0,0,12.992236,80.230309,0,30.2,10,0,0,-1,0,0,0,0
2167797,1.58E+12,0.91,0.06,-0.35,0,7,0,0,0,0,0,0,0.83,1.44,2.84,0,0,0,0,0,0,0,0,0,0,12.992236,80.230309,0,30.2,10,0,0,-1,0,0,0,0
2167817,1.58E+12,0.87,0.06,-0.31,0,5,0,0,0,0,0,0,0.83,1.44,2.84,0,0,0,0,0,0,0,0,0,0,12.992236,80.230309,0,30.2,10,0,0,-1,0,0,0,0
2167837,1.58E+12,0.83,0.07,-0.27,0,3,0,0,0,0,0,0,0.83,1.45,2.82,0,0,0,0,0,0,0,0,0,0,12.992236,80.230309,0,30.2,10,0,0,-1,0,0,0,0
2167857,1.58E+12,0.8,0.06,-0.21,0,0,-1,0,0,0,0,0,0.83,1.45,2.82,0,0,0,0,0,0,0,0,0,0,12.992236,80.230309,0,30.2,10,0,0,-1,0,0,0,0
2167877,1.58E+12,0.8,0.06,-0.19,0,-2,-1,0,0,0,0,0,0.83,1.45,2.82,0,0,0,0,0,0,0,0,0,0,12.992236,80.230309,0,30.2,10,0,0,-1,0,0,0,0
2167897,1.58E+12,0.77,0.06,-0.13,0,-4,-1,0,0,0,0,0,0.83,1.45,2.82,0,0,0,0,0,0,0,0,0,0,12.992236,80.230309,0,30.2,10,0,0,-1,0,0,0,0
2167917,1.58E+12,0.77,0.06,-0.11,0,-5,-1,0,0,0,0,0,0.83,1.45,2.82,0,0,0,0,0,0,0,0,0,0,12.992236,80.230309,0,30.2,10,0,0,-1,0,0,0,0
2167937,1.58E+12,0.75,0.06,-0.06,0,-6,-1,0,0,0,0,0,0.82,1.44,2.83,0,0,0,0,0,0,0,0,0,0,12.992236,80.230309,0,30.2,10,0,0,-1,0,0,0,0
2167957,1.58E+12,0.75,0.05,-0.02,0,-7,-1,0,0,0,0,0,0.82,1.44,2.83,0,0,0,0,0,0,0,0,0,0,12.992236,80.230309,0,30.2,10,0,0,-1,0,0,0,0
2167977,1.58E+12,0.74,0.05,0.01,0,-7,-1,0,0,0,0,0,0.82,1.44,2.83,0,0,0,0,0,0,0,0,0,0,12.992236,80.230309,0,30.2,10,0,0,-1,0,0,0,0
2167997,1.58E+12,0.74,0.05,0.04,0,-6,-1,0,0,0,0,0,0.82,1.44,2.83,0,0,0,0,0,0,0,0,0,0,12.992236,80.230309,0,30.2,10,0,0,-1,0,0,0,0
2168017,1.58E+12,0.74,0.05,0.04,0,-6,-1,0,0,0,0,0,0.82,1.44,2.83,0,0,0,0,0,0,0,0,0,0,12.992236,80.230309,0,30.2,10,0,0,-1,0,0,0,0
2168037,1.58E+12,0.74,0.05,0.09,0,-6,-1,0,0,0,0,0,0.83,1.45,2.82,0,0,0,0,0,0,0,0,0,0,12.992236,80.230309,0,30.2,10,0,0,-1,0,0,0,0
2168057,1.58E+12,0.74,0.05,0.09,0,-5,-1,0,0,0,0,0,0.83,1.45,2.82,0,0,0,0,0,0,0,0,0,0,12.992236,80.230309,0,30.2,10,0,0,-1,0,0,0,0
2168077,1.58E+12,0.73,0.05,0.12,0,-5,-1,0,0,0,0,0,0.83,1.45,2.82,0,0,0,0,0,0,0,0,0,0,12.992236,80.230309,0,30.2,10,0,0,-1,0,0,0,0
2168097,1.58E+12,0.73,0.05,0.13,0,-4,-1,0,0,0,0,0,0.83,1.45,2.82,0,0,0,0,0,0,0,0,0,0,12.992236,80.230309,0,30.2,10,0,0,-1,0,0,0,0
2168117,1.58E+12,0.72,0.06,0.16,0,-4,-1,0,0,0,0,0,0.83,1.45,2.82,0,0,0,0,0,0,0,0,0,0,12.992236,80.230309,0,30.2,10,0,0,-1,0,0,0,0
2168137,1.58E+12,0.71,0.05,0.17,0,-5,-1,0,0,0,0,0,0.82,1.45,2.83,0,0,0,0,0,0,0,0,0,0,12.992236,80.230309,0,30.2,10,0,0,-1,0,0,0,0
2168157,1.58E+12,0.71,0.06,0.18,0,-6,-1,0,0,0,0,0,0.82,1.45,2.83,0,0,0,0,0,0,0,0,0,0,12.992236,80.230309,0,30.2,10,0,0,-1,0,0,0,0
2168177,1.58E+12,0.7,0.05,0.19,0,-6,-1,0,0,0,0,0,0.82,1.45,2.83,0,0,0,0,0,0,0,0,0,0,12.992236,80.230309,0,30.2,10,0,0,-1,0,0,0,0
2168197,1.58E+12,0.7,0.06,0.2,0,-7,-1,0,0,0,0,0,0.82,1.45,2.83,0,0,0,0,0,0,0,0,0,0,12.992236,80.230309,0,30.2,10,0,0,-1,0,0,0,0
2168217,1.58E+12,0.73,0.07,0.15,0,-6,-1,0,0,0,0,0,0.82,1.45,2.83,0,0,0,0,0,0,0,0,0,0,12.992236,80.230309,0,30.2,10,0,0,-1,0,0,0,0
2168237,1.58E+12,0.75,0.1,0.1,0,-5,-1,0,0,0,0,0,0.82,1.44,2.83,0,0,0,0,0,0,0,0,0,0,12.992236,80.230309,0,30.2,10,0,0,-1,0,0,0,0
2168257,1.58E+12,0.79,0.09,0.05,0,-4,0,0,0,0,0,0,0.82,1.44,2.83,0,0,0,0,0,0,0,0,0,0,12.992236,80.230309,0,30.2,10,0,0,-1,0,0,0,0
2168277,1.58E+12,0.82,0.07,0.01,0,-3,0,0,0,0,0,0,0.82,1.44,2.83,0,0,0,0,0,0,0,0,0,0,12.992236,80.230309,0,30.2,10,0,0,-1,0,0,0,0
2168297,1.58E+12,0.85,0.05,-0.04,0,-2,0,0,0,0,0,0,0.82,1.44,2.83,0,0,0,0,0,0,0,0,0,0,12.992236,80.230309,0,30.2,10,0,0,-1,0,0,0,0
2168317,1.58E+12,0.88,0.04,-0.1,0,-1,0,0,0,0,0,0,0.82,1.44,2.83,0,0,0,0,0,0,0,0,0,0,12.992236,80.230309,0,30.2,10,0,0,-1,0,0,0,0
2168337,1.58E+12,0.88,0.04,-0.13,0,-1,0,0,0,0,0,0,0.82,1.44,2.83,0,0,0,0,0,0,0,0,0,0,12.992236,80.230309,0,30.2,10,0,0,-1,0,0,0,0
2168357,1.58E+12,0.9,0.06,-0.15,-1,-2,0,0,0,0,0,0,0.82,1.44,2.83,0,0,0,0,0,0,0,0,0,0,12.992236,80.230309,0,30.2,10,0,0,-1,0,0,0,0
2168377,1.58E+12,0.9,0.07,-0.14,-1,-2,0,0,0,0,0,0,0.82,1.44,2.83,0,0,0,0,0,0,0,0,0,0,12.992236,80.230309,0,30.2,10,0,0,-1,0,0,0,0
2168397,1.58E+12,0.9,0.06,-0.19,-1,-3,0,0,0,0,0,0,0.82,1.44,2.83,0,0,0,0,0,0,0,0,0,0,12.992236,80.230309,0,30.2,10,0,0,-1,0,0,0,0
2168417,1.58E+12,0.89,0.06,-0.16,-1,-2,-1,0,0,0,0,0,0.82,1.44,2.83,0,0,0,0,0,0,0,0,0,0,12.992236,80.230309,0,30.2,10,0,0,-1,0,0,0,0
2168437,1.58E+12,0.89,0.03,-0.14,-1,-3,0,0,0,0,0,0,0.81,1.42,2.83,0,0,0,0,0,0,0,0,0,0,12.992236,80.230309,0,30.2,10,0,0,-1,0,0,0,0
2168457,1.58E+12,0.89,0.04,-0.12,-1,-2,-1,0,0,0,0,0,0.81,1.42,2.83,0,0,0,0,0,0,0,0,0,0,12.992236,80.230309,0,30.2,10,0,0,-1,0,0,0,0
2168477,1.58E+12,0.88,0.01,-0.09,-1,-2,0,0,0,0,0,0,0.81,1.42,2.83,0,0,0,0,0,0,0,0,0,0,12.992236,80.230309,0,30.2,10,0,0,-1,0,0,0,0
2168497,1.58E+12,0.88,0.03,-0.09,-1,-1,-1,0,0,0,0,0,0.81,1.42,2.83,0,0,0,0,0,0,0,0,0,0,12.992236,80.230309,0,30.2,10,0,0,-1,0,0,0,0
2168517,1.58E+12,0.89,0.01,-0.14,-1,0,0,0,0,0,0,0,0.81,1.42,2.83,0,0,0,0,0,0,0,0,0,0,12.992236,80.230309,0,30.2,10,0,0,-1,0,0,0,0
2168537,1.58E+12,0.9,0.04,-0.16,-1,1,-1,0,0,0,0,0,0.81,1.41,2.83,0,0,0,0,0,0,0,0,0,0,12.992236,80.230309,0,30.2,10,0,0,-1,0,0,0,0
2168557,1.58E+12,0.92,0.06,-0.23,-1,2,0,0,0,0,0,0,0.81,1.41,2.83,0,0,0,0,0,0,0,0,0,0,12.992236,80.230309,0,30.2,10,0,0,-1,0,0,0,0
2168577,1.58E+12,0.92,0.08,-0.3,-1,3,0,0,0,0,0,0,0.81,1.41,2.83,0,0,0,0,0,0,0,0,0,0,12.992236,80.230309,0,30.2,10,0,0,-1,0,0,0,0
2168597,1.58E+12,0.94,0.08,-0.32,-1,4,0,0,0,0,0,0,0.81,1.41,2.83,0,0,0,0,0,0,0,0,0,0,12.992236,80.230309,0,30.2,10,0,0,-1,0,0,0,0
2168617,1.58E+12,0.94,0.07,-0.36,-1,5,0,0,0,0,0,0,0.81,1.41,2.83,0,0,0,0,0,0,0,0,0,0,12.992236,80.230309,0,30.2,10,0,0,-1,0,0,0,0
2168637,1.58E+12,0.94,0.05,-0.41,-1,5,0,0,0,0,0,0,0.83,1.41,2.82,0,0,0,0,0,0,0,0,0,0,12.992236,80.230309,0,30.2,10,0,0,-1,0,0,0,0
2168657,1.58E+12,0.94,0.04,-0.47,-1,5,0,0,0,0,0,0,0.83,1.41,2.82,0,0,0,0,0,0,0,0,0,0,12.992236,80.230309,0,30.2,10,0,0,-1,0,0,0,0
2168677,1.58E+12,0.93,0.03,-0.47,-1,5,-1,0,0,0,0,0,0.83,1.41,2.82,0,0,0,0,0,0,0,0,0,0,12.992236,80.230309,0,30.2,10,0,0,-1,0,0,0,0
2168697,1.58E+12,0.93,0.05,-0.51,-1,5,0,0,0,0,0,0,0.83,1.41,2.82,0,0,0,0,0,0,0,0,0,0,12.992236,80.230309,0,30.2,10,0,0,-1,0,0,0,0
2168717,1.58E+12,0.91,0.08,-0.47,-1,5,0,0,0,0,0,0,0.83,1.41,2.82,0,0,0,0,0,0,0,0,0,0,12.992236,80.230309,0,30.2,10,0,0,-1,0,0,0,0
2168737,1.58E+12,0.91,0.09,-0.5,-1,5,0,0,0,0,0,0,0.82,1.41,2.83,0,0,0,0,0,0,0,0,0,0,12.992236,80.230309,0,30.2,10,0,0,-1,0,0,0,0
2168757,1.58E+12,0.88,0.12,-0.45,-1,4,0,0,0,0,0,0,0.82,1.41,2.83,0,0,0,0,0,0,0,0,0,0,12.992236,80.230309,0,30.2,10,0,0,-1,0,0,0,0
2168777,1.58E+12,0.85,0.12,-0.39,0,3,0,0,0,0,0,0,0.82,1.41,2.83,0,0,0,0,0,0,0,0,0,0,12.992236,80.230309,0,30.2,10,0,0,-1,0,0,0,0
2168797,1.58E+12,0.82,0.13,-0.34,-1,1,0,0,0,0,0,0,0.82,1.41,2.83,0,0,0,0,0,0,0,0,0,0,12.992236,80.230309,0,30.2,10,0,0,-1,0,0,0,0
2168817,1.58E+12,0.79,0.13,-0.27,-1,-2,0,0,0,0,0,0,0.82,1.41,2.83,0,0,0,0,0,0,0,0,0,0,12.992236,80.230309,0,30.2,10,0,0,-1,0,0,0,0
2168837,1.58E+12,0.79,0.12,-0.25,-1,-5,0,0,0,0,0,0,0.82,1.41,2.83,0,0,0,0,0,0,0,0,0,0,12.992236,80.230309,0,30.2,10,0,0,-1,0,0,0,0
2168857,1.58E+12,0.78,0.14,-0.22,-1,-7,0,0,0,0,0,0,0.82,1.41,2.83,0,0,0,0,0,0,0,0,0,0,12.992236,80.230309,0,30.2,10,0,0,-1,0,0,0,0
2168877,1.58E+12,0.81,0.15,-0.21,0,-9,0,0,0,0,0,0,0.82,1.41,2.83,0,0,0,0,0,0,0,0,0,0,12.992236,80.230309,0,30.2,10,0,0,-1,0,0,0,0
2168897,1.58E+12,0.84,0.13,-0.21,0,-10,0,0,0,0,0,0,0.82,1.41,2.83,0,0,0,0,0,0,0,0,0,0,12.992236,80.230309,0,30.2,10,0,0,-1,0,0,0,0
2168917,1.58E+12,0.88,0.13,-0.24,0,-10,0,0,0,0,0,0,0.82,1.41,2.83,0,0,0,0,0,0,0,0,0,0,12.992236,80.230309,0,30.2,10,0,0,-1,0,0,0,0
2168937,1.58E+12,0.93,0.12,-0.28,0,-9,1,0,0,0,0,0,0.82,1.41,2.84,0,0,0,0,0,0,0,0,0,0,12.992236,80.230309,0,30.2,10,0,0,-1,0,0,0,0
2168957,1.58E+12,0.97,0.11,-0.2,0,-8,0,0,0,0,0,0,0.82,1.41,2.84,0,0,0,0,0,0,0,0,0,0,12.992236,80.230309,0,30.2,10,0,0,-1,0,0,0,0
2168977,1.58E+12,0.99,0.08,-0.09,0,-7,0,0,0,0,0,0,0.82,1.41,2.84,0,0,0,0,0,0,0,0,0,0,12.992236,80.230309,0,30.2,10,0,0,-1,0,0,0,0
2168997,1.58E+12,0.97,0.06,0.07,0,-7,0,0,0,0,0,0,0.82,1.41,2.84,0,0,0,0,0,0,0,0,0,0,12.992236,80.230309,0,30.2,10,0,0,-1,0,0,0,0
2169017,1.58E+12,0.97,0.05,0.17,0,-7,-1,0,0,0,0,0,0.82,1.41,2.84,0,0,0,0,0,0,0,0,0,0,12.992236,80.230309,0,30.2,10,0,0,-1,0,0,0,0
2169037,1.58E+12,0.98,0.05,0.23,0,-5,0,0,0,0,0,0,0.82,1.4,2.83,0,0,0,0,0,0,0,0,0,0,12.992236,80.230309,0,30.2,10,0,0,-1,0,0,0,0
2169057,1.58E+12,1.02,0.07,0.13,0,0,1,0,0,0,0,0,0.82,1.4,2.83,0,0,0,0,0,0,0,0,0,0,12.992236,80.230309,0,30.2,10,0,0,-1,0,0,0,0
2169077,1.58E+12,1.05,0.06,0.03,0,5,1,0,0,0,0,0,0.82,1.4,2.83,0,0,0,0,0,0,0,0,0,0,12.992236,80.230309,0,30.2,10,0,0,-1,0,0,0,0
2169097,1.58E+12,0.98,0.09,0.03,0,6,0,0,0,0,0,0,0.82,1.4,2.83,0,0,0,0,0,0,0,0,0,0,12.992236,80.230309,0,30.2,10,0,0,-1,0,0,0,0
2169117,1.58E+12,0.9,0.13,0.02,0,3,0,0,0,0,0,0,0.82,1.4,2.83,0,0,0,0,0,0,0,0,0,0,12.992236,80.230309,0,30.2,10,0,0,-1,0,0,0,0
2169137,1.58E+12,0.9,0.14,-0.12,0,1,1,0,0,0,0,0,0.82,1.41,2.83,0,0,0,0,0,0,0,0,0,0,12.992236,80.230309,0,30.2,10,0,0,-1,0,0,0,0
2169157,1.58E+12,0.92,0.15,-0.28,0,-1,1,0,0,0,0,0,0.82,1.41,2.83,0,0,0,0,0,0,0,0,0,0,12.992236,80.230309,0,30.2,10,0,0,-1,0,0,0,0
2169177,1.58E+12,0.93,0.12,-0.28,0,-4,0,0,0,0,0,0,0.82,1.41,2.83,0,0,0,0,0,0,0,0,0,0,12.992236,80.230309,0,30.2,10,0,0,-1,0,0,0,0
2169197,1.58E+12,0.92,0.11,-0.06,0,-7,-1,0,0,0,0,0,0.82,1.41,2.83,0,0,0,0,0,0,0,0,0,0,12.992236,80.230309,0,30.2,10,0,0,-1,0,0,0,0
2169217,1.58E+12,0.96,0.1,0.06,0,-8,0,0,0,0,0,0,0.82,1.41,2.83,0,0,0,0,0,0,0,0,0,0,12.992236,80.230309,0,30.2,10,0,0,-1,0,0,0,0
2169237,1.58E+12,1.03,0.1,0.02,0,-3,1,0,0,0,0,0,0.82,1.4,2.83,0,0,0,0,0,0,0,0,0,0,12.992236,80.230309,0,30.2,10,0,0,-1,0,0,0,0
2169257,1.58E+12,1.05,0.11,-0.05,0,3,1,0,0,0,0,0,0.82,1.4,2.83,0,0,0,0,0,0,0,0,0,0,12.992236,80.230309,0,30.2,10,0,0,-1,0,0,0,0
2169277,1.58E+12,0.96,0.15,0,0,5,0,0,0,0,0,0,0.82,1.4,2.83,0,0,0,0,0,0,0,0,0,0,12.992236,80.230309,0,30.2,10,0,0,-1,0,0,0,0
2169297,1.58E+12,0.93,0.14,-0.06,0,3,0,0,0,0,0,0,0.82,1.4,2.83,0,0,0,0,0,0,0,0,0,0,12.992236,80.230309,0,30.2,10,0,0,-1,0,0,0,0
2169317,1.58E+12,0.96,0.14,-0.25,0,2,0,0,0,0,0,0,0.82,1.4,2.83,0,0,0,0,0,0,0,0,0,0,12.992236,80.230309,0,30.2,10,0,0,-1,0,0,0,0
2169337,1.58E+12,0.93,0.09,-0.2,0,0,-1,0,0,0,0,0,0.82,1.4,2.84,0,0,0,0,0,0,0,0,0,0,12.992236,80.230309,0,30.2,10,0,0,-1,0,0,0,0
2169357,1.58E+12,0.89,0.07,-0.02,0,-5,0,0,0,0,0,0,0.82,1.4,2.84,0,0,0,0,0,0,0,0,0,0,12.992236,80.230309,0,30.2,10,0,0,-1,0,0,0,0
2169377,1.58E+12,0.97,0.07,-0.08,0,-4,1,0,0,0,0,0,0.82,1.4,2.84,0,0,0,0,0,0,0,0,0,0,12.992236,80.230309,0,30.2,10,0,0,-1,0,0,0,0
2169397,1.58E+12,0.98,0.08,-0.06,0,0,1,0,0,0,0,0,0.82,1.4,2.84,0,0,0,0,0,0,0,0,0,0,12.992236,80.230309,0,30.2,10,0,0,-1,0,0,0,0
2169417,1.58E+12,0.93,0.14,0.07,0,1,1,0,0,0,0,0,0.82,1.4,2.84,0,0,0,0,0,0,0,0,0,0,12.992236,80.230309,0,30.2,10,0,0,-1,0,0,0,0
2169437,1.58E+12,0.93,0.13,-0.01,0,0,1,0,0,0,0,0,0.82,1.4,2.83,0,0,0,0,0,0,0,0,0,0,12.992236,80.230309,0,30.2,10,0,0,-1,0,0,0,0
2169457,1.58E+12,0.96,0.15,-0.18,0,1,1,0,0,0,0,0,0.82,1.4,2.83,0,0,0,0,0,0,0,0,0,0,12.992236,80.230309,0,30.2,10,0,0,-1,0,0,0,0
2169477,1.58E+12,0.92,0.11,-0.09,0,-1,0,0,0,0,0,0,0.82,1.4,2.83,0,0,0,0,0,0,0,0,0,0,12.992236,80.230309,0,30.2,10,0,0,-1,0,0,0,0
2169497,1.58E+12,0.88,0.09,0,0,-5,1,0,0,0,0,0,0.82,1.4,2.83,0,0,0,0,0,0,0,0,0,0,12.992236,80.230309,0,30.2,10,0,0,-1,0,0,0,0
2169517,1.58E+12,0.96,0.09,-0.09,0,-2,1,0,0,0,0,0,0.82,1.4,2.83,0,0,0,0,0,0,0,0,0,0,12.992236,80.230309,0,30.2,10,0,0,-1,0,0,0,0
2169537,1.58E+12,0.96,0.09,-0.11,0,1,1,0,0,0,0,0,0.82,1.41,2.84,0,0,0,0,0,0,0,0,0,0,12.992236,80.230309,0,30.2,10,0,0,-1,0,0,0,0
2169557,1.58E+12,0.91,0.14,0.06,0,0,1,0,0,0,0,0,0.82,1.41,2.84,0,0,0,0,0,0,0,0,0,0,12.992236,80.230309,0,30.2,10,0,0,-1,0,0,0,0
2169577,1.58E+12,0.93,0.14,-0.09,-1,1,2,0,0,0,0,0,0.82,1.41,2.84,0,0,0,0,0,0,0,0,0,0,12.992236,80.230309,0,30.2,10,0,0,-1,0,0,0,0
2169597,1.58E+12,0.94,0.12,-0.1,0,1,1,0,0,0,0,0,0.82,1.41,2.84,0,0,0,0,0,0,0,0,0,0,12.992236,80.230309,0,30.2,10,0,0,-1,0,0,0,0
2169617,1.58E+12,0.9,0.11,0.02,0,-3,0,0,0,0,0,0,0.82,1.41,2.84,0,0,0,0,0,0,0,0,0,0,12.992236,80.230309,0,30.2,10,0,0,-1,0,0,0,0
2169637,1.58E+12,0.9,0.08,0.05,0,-5,1,0,0,0,0,0,0.82,1.4,2.83,0,0,0,0,0,0,0,0,0,0,12.992236,80.230309,0,30.2,10,0,0,-1,0,0,0,0
2169657,1.58E+12,0.97,0.08,-0.02,0,-1,1,0,0,0,0,0,0.82,1.4,2.83,0,0,0,0,0,0,0,0,0,0,12.992236,80.230309,0,30.2,10,0,0,-1,0,0,0,0
2169677,1.58E+12,0.99,0.09,-0.07,0,2,0,0,0,0,0,0,0.82,1.4,2.83,0,0,0,0,0,0,0,0,0,0,12.992236,80.230309,0,30.2,10,0,0,-1,0,0,0,0
2169697,1.58E+12,0.93,0.13,0.02,0,3,0,0,0,0,0,0,0.82,1.4,2.83,0,0,0,0,0,0,0,0,0,0,12.992236,80.230309,0,30.2,10,0,0,-1,0,0,0,0
2169717,1.58E+12,0.9,0.14,-0.01,0,2,1,0,0,0,0,0,0.82,1.4,2.83,0,0,0,0,0,0,0,0,0,0,12.992236,80.230309,0,30.2,10,0,0,-1,0,0,0,0
2169737,1.58E+12,0.93,0.17,-0.19,0,1,0,0,0,0,0,0,0.82,1.4,2.83,0,0,0,0,0,0,0,0,0,0,12.992236,80.230309,0,30.2,10,0,0,-1,0,0,0,0
2169757,1.58E+12,0.92,0.15,-0.22,0,-1,0,0,0,0,0,0,0.82,1.4,2.83,0,0,0,0,0,0,0,0,0,0,12.992236,80.230309,0,30.2,10,0,0,-1,0,0,0,0
2169777,1.58E+12,0.88,0.12,-0.09,0,-5,-1,0,0,0,0,0,0.82,1.4,2.83,0,0,0,0,0,0,0,0,0,0,12.992236,80.230309,0,30.2,10,0,0,-1,0,0,0,0
2169797,1.58E+12,0.88,0.06,0.05,0,-7,0,0,0,0,0,0,0.82,1.4,2.83,0,0,0,0,0,0,0,0,0,0,12.992236,80.230309,0,30.2,10,0,0,-1,0,0,0,0
2169817,1.58E+12,0.97,0.05,-0.02,0,-3,-1,0,0,0,0,0,0.82,1.4,2.83,0,0,0,0,0,0,0,0,0,0,12.992236,80.230309,0,30.2,10,0,0,-1,0,0,0,0
2169837,1.58E+12,0.97,0.06,-0.03,0,2,-1,0,0,0,0,0,0.82,1.4,2.84,0,0,0,0,0,0,0,0,0,0,12.992236,80.230309,0,30.2,10,0,0,-1,0,0,0,0
2169857,1.58E+12,0.9,0.09,0.04,0,4,-1,0,0,0,0,0,0.82,1.4,2.84,0,0,0,0,0,0,0,0,0,0,12.992236,80.230309,0,30.2,10,0,0,-1,0,0,0,0
2169877,1.58E+12,0.88,0.09,-0.07,0,3,0,0,0,0,0,0,0.82,1.4,2.84,0,0,0,0,0,0,0,0,0,0,12.992236,80.230309,0,30.2,10,0,0,-1,0,0,0,0
2169897,1.58E+12,0.9,0.09,-0.23,0,2,1,0,0,0,0,0,0.82,1.4,2.84,0,0,0,0,0,0,0,0,0,0,12.992236,80.230309,0,30.2,10,0,0,-1,0,0,0,0
2169917,1.58E+12,0.91,0.07,-0.24,0,1,0,0,0,0,0,0,0.82,1.4,2.84,0,0,0,0,0,0,0,0,0,0,12.992236,80.230309,0,30.2,10,0,0,-1,0,0,0,0
2169937,1.58E+12,0.88,0.07,-0.08,0,-3,-2,0,0,0,0,0,0.82,1.4,2.83,0,0,0,0,0,0,0,0,0,0,12.992236,80.230309,0,30.2,10,0,0,-1,0,0,0,0
2169957,1.58E+12,0.87,0.04,0,0,-6,-1,0,0,0,0,0,0.82,1.4,2.83,0,0,0,0,0,0,0,0,0,0,12.992236,80.230309,0,30.2,10,0,0,-1,0,0,0,0
2169977,1.58E+12,0.96,0.04,-0.06,0,-4,0,0,0,0,0,0,0.82,1.4,2.83,0,0,0,0,0,0,0,0,0,0,12.992236,80.230309,0,30.2,10,0,0,-1,0,0,0,0
2169997,1.58E+12,1,0.05,-0.06,0,1,0,0,0,0,0,0,0.82,1.4,2.83,0,0,0,0,0,0,0,0,0,0,12.992236,80.230309,0,30.2,10,0,0,-1,0,0,0,0
2170017,1.58E+12,0.94,0.1,0.03,0,3,0,0,0,0,0,0,0.82,1.4,2.83,0,0,0,0,0,0,0,0,0,0,12.992236,80.230309,0,30.2,10,0,0,-1,0,0,0,0
2170037,1.58E+12,0.91,0.1,0.01,0,2,0,0,0,0,0,0,0.82,1.41,2.84,0,0,0,0,0,0,0,0,0,0,12.992236,80.230309,0,30.2,10,0,0,-1,0,0,0,0
2170057,1.58E+12,0.93,0.12,-0.18,0,2,0,0,0,0,0,0,0.82,1.41,2.84,0,0,0,0,0,0,0,0,0,0,12.992236,80.230309,0,30.2,10,0,0,-1,0,0,0,0
2170077,1.58E+12,0.92,0.08,-0.18,0,0,-1,0,0,0,0,0,0.82,1.41,2.84,0,0,0,0,0,0,0,0,0,0,12.992236,80.230309,0,30.2,10,0,0,-1,0,0,0,0
2170097,1.58E+12,0.85,0.08,0.01,0,-4,0,0,0,0,0,0,0.82,1.41,2.84,0,0,0,0,0,0,0,0,0,0,12.992236,80.230309,0,30.2,10,0,0,-1,0,0,0,0
2170117,1.58E+12,0.92,0.04,-0.03,0,-5,1,0,0,0,0,0,0.82,1.41,2.84,0,0,0,0,0,0,0,0,0,0,12.992236,80.230309,0,30.2,10,0,0,-1,0,0,0,0
2170137,1.58E+12,0.98,0.06,-0.03,0,-1,0,0,0,0,0,0,0.82,1.4,2.84,0,0,0,0,0,0,0,0,0,0,12.992236,80.230309,0,30.2,10,0,0,-1,0,0,0,0
2170157,1.58E+12,0.93,0.11,0.09,0,0,0,0,0,0,0,0,0.82,1.4,2.84,0,0,0,0,0,0,0,0,0,0,12.992236,80.230309,0,30.2,10,0,0,-1,0,0,0,0
2170177,1.58E+12,0.94,0.1,0.01,0,0,1,0,0,0,0,0,0.82,1.4,2.84,0,0,0,0,0,0,0,0,0,0,12.992236,80.230309,0,30.2,10,0,0,-1,0,0,0,0
2170197,1.58E+12,0.97,0.08,-0.12,0,1,0,0,0,0,0,0,0.82,1.4,2.84,0,0,0,0,0,0,0,0,0,0,12.992236,80.230309,0,30.2,10,0,0,-1,0,0,0,0
2170217,1.58E+12,0.92,0.06,-0.02,0,-2,-1,0,0,0,0,0,0.82,1.4,2.84,0,0,0,0,0,0,0,0,0,0,12.992236,80.230309,0,30.2,10,0,0,-1,0,0,0,0
2170237,1.58E+12,0.89,0.03,0.02,0,-5,-1,0,0,0,0,0,0.82,1.4,2.84,0,0,0,0,0,0,0,0,0,0,12.992236,80.230309,0,30.2,10,0,0,-1,0,0,0,0
2170257,1.58E+12,0.97,0.05,-0.05,0,-2,0,0,0,0,0,0,0.82,1.4,2.84,0,0,0,0,0,0,0,0,0,0,12.992236,80.230309,0,30.2,10,0,0,-1,0,0,0,0
2170277,1.58E+12,0.97,0.04,-0.07,0,1,0,0,0,0,0,0,0.82,1.4,2.84,0,0,0,0,0,0,0,0,0,0,12.992236,80.230309,0,30.2,10,0,0,-1,0,0,0,0
2170297,1.58E+12,0.92,0.1,0.09,0,0,1,0,0,0,0,0,0.82,1.4,2.84,0,0,0,0,0,0,0,0,0,0,12.992236,80.230309,0,30.2,10,0,0,-1,0,0,0,0
2170317,1.58E+12,0.94,0.11,-0.09,0,2,1,0,0,0,0,0,0.82,1.4,2.84,0,0,0,0,0,0,0,0,0,0,12.992236,80.230309,0,30.2,10,0,0,-1,0,0,0,0
2170337,1.58E+12,0.94,0.09,-0.09,0,1,0,0,0,0,0,0,0.82,1.39,2.83,0,0,0,0,0,0,0,0,0,0,12.992236,80.230309,0,30.2,10,0,0,-1,0,0,0,0
2170357,1.58E+12,0.89,0.09,0.04,0,-4,0,0,0,0,0,0,0.82,1.39,2.83,0,0,0,0,0,0,0,0,0,0,12.992236,80.230309,0,30.2,10,0,0,-1,0,0,0,0
2170377,1.58E+12,0.94,0.07,0.02,0,-3,0,0,0,0,0,0,0.82,1.39,2.83,0,0,0,0,0,0,0,0,0,0,12.992236,80.230309,0,30.2,10,0,0,-1,0,0,0,0
2170397,1.58E+12,0.96,0.08,0.04,0,0,0,0,0,0,0,0,0.82,1.39,2.83,0,0,0,0,0,0,0,0,0,0,12.992236,80.230309,0,30.2,10,0,0,-1,0,0,0,0
2170417,1.58E+12,0.9,0.13,0.14,0,2,0,0,0,0,0,0,0.82,1.39,2.83,0,0,0,0,0,0,0,0,0,0,12.992236,80.230309,0,30.2,10,0,0,-1,0,0,0,0
2170437,1.58E+12,0.91,0.13,-0.01,0,1,1,0,0,0,0,0,0.81,1.4,2.84,0,0,0,0,0,0,0,0,0,0,12.992236,80.230309,0,30.2,10,0,0,-1,0,0,0,0
2170457,1.58E+12,0.94,0.13,-0.21,0,2,1,0,0,0,0,0,0.81,1.4,2.84,0,0,0,0,0,0,0,0,0,0,12.992236,80.230309,0,30.2,10,0,0,-1,0,0,0,0
2170477,1.58E+12,0.9,0.09,-0.19,0,0,0,0,0,0,0,0,0.81,1.4,2.84,0,0,0,0,0,0,0,0,0,0,12.992236,80.230309,0,30.2,10,0,0,-1,0,0,0,0
2170497,1.58E+12,0.88,0.05,-0.01,0,-5,-1,0,0,0,0,0,0.81,1.4,2.84,0,0,0,0,0,0,0,0,0,0,12.992236,80.230309,0,30.2,10,0,0,-1,0,0,0,0
2170517,1.58E+12,0.95,0.05,-0.07,0,-4,0,0,0,0,0,0,0.81,1.4,2.84,0,0,0,0,0,0,0,0,0,0,12.992236,80.230309,0,30.2,10,0,0,-1,0,0,0,0
2170537,1.58E+12,1,0.04,-0.01,0,0,0,0,0,0,0,0,0.81,1.4,2.84,0,0,0,0,0,0,0,0,0,0,12.992236,80.230309,0,30.2,10,0,0,-1,0,0,0,0
2170557,1.58E+12,0.94,0.06,0.08,0,2,0,0,0,0,0,0,0.82,1.4,2.83,0,0,0,0,0,0,0,0,0,0,12.992236,80.230309,0,30.2,10,0,0,-1,0,0,0,0
2170577,1.58E+12,0.92,0.06,-0.01,0,2,1,0,0,0,0,0,0.82,1.4,2.83,0,0,0,0,0,0,0,0,0,0,12.992236,80.230309,0,30.2,10,0,0,-1,0,0,0,0
2170597,1.58E+12,0.94,0.08,-0.2,0,2,1,0,0,0,0,0,0.82,1.4,2.83,0,0,0,0,0,0,0,0,0,0,12.992236,80.230309,0,30.2,10,0,0,-1,0,0,0,0
2170617,1.58E+12,0.93,0.06,-0.23,0,1,0,0,0,0,0,0,0.82,1.4,2.83,0,0,0,0,0,0,0,0,0,0,12.992236,80.230309,0,30.2,10,0,0,-1,0,0,0,0
2170637,1.58E+12,0.89,0.06,-0.07,0,-4,-1,0,0,0,0,0,0.82,1.4,2.83,0,0,0,0,0,0,0,0,0,0,12.992236,80.230309,0,30.2,10,0,0,-1,0,0,0,0
2170657,1.58E+12,0.94,0.05,-0.03,0,-5,0,0,0,0,0,0,0.82,1.39,2.84,0,0,0,0,0,0,0,0,0,0,12.992236,80.230309,0,30.2,10,0,0,-1,0,0,0,0
2170677,1.58E+12,1.01,0.04,-0.08,0,-1,0,0,0,0,0,0,0.82,1.39,2.84,0,0,0,0,0,0,0,0,0,0,12.992236,80.230309,0,30.2,10,0,0,-1,0,0,0,0
2170697,1.58E+12,0.97,0.04,-0.01,0,2,0,0,0,0,0,0,0.82,1.39,2.84,0,0,0,0,0,0,0,0,0,0,12.992236,80.230309,0,30.2,10,0,0,-1,0,0,0,0
2170717,1.58E+12,0.93,0.05,0.01,0,2,0,0,0,0,0,0,0.82,1.39,2.84,0,0,0,0,0,0,0,0,0,0,12.992236,80.230309,0,30.2,10,0,0,-1,0,0,0,0
2170737,1.58E+12,0.95,0.07,-0.17,0,2,1,0,0,0,0,0,0.82,1.39,2.84,0,0,0,0,0,0,0,0,0,0,12.992236,80.230309,0,30.2,10,0,0,-1,0,0,0,0
2170757,1.58E+12,0.95,0.06,-0.18,0,1,0,0,0,0,0,0,0.82,1.4,2.84,0,0,0,0,0,0,0,0,0,0,12.992236,80.230309,0,30.2,10,0,0,-1,0,0,0,0
2170777,1.58E+12,0.91,0.06,-0.05,0,-4,-1,0,0,0,0,0,0.82,1.4,2.84,0,0,0,0,0,0,0,0,0,0,12.992236,80.230309,0,30.2,10,0,0,-1,0,0,0,0
2170797,1.58E+12,0.91,0.04,0.01,0,-6,0,0,0,0,0,0,0.82,1.4,2.84,0,0,0,0,0,0,0,0,0,0,12.992236,80.230309,0,30.2,10,0,0,-1,0,0,0,0
2170817,1.58E+12,0.99,0.04,-0.05,0,-2,0,0,0,0,0,0,0.82,1.4,2.84,0,0,0,0,0,0,0,0,0,0,12.992236,80.230309,0,30.2,10,0,0,-1,0,0,0,0
2170837,1.58E+12,1,0.05,-0.09,0,2,0,0,0,0,0,0,0.82,1.4,2.84,0,0,0,0,0,0,0,0,0,0,12.992236,80.230309,0,30.2,10,0,0,-1,0,0,0,0
2170857,1.58E+12,0.93,0.1,0.02,0,2,0,0,0,0,0,0,0.82,1.39,2.84,0,0,0,0,0,0,0,0,0,0,12.992236,80.230309,0,30.2,10,0,0,-1,0,0,0,0
2170877,1.58E+12,0.92,0.09,-0.05,0,1,0,0,0,0,0,0,0.82,1.39,2.84,0,0,0,0,0,0,0,0,0,0,12.992236,80.230309,0,30.2,10,0,0,-1,0,0,0,0
2170897,1.58E+12,0.95,0.08,-0.22,0,1,0,0,0,0,0,0,0.82,1.39,2.84,0,0,0,0,0,0,0,0,0,0,12.992236,80.230309,0,30.2,10,0,0,-1,0,0,0,0
2170917,1.58E+12,0.93,0.04,-0.19,0,-1,-2,0,0,0,0,0,0.82,1.39,2.84,0,0,0,0,0,0,0,0,0,0,12.992236,80.230309,0,30.2,10,0,0,-1,0,0,0,0
2170937,1.58E+12,0.88,0.02,-0.01,0,-5,-1,0,0,0,0,0,0.82,1.39,2.84,0,0,0,0,0,0,0,0,0,0,12.992236,80.230309,0,30.2,10,0,0,-1,0,0,0,0
2170957,1.58E+12,0.93,-0.02,0,0,-5,0,0,0,0,0,0,0.82,1.4,2.83,0,0,0,0,0,0,0,0,0,0,12.992236,80.230309,0,30.2,10,0,0,-1,0,0,0,0
2170977,1.58E+12,1.01,-0.03,-0.08,0,0,0,0,0,0,0,0,0.82,1.4,2.83,0,0,0,0,0,0,0,0,0,0,12.992236,80.230309,0,30.2,10,0,0,-1,0,0,0,0
2170997,1.58E+12,0.95,0.02,0,0,3,-1,0,0,0,0,0,0.82,1.4,2.83,0,0,0,0,0,0,0,0,0,0,12.992236,80.230309,0,30.2,10,0,0,-1,0,0,0,0
2171017,1.58E+12,0.9,0.06,0.03,0,3,-1,0,0,0,0,0,0.82,1.4,2.83,0,0,0,0,0,0,0,0,0,0,12.992236,80.230309,0,30.2,10,0,0,-1,0,0,0,0
2171037,1.58E+12,0.93,0.09,-0.17,0,2,0,0,0,0,0,0,0.82,1.4,2.83,0,0,0,0,0,0,0,0,0,0,12.992236,80.230309,0,30.2,10,0,0,-1,0,0,0,0
2171057,1.58E+12,0.92,0.06,-0.18,0,1,0,0,0,0,0,0,0.81,1.4,2.84,0,0,0,0,0,0,0,0,0,0,12.992236,80.230309,0,30.2,10,0,0,-1,0,0,0,0
2171077,1.58E+12,0.85,0.06,-0.01,0,-2,-1,0,0,0,0,0,0.81,1.4,2.84,0,0,0,0,0,0,0,0,0,0,12.992236,80.230309,0,30.2,10,0,0,-1,0,0,0,0
2171097,1.58E+12,0.91,0.02,-0.04,0,-4,0,0,0,0,0,0,0.81,1.4,2.84,0,0,0,0,0,0,0,0,0,0,12.992236,80.230309,0,30.2,10,0,0,-1,0,0,0,0
2171117,1.58E+12,0.99,0.02,-0.08,0,-1,0,0,0,0,0,0,0.81,1.4,2.84,0,0,0,0,0,0,0,0,0,0,12.992236,80.230309,0,30.2,10,0,0,-1,0,0,0,0
2171137,1.58E+12,0.94,0.06,0.03,0,2,-1,0,0,0,0,0,0.81,1.4,2.84,0,0,0,0,0,0,0,0,0,0,12.992236,80.230309,0,30.2,10,0,0,-1,0,0,0,0
2171157,1.58E+12,0.92,0.07,0.01,0,1,0,0,0,0,0,0,0.82,1.4,2.83,0,0,0,0,0,0,0,0,0,0,12.992236,80.230309,0,30.2,10,0,0,-1,0,0,0,0
2171177,1.58E+12,0.95,0.08,-0.18,0,2,0,0,0,0,0,0,0.82,1.4,2.83,0,0,0,0,0,0,0,0,0,0,12.992236,80.230309,0,30.2,10,0,0,-1,0,0,0,0
2171197,1.58E+12,0.93,0.04,-0.16,0,1,-1,0,0,0,0,0,0.82,1.4,2.83,0,0,0,0,0,0,0,0,0,0,12.992236,80.230309,0,30.2,10,0,0,-1,0,0,0,0
2171217,1.58E+12,0.87,0.04,0.03,0,-4,-1,0,0,0,0,0,0.82,1.4,2.83,0,0,0,0,0,0,0,0,0,0,12.992236,80.230309,0,30.2,10,0,0,-1,0,0,0,0
2171237,1.58E+12,0.94,0.03,-0.05,0,-3,0,0,0,0,0,0,0.82,1.4,2.83,0,0,0,0,0,0,0,0,0,0,12.992236,80.230309,0,30.2,10,0,0,-1,0,0,0,0
2171257,1.58E+12,0.98,0.05,-0.03,0,1,0,0,0,0,0,0,0.82,1.39,2.83,0,0,0,0,0,0,0,0,0,0,12.992236,80.230309,0,30.2,10,0,0,-1,0,0,0,0
2171277,1.58E+12,0.92,0.1,0.07,0,2,0,0,0,0,0,0,0.82,1.39,2.83,0,0,0,0,0,0,0,0,0,0,12.992236,80.230309,0,30.2,10,0,0,-1,0,0,0,0
2171297,1.58E+12,0.92,0.09,0,0,1,0,0,0,0,0,0,0.82,1.39,2.83,0,0,0,0,0,0,0,0,0,0,12.992236,80.230309,0,30.2,10,0,0,-1,0,0,0,0
2171317,1.58E+12,0.95,0.07,-0.16,0,1,0,0,0,0,0,0,0.82,1.39,2.83,0,0,0,0,0,0,0,0,0,0,12.992236,80.230309,0,30.2,10,0,0,-1,0,0,0,0
2171337,1.58E+12,0.91,0.04,-0.07,0,-2,-2,0,0,0,0,0,0.82,1.39,2.83,0,0,0,0,0,0,0,0,0,0,12.992236,80.230309,0,30.2,10,0,0,-1,0,0,0,0
2171357,1.58E+12,0.87,0.02,0.03,0,-5,-1,0,0,0,0,0,0.81,1.4,2.84,0,0,0,0,0,0,0,0,0,0,12.992236,80.230309,0,30.2,10,0,0,-1,0,0,0,0
2171377,1.58E+12,0.96,0.04,-0.06,0,-3,0,0,0,0,0,0,0.81,1.4,2.84,0,0,0,0,0,0,0,0,0,0,12.992236,80.230309,0,30.2,10,0,0,-1,0,0,0,0
2171397,1.58E+12,0.96,0.03,-0.06,0,0,0,0,0,0,0,0,0.81,1.4,2.84,0,0,0,0,0,0,0,0,0,0,12.992236,80.230309,0,30.2,10,0,0,-1,0,0,0,0
2171417,1.58E+12,0.91,0.08,0.09,0,0,0,0,0,0,0,0,0.81,1.4,2.84,0,0,0,0,0,0,0,0,0,0,12.992236,80.230309,0,30.2,10,0,0,-1,0,0,0,0
2171437,1.58E+12,0.94,0.09,-0.1,0,1,1,0,0,0,0,0,0.81,1.4,2.84,0,0,0,0,0,0,0,0,0,0,12.992236,80.230309,0,30.2,10,0,0,-1,0,0,0,0
2171457,1.58E+12,0.95,0.08,-0.11,0,0,0,0,0,0,0,0,0.82,1.4,2.84,0,0,0,0,0,0,0,0,0,0,12.992236,80.230309,0,30.2,10,0,0,-1,0,0,0,0
2171477,1.58E+12,0.89,0.08,0.02,0,-4,0,0,0,0,0,0,0.82,1.4,2.84,0,0,0,0,0,0,0,0,0,0,12.992236,80.230309,0,30.2,10,0,0,-1,0,0,0,0
2171497,1.58E+12,0.94,0.07,0.02,0,-4,0,0,0,0,0,0,0.82,1.4,2.84,0,0,0,0,0,0,0,0,0,0,12.992236,80.230309,0,30.2,10,0,0,-1,0,0,0,0
2171517,1.58E+12,1,0.05,-0.02,0,-1,0,0,0,0,0,0,0.82,1.4,2.84,0,0,0,0,0,0,0,0,0,0,12.992236,80.230309,0,30.2,10,0,0,-1,0,0,0,0
2171537,1.58E+12,0.94,0.07,0.08,0,0,0,0,0,0,0,0,0.82,1.4,2.84,0,0,0,0,0,0,0,0,0,0,12.992236,80.230309,0,30.2,10,0,0,-1,0,0,0,0
2171557,1.58E+12,0.96,0.07,-0.04,0,0,1,0,0,0,0,0,0.82,1.39,2.84,0,0,0,0,0,0,0,0,0,0,12.992236,80.230309,0,30.2,10,0,0,-1,0,0,0,0
2171577,1.58E+12,0.95,0.04,-0.03,0,1,0,0,0,0,0,0,0.82,1.39,2.84,0,0,0,0,0,0,0,0,0,0,12.992236,80.230309,0,30.2,10,0,0,-1,0,0,0,0
2171597,1.58E+12,0.88,0.04,0.13,0,-3,0,0,0,0,0,0,0.82,1.39,2.84,0,0,0,0,0,0,0,0,0,0,12.992236,80.230309,0,30.2,10,0,0,-1,0,0,0,0
2171617,1.58E+12,0.94,0.02,0.04,0,-4,1,0,0,0,0,0,0.82,1.39,2.84,0,0,0,0,0,0,0,0,0,0,12.992236,80.230309,0,30.2,10,0,0,-1,0,0,0,0
2171637,1.58E+12,0.99,0.03,0.04,0,-1,1,0,0,0,0,0,0.82,1.39,2.84,0,0,0,0,0,0,0,0,0,0,12.992236,80.230309,0,30.2,10,0,0,-1,0,0,0,0
2171657,1.58E+12,0.92,0.09,0.15,0,1,0,0,0,0,0,0,0.82,1.39,2.84,0,0,0,0,0,0,0,0,0,0,12.992236,80.230309,0,30.2,10,0,0,-1,0,0,0,0
2171677,1.58E+12,0.93,0.08,0.06,0,1,1,0,0,0,0,0,0.82,1.4,2.83,0,0,0,0,0,0,0,0,0,0,12.992236,80.230309,0,30.2,10,0,0,-1,0,0,0,0
2171697,1.58E+12,0.96,0.05,-0.02,0,1,0,0,0,0,0,0,0.82,1.4,2.83,0,0,0,0,0,0,0,0,0,0,12.992236,80.230309,0,30.2,10,0,0,-1,0,0,0,0
2171717,1.58E+12,0.91,0.05,0.09,0,-2,-2,0,0,0,0,0,0.82,1.4,2.83,0,0,0,0,0,0,0,0,0,0,12.992236,80.230309,0,30.2,10,0,0,-1,0,0,0,0
2171737,1.58E+12,0.93,0.03,0.08,0,-4,0,0,0,0,0,0,0.82,1.4,2.83,0,0,0,0,0,0,0,0,0,0,12.992236,80.230309,0,30.2,10,0,0,-1,0,0,0,0
2171757,1.58E+12,0.99,0.02,0.02,0,-1,0,0,0,0,0,0,0.82,1.4,2.83,0,0,0,0,0,0,0,0,0,0,12.992236,80.230309,0,30.2,10,0,0,-1,0,0,0,0
2171777,1.58E+12,0.95,0.03,0.11,0,1,-1,0,0,0,0,0,0.82,1.4,2.84,0,0,0,0,0,0,0,0,0,0,12.992236,80.230309,0,30.2,10,0,0,-1,0,0,0,0
2171797,1.58E+12,0.93,0.04,0.07,0,0,0,0,0,0,0,0,0.82,1.4,2.84,0,0,0,0,0,0,0,0,0,0,12.992236,80.230309,0,30.2,10,0,0,-1,0,0,0,0
2171817,1.58E+12,0.97,0.05,-0.14,0,1,0,0,0,0,0,0,0.82,1.4,2.84,0,0,0,0,0,0,0,0,0,0,12.992236,80.230309,0,30.2,10,0,0,-1,0,0,0,0
2171837,1.58E+12,0.94,0.03,-0.15,0,0,-1,0,0,0,0,0,0.82,1.4,2.84,0,0,0,0,0,0,0,0,0,0,12.992236,80.230309,0,30.2,10,0,0,-1,0,0,0,0
2171857,1.58E+12,0.9,0.02,0.03,0,-4,-1,0,0,0,0,0,0.82,1.4,2.84,0,0,0,0,0,0,0,0,0,0,12.992236,80.230309,0,30.2,10,0,0,-1,0,0,0,0
2171877,1.58E+12,0.96,0.02,-0.04,0,-4,0,0,0,0,0,0,0.82,1.39,2.84,0,0,0,0,0,0,0,0,0,0,12.992236,80.230309,0,30.2,10,0,0,-1,0,0,0,0
2171897,1.58E+12,1,0.03,0.03,0,0,0,0,0,0,0,0,0.82,1.39,2.84,0,0,0,0,0,0,0,0,0,0,12.992236,80.230309,0,30.2,10,0,0,-1,0,0,0,0
2171917,1.58E+12,0.93,0.09,0.15,0,0,0,0,0,0,0,0,0.82,1.39,2.84,0,0,0,0,0,0,0,0,0,0,12.992236,80.230309,0,30.2,10,0,0,-1,0,0,0,0
2171937,1.58E+12,0.97,0.11,0,0,1,1,0,0,0,0,0,0.82,1.39,2.84,0,0,0,0,0,0,0,0,0,0,12.992236,80.230309,0,30.2,10,0,0,-1,0,0,0,0
2171957,1.58E+12,0.96,0.09,-0.01,0,1,0,0,0,0,0,0,0.82,1.39,2.84,0,0,0,0,0,0,0,0,0,0,12.992236,80.230309,0,30.2,10,0,0,-1,0,0,0,0
2171977,1.58E+12,0.89,0.08,0.13,0,-3,0,0,0,0,0,0,0.82,1.39,2.84,0,0,0,0,0,0,0,0,0,0,12.992236,80.230309,0,30.2,10,0,0,-1,0,0,0,0
2171997,1.58E+12,0.94,0.05,0.06,0,-3,1,0,0,0,0,0,0.82,1.39,2.84,0,0,0,0,0,0,0,0,0,0,12.992236,80.230309,0,30.2,10,0,0,-1,0,0,0,0
2172017,1.58E+12,1.01,0.05,0.02,0,0,1,0,0,0,0,0,0.82,1.39,2.84,0,0,0,0,0,0,0,0,0,0,12.992236,80.230309,0,30.2,10,0,0,-1,0,0,0,0
2172037,1.58E+12,0.96,0.09,0.11,0,2,0,0,0,0,0,0,0.82,1.39,2.84,0,0,0,0,0,0,0,0,0,0,12.992236,80.230309,0,30.2,10,0,0,-1,0,0,0,0
2172057,1.58E+12,0.92,0.11,0.1,0,1,1,0,0,0,0,0,0.82,1.39,2.84,0,0,0,0,0,0,0,0,0,0,12.992236,80.230309,0,30.2,10,0,0,-1,0,0,0,0
2172077,1.58E+12,0.95,0.13,-0.11,0,2,0,0,0,0,0,0,0.82,1.4,2.83,0,0,0,0,0,0,0,0,0,0,12.992236,80.230309,0,30.2,10,0,0,-1,0,0,0,0
2172097,1.58E+12,0.93,0.09,-0.12,0,0,-1,0,0,0,0,0,0.82,1.4,2.83,0,0,0,0,0,0,0,0,0,0,12.992236,80.230309,0,30.2,10,0,0,-1,0,0,0,0
2172117,1.58E+12,0.87,0.07,0.04,0,-4,-1,0,0,0,0,0,0.82,1.4,2.83,0,0,0,0,0,0,0,0,0,0,12.992236,80.230309,0,30.2,10,0,0,-1,0,0,0,0
2172137,1.58E+12,0.92,0.04,-0.01,0,-4,1,0,0,0,0,0,0.82,1.4,2.83,0,0,0,0,0,0,0,0,0,0,12.992236,80.230309,0,30.2,10,0,0,-1,0,0,0,0
2172157,1.58E+12,1,0.04,-0.05,0,0,0,0,0,0,0,0,0.82,1.4,2.83,0,0,0,0,0,0,0,0,0,0,12.992236,80.230309,0,30.2,10,0,0,-1,0,0,0,0
2172177,1.58E+12,0.93,0.1,0.08,0,2,0,0,0,0,0,0,0.82,1.4,2.83,0,0,0,0,0,0,0,0,0,0,12.992236,80.230309,0,30.2,10,0,0,-1,0,0,0,0
2172197,1.58E+12,0.94,0.1,-0.03,0,1,0,0,0,0,0,0,0.82,1.4,2.83,0,0,0,0,0,0,0,0,0,0,12.992236,80.230309,0,30.2,10,0,0,-1,0,0,0,0
2172217,1.58E+12,0.97,0.07,-0.09,0,2,0,0,0,0,0,0,0.82,1.4,2.83,0,0,0,0,0,0,0,0,0,0,12.992236,80.230309,0,30.2,10,0,0,-1,0,0,0,0
2172237,1.58E+12,0.91,0.07,0.01,0,-1,-2,0,0,0,0,0,0.82,1.4,2.83,0,0,0,0,0,0,0,0,0,0,12.992236,80.230309,0,30.2,10,0,0,-1,0,0,0,0
2172257,1.58E+12,0.92,0.04,0.02,0,-4,-1,0,0,0,0,0,0.82,1.4,2.83,0,0,0,0,0,0,0,0,0,0,12.992236,80.230309,0,30.2,10,0,0,-1,0,0,0,0
2172277,1.58E+12,0.99,0.04,-0.06,0,-1,-1,0,0,0,0,0,0.82,1.38,2.84,0,0,0,0,0,0,0,0,0,0,12.992236,80.230309,0,30.2,10,0,0,-1,0,0,0,0
2172297,1.58E+12,0.94,0.05,0.05,0,0,-1,0,0,0,0,0,0.82,1.38,2.84,0,0,0,0,0,0,0,0,0,0,12.992236,80.230309,0,30.2,10,0,0,-1,0,0,0,0
2172317,1.58E+12,0.95,0.05,-0.05,0,0,0,0,0,0,0,0,0.82,1.38,2.84,0,0,0,0,0,0,0,0,0,0,12.992236,80.230309,0,30.2,10,0,0,-1,0,0,0,0
2172337,1.58E+12,0.98,0.06,-0.22,0,1,0,0,0,0,0,0,0.82,1.38,2.84,0,0,0,0,0,0,0,0,0,0,12.992236,80.230309,0,30.2,10,0,0,-1,0,0,0,0
2172357,1.58E+12,0.93,0.03,-0.17,0,0,-2,0,0,0,0,0,0.82,1.38,2.84,0,0,0,0,0,0,0,0,0,0,12.992236,80.230309,0,30.2,10,0,0,-1,0,0,0,0
2172377,1.58E+12,0.91,-0.02,-0.06,0,-4,-1,0,0,0,0,0,0.82,1.38,2.84,0,0,0,0,0,0,0,0,0,0,12.992236,80.230309,0,30.2,10,0,0,-1,0,0,0,0
2172397,1.58E+12,0.98,-0.02,-0.16,0,-2,-1,0,0,0,0,0,0.82,1.38,2.84,0,0,0,0,0,0,0,0,0,0,12.992236,80.230309,0,30.2,10,0,0,-1,0,0,0,0
2172417,1.58E+12,0.98,0,-0.12,0,1,-1,0,0,0,0,0,0.82,1.38,2.84,0,0,0,0,0,0,0,0,0,0,12.992236,80.230309,0,30.2,10,0,0,-1,0,0,0,0
2172437,1.58E+12,0.92,0.06,0.01,0,1,-1,0,0,0,0,0,0.82,1.38,2.84,0,0,0,0,0,0,0,0,0,0,12.992236,80.230309,0,30.2,10,0,0,-1,0,0,0,0
2172457,1.58E+12,0.95,0.09,-0.14,0,2,0,0,0,0,0,0,0.82,1.38,2.84,0,0,0,0,0,0,0,0,0,0,12.992236,80.230309,0,30.2,10,0,0,-1,0,0,0,0
2172477,1.58E+12,0.95,0.08,-0.19,0,2,0,0,0,0,0,0,0.82,1.39,2.84,0,0,0,0,0,0,0,0,0,0,12.992236,80.230309,0,30.2,10,0,0,-1,0,0,0,0
2172497,1.58E+12,0.88,0.06,-0.08,0,-2,-1,0,0,0,0,0,0.82,1.39,2.84,0,0,0,0,0,0,0,0,0,0,12.992236,80.230309,0,30.2,10,0,0,-1,0,0,0,0
2172517,1.58E+12,0.91,0.01,-0.03,0,-5,0,0,0,0,0,0,0.82,1.39,2.84,0,0,0,0,0,0,0,0,0,0,12.992236,80.230309,0,30.2,10,0,0,-1,0,0,0,0
2172537,1.58E+12,0.99,0.01,-0.13,0,-1,0,0,0,0,0,0,0.82,1.39,2.84,0,0,0,0,0,0,0,0,0,0,12.992236,80.230309,0,30.2,10,0,0,-1,0,0,0,0
2172557,1.58E+12,0.96,0.03,-0.05,0,2,-1,0,0,0,0,0,0.82,1.39,2.84,0,0,0,0,0,0,0,0,0,0,12.992236,80.230309,0,30.2,10,0,0,-1,0,0,0,0
2172577,1.58E+12,0.93,0.07,-0.03,0,1,0,0,0,0,0,0,0.82,1.39,2.84,0,0,0,0,0,0,0,0,0,0,12.992236,80.230309,0,30.2,10,0,0,-1,0,0,0,0
2172597,1.58E+12,0.96,0.09,-0.22,0,3,0,0,0,0,0,0,0.82,1.39,2.84,0,0,0,0,0,0,0,0,0,0,12.992236,80.230309,0,30.2,10,0,0,-1,0,0,0,0
2172617,1.58E+12,0.93,0.05,-0.21,0,1,-2,0,0,0,0,0,0.82,1.39,2.84,0,0,0,0,0,0,0,0,0,0,12.992236,80.230309,0,30.2,10,0,0,-1,0,0,0,0
2172637,1.58E+12,0.87,0.04,-0.03,0,-4,-1,0,0,0,0,0,0.82,1.39,2.84,0,0,0,0,0,0,0,0,0,0,12.992236,80.230309,0,30.2,10,0,0,-1,0,0,0,0
2172657,1.58E+12,0.94,0.03,-0.11,0,-2,0,0,0,0,0,0,0.82,1.39,2.84,0,0,0,0,0,0,0,0,0,0,12.992236,80.230309,0,30.2,10,0,0,-1,0,0,0,0
2172677,1.58E+12,0.99,0.04,-0.08,0,1,0,0,0,0,0,0,0.82,1.38,2.83,0,0,0,0,0,0,0,0,0,0,12.992236,80.230309,0,30.2,10,0,0,-1,0,0,0,0
2172697,1.58E+12,0.93,0.09,0.05,0,2,0,0,0,0,0,0,0.82,1.38,2.83,0,0,0,0,0,0,0,0,0,0,12.992236,80.230309,0,30.2,10,0,0,-1,0,0,0,0
2172717,1.58E+12,0.93,0.08,0,0,2,0,0,0,0,0,0,0.82,1.38,2.83,0,0,0,0,0,0,0,0,0,0,12.992236,80.230309,0,30.2,10,0,0,-1,0,0,0,0
2172737,1.58E+12,0.96,0.06,-0.19,0,3,-1,0,0,0,0,0,0.82,1.38,2.83,0,0,0,0,0,0,0,0,0,0,12.992236,80.230309,0,30.2,10,0,0,-1,0,0,0,0
2172757,1.58E+12,0.9,0.07,-0.06,0,-1,-2,0,0,0,0,0,0.82,1.38,2.83,0,0,0,0,0,0,0,0,0,0,12.992236,80.230309,0,30.2,10,0,0,-1,0,0,0,0
2172777,1.58E+12,0.96,0.05,-0.07,0,-4,0,0,0,0,0,0,0.82,1.37,2.83,0,0,0,0,0,0,0,0,0,0,12.992236,80.230309,0,30.2,10,0,0,-1,0,0,0,0
2172797,1.58E+12,1.01,0.05,-0.02,0,-1,-1,0,0,0,0,0,0.82,1.37,2.83,0,0,0,0,0,0,0,0,0,0,12.992236,80.230309,0,30.2,10,0,0,-1,0,0,0,0
2172817,1.58E+12,0.94,0.1,0.12,0,0,-1,0,0,0,0,0,0.82,1.37,2.83,0,0,0,0,0,0,0,0,0,0,12.992236,80.230309,0,30.2,10,0,0,-1,0,0,0,0
2172837,1.58E+12,0.98,0.11,-0.02,0,0,0,0,0,0,0,0,0.82,1.37,2.83,0,0,0,0,0,0,0,0,0,0,12.992236,80.230309,0,30.2,10,0,0,-1,0,0,0,0
2172857,1.58E+12,0.98,0.1,-0.08,0,2,0,0,0,0,0,0,0.82,1.37,2.83,0,0,0,0,0,0,0,0,0,0,12.992236,80.230309,0,30.2,10,0,0,-1,0,0,0,0
2172877,1.58E+12,0.9,0.09,0.04,0,-1,-1,0,0,0,0,0,0.82,1.38,2.84,0,0,0,0,0,0,0,0,0,0,12.992236,80.230309,0,30.2,10,0,0,-1,0,0,0,0
2172897,1.58E+12,0.94,0.03,0.01,0,-4,0,0,0,0,0,0,0.82,1.38,2.84,0,0,0,0,0,0,0,0,0,0,12.992236,80.230309,0,30.2,10,0,0,-1,0,0,0,0
2172917,1.58E+12,1,0.04,-0.03,0,0,-1,0,0,0,0,0,0.82,1.38,2.84,0,0,0,0,0,0,0,0,0,0,12.992236,80.230309,0,30.2,10,0,0,-1,0,0,0,0
2172937,1.58E+12,0.94,0.1,0.09,0,1,-1,0,0,0,0,0,0.82,1.38,2.84,0,0,0,0,0,0,0,0,0,0,12.992236,80.230309,0,30.2,10,0,0,-1,0,0,0,0
2172957,1.58E+12,0.94,0.09,0.01,0,1,0,0,0,0,0,0,0.82,1.38,2.84,0,0,0,0,0,0,0,0,0,0,12.992236,80.230309,0,30.2,10,0,0,-1,0,0,0,0
2172977,1.58E+12,0.98,0.07,-0.11,0,2,-1,0,0,0,0,0,0.82,1.38,2.84,0,0,0,0,0,0,0,0,0,0,12.992236,80.230309,0,30.2,10,0,0,-1,0,0,0,0
2172997,1.58E+12,0.91,0.06,0,0,-2,-2,0,0,0,0,0,0.82,1.36,2.83,0,0,0,0,0,0,0,0,0,0,12.992236,80.230309,0,30.2,10,0,0,-1,0,0,0,0
2173017,1.58E+12,0.95,0.04,-0.04,0,-3,-1,0,0,0,0,0,0.82,1.36,2.83,0,0,0,0,0,0,0,0,0,0,12.992236,80.230309,0,30.2,10,0,0,-1,0,0,0,0
2173037,1.58E+12,0.99,0.04,0,0,-1,-1,0,0,0,0,0,0.82,1.36,2.83,0,0,0,0,0,0,0,0,0,0,12.992236,80.230309,0,30.2,10,0,0,-1,0,0,0,0
2173057,1.58E+12,0.93,0.09,0.13,0,-1,-1,0,0,0,0,0,0.82,1.36,2.83,0,0,0,0,0,0,0,0,0,0,12.992236,80.230309,0,30.2,10,0,0,-1,0,0,0,0
2173077,1.58E+12,0.97,0.09,0,0,0,0,0,0,0,0,0,0.82,1.36,2.83,0,0,0,0,0,0,0,0,0,0,12.992236,80.230309,0,30.2,10,0,0,-1,0,0,0,0
2173097,1.58E+12,0.97,0.07,-0.02,0,0,0,0,0,0,0,0,0.82,1.33,2.84,0,0,0,0,0,0,0,0,0,0,12.992236,80.230309,0,30.2,10,0,0,-1,0,0,0,0
2173117,1.58E+12,0.9,0.07,0.13,0,-3,-1,0,0,0,0,0,0.82,1.33,2.84,0,0,0,0,0,0,0,0,0,0,12.992236,80.230309,0,30.2,10,0,0,-1,0,0,0,0
2173137,1.58E+12,0.94,0.04,0.05,0,-3,0,0,0,0,0,0,0.82,1.33,2.84,0,0,0,0,0,0,0,0,0,0,12.992236,80.230309,0,30.2,10,0,0,-1,0,0,0,0
2173157,1.58E+12,1,0.05,0.01,0,-1,0,0,0,0,0,0,0.82,1.33,2.84,0,0,0,0,0,0,0,0,0,0,12.992236,80.230309,0,30.2,10,0,0,-1,0,0,0,0
2173177,1.58E+12,0.96,0.08,0.09,0,1,0,0,0,0,0,0,0.82,1.33,2.84,0,0,0,0,0,0,0,0,0,0,12.992236,80.230309,0,30.2,10,0,0,-1,0,0,0,0
2173197,1.58E+12,0.92,0.1,0.1,0,1,0,0,0,0,0,0,0.82,1.24,2.83,0,0,0,0,0,0,0,0,0,0,12.992236,80.230309,0,30.2,10,0,0,-1,0,0,0,0
2173217,1.58E+12,0.95,0.13,-0.1,0,2,0,0,0,0,0,0,0.82,1.24,2.83,0,0,0,0,0,0,0,0,0,0,12.992236,80.230309,0,30.2,10,0,0,-1,0,0,0,0
2173237,1.58E+12,0.94,0.1,-0.13,0,0,0,0,0,0,0,0,0.82,1.24,2.83,0,0,0,0,0,0,0,0,0,0,12.992236,80.230309,0,30.2,10,0,0,-1,0,0,0,0
2173257,1.58E+12,0.87,0.09,0.02,0,-4,0,0,0,0,0,0,0.82,1.24,2.83,0,0,0,0,0,0,0,0,0,0,12.992236,80.230309,0,30.2,10,0,0,-1,0,0,0,0
2173277,1.58E+12,0.91,0.03,0.04,0,-5,1,0,0,0,0,0,0.82,1.24,2.83,0,0,0,0,0,0,0,0,0,0,12.992236,80.230309,0,30.2,10,0,0,-1,0,0,0,0
2173297,1.58E+12,1,0.03,-0.06,0,-1,0,0,0,0,0,0,0.82,1.18,2.84,0,0,0,0,0,0,0,0,0,0,12.992236,80.230309,0,30.2,10,0,0,-1,0,0,0,0
2173317,1.58E+12,0.97,0.06,0.01,0,2,0,0,0,0,0,0,0.82,1.18,2.84,0,0,0,0,0,0,0,0,0,0,12.992236,80.230309,0,30.2,10,0,0,-1,0,0,0,0
2173337,1.58E+12,0.92,0.1,0.06,0,1,0,0,0,0,0,0,0.82,1.18,2.84,0,0,0,0,0,0,0,0,0,0,12.992236,80.230309,0,30.2,10,0,0,-1,0,0,0,0
2173357,1.58E+12,0.94,0.08,-0.13,0,2,0,0,0,0,0,0,0.82,1.18,2.84,0,0,0,0,0,0,0,0,0,0,12.992236,80.230309,0,30.2,10,0,0,-1,0,0,0,0
2173377,1.58E+12,0.9,0.04,-0.06,0,1,-1,0,0,0,0,0,0.82,1.18,2.84,0,0,0,0,0,0,0,0,0,0,12.992236,80.230309,0,30.2,10,0,0,-1,0,0,0,0
2173397,1.58E+12,0.87,0.02,0.05,0,-4,-1,0,0,0,0,0,0.82,1.21,2.84,0,0,0,0,0,0,0,0,0,0,12.992236,80.230309,0,30.2,10,0,0,-1,0,0,0,0
2173417,1.58E+12,0.94,0.03,-0.04,0,-4,0,0,0,0,0,0,0.82,1.21,2.84,0,0,0,0,0,0,0,0,0,0,12.992236,80.230309,0,30.2,10,0,0,-1,0,0,0,0
2173437,1.58E+12,0.99,0.04,-0.03,0,0,0,0,0,0,0,0,0.82,1.21,2.84,0,0,0,0,0,0,0,0,0,0,12.992236,80.230309,0,30.2,10,0,0,-1,0,0,0,0
2173457,1.58E+12,0.93,0.1,0.09,0,2,0,0,0,0,0,0,0.82,1.21,2.84,0,0,0,0,0,0,0,0,0,0,12.992236,80.230309,0,30.2,10,0,0,-1,0,0,0,0
2173477,1.58E+12,0.91,0.09,0.05,0,2,0,0,0,0,0,0,0.82,1.21,2.84,0,0,0,0,0,0,0,0,0,0,12.992236,80.230309,0,30.2,10,0,0,-1,0,0,0,0
2173497,1.58E+12,0.94,0.09,-0.15,0,2,0,0,0,0,0,0,0.82,1.23,2.85,0,0,0,0,0,0,0,0,0,0,12.992236,80.230309,0,30.2,10,0,0,-1,0,0,0,0
2173517,1.58E+12,0.91,0.05,-0.14,0,1,-1,0,0,0,0,0,0.82,1.23,2.85,0,0,0,0,0,0,0,0,0,0,12.992236,80.230309,0,30.2,10,0,0,-1,0,0,0,0
2173537,1.58E+12,0.86,0.04,0.03,0,-4,-1,0,0,0,0,0,0.82,1.23,2.85,0,0,0,0,0,0,0,0,0,0,12.992236,80.230309,0,30.2,10,0,0,-1,0,0,0,0
2173557,1.58E+12,0.94,0.04,-0.06,0,-3,0,0,0,0,0,0,0.82,1.23,2.85,0,0,0,0,0,0,0,0,0,0,12.992236,80.230309,0,30.2,10,0,0,-1,0,0,0,0
2173577,1.58E+12,0.98,0.05,-0.03,0,0,0,0,0,0,0,0,0.82,1.23,2.85,0,0,0,0,0,0,0,0,0,0,12.992236,80.230309,0,30.2,10,0,0,-1,0,0,0,0
2173597,1.58E+12,0.92,0.12,0.09,0,1,0,0,0,0,0,0,0.82,1.23,2.84,0,0,0,0,0,0,0,0,0,0,12.992236,80.230309,0,30.2,10,0,0,-1,0,0,0,0
2173617,1.58E+12,0.93,0.1,0,0,2,1,0,0,0,0,0,0.82,1.23,2.84,0,0,0,0,0,0,0,0,0,0,12.992236,80.230309,0,30.2,10,0,0,-1,0,0,0,0
2173637,1.58E+12,0.95,0.08,-0.1,0,2,0,0,0,0,0,0,0.82,1.23,2.84,0,0,0,0,0,0,0,0,0,0,12.992236,80.230309,0,30.2,10,0,0,-1,0,0,0,0
2173657,1.58E+12,0.89,0.08,0,0,-2,-1,0,0,0,0,0,0.82,1.23,2.84,0,0,0,0,0,0,0,0,0,0,12.992236,80.230309,0,30.2,10,0,0,-1,0,0,0,0
2173677,1.58E+12,0.91,0.06,0.02,0,-4,0,0,0,0,0,0,0.82,1.23,2.84,0,0,0,0,0,0,0,0,0,0,12.992236,80.230309,0,30.2,10,0,0,-1,0,0,0,0
2173697,1.58E+12,0.98,0.05,-0.06,0,-1,0,0,0,0,0,0,0.81,1.23,2.84,0,0,0,0,0,0,0,0,0,0,12.992236,80.230309,0,30.2,10,0,0,-1,0,0,0,0
2173717,1.58E+12,0.98,0.06,-0.06,0,3,-1,0,0,0,0,0,0.81,1.23,2.84,0,0,0,0,0,0,0,0,0,0,12.992236,80.230309,0,30.2,10,0,0,-1,0,0,0,0
2173737,1.58E+12,0.92,0.1,0.05,0,3,0,0,0,0,0,0,0.81,1.23,2.84,0,0,0,0,0,0,0,0,0,0,12.992236,80.230309,0,30.2,10,0,0,-1,0,0,0,0
2173757,1.58E+12,0.92,0.09,-0.04,0,2,0,0,0,0,0,0,0.81,1.23,2.84,0,0,0,0,0,0,0,0,0,0,12.992236,80.230309,0,30.2,10,0,0,-1,0,0,0,0
2173777,1.58E+12,0.94,0.07,-0.21,0,2,0,0,0,0,0,0,0.81,1.23,2.84,0,0,0,0,0,0,0,0,0,0,12.992236,80.230309,0,30.2,10,0,0,-1,0,0,0,0
2173797,1.58E+12,0.92,0.03,-0.19,0,-1,-2,0,0,0,0,0,0.82,1.24,2.84,0,0,0,0,0,0,0,0,0,0,12.992236,80.230309,0,30.2,10,0,0,-1,0,0,0,0
2173817,1.58E+12,0.88,0.03,-0.01,0,-5,-1,0,0,0,0,0,0.82,1.24,2.84,0,0,0,0,0,0,0,0,0,0,12.992236,80.230309,0,30.2,10,0,0,-1,0,0,0,0
2173837,1.58E+12,0.92,-0.02,0.05,0,-5,0,0,0,0,0,0,0.82,1.24,2.84,0,0,0,0,0,0,0,0,0,0,12.992236,80.230309,0,30.2,10,0,0,-1,0,0,0,0
2173857,1.58E+12,1,-0.02,-0.04,0,-1,-1,0,0,0,0,0,0.82,1.24,2.84,0,0,0,0,0,0,0,0,0,0,12.992236,80.230309,0,30.2,10,0,0,-1,0,0,0,0
2173877,1.58E+12,1.02,-0.01,-0.03,0,4,-1,0,0,0,0,0,0.82,1.24,2.84,0,0,0,0,0,0,0,0,0,0,12.992236,80.230309,0,30.2,10,0,0,-1,0,0,0,0
2173897,1.58E+12,0.95,0.03,0.02,0,5,-1,0,0,0,0,0,0.82,1.24,2.84,0,0,0,0,0,0,0,0,0,0,12.992236,80.230309,0,30.2,10,0,0,-1,0,0,0,0
2173917,1.58E+12,0.91,0.03,-0.03,0,3,0,0,0,0,0,0,0.82,1.24,2.84,0,0,0,0,0,0,0,0,0,0,12.992236,80.230309,0,30.2,10,0,0,-1,0,0,0,0
2173937,1.58E+12,0.92,0.05,-0.2,0,2,1,0,0,0,0,0,0.82,1.24,2.84,0,0,0,0,0,0,0,0,0,0,12.992236,80.230309,0,30.2,10,0,0,-1,0,0,0,0
2173957,1.58E+12,0.92,0.04,-0.21,0,0,0,0,0,0,0,0,0.82,1.24,2.84,0,0,0,0,0,0,0,0,0,0,12.992236,80.230309,0,30.2,10,0,0,-1,0,0,0,0
2173977,1.58E+12,0.9,0.05,-0.04,0,-4,-2,0,0,0,0,0,0.82,1.24,2.84,0,0,0,0,0,0,0,0,0,0,12.992236,80.230309,0,30.2,10,0,0,-1,0,0,0,0
2173997,1.58E+12,0.9,0.02,0.05,0,-6,-1,0,0,0,0,0,0.82,1.25,2.85,0,0,0,0,0,0,0,0,0,0,12.992236,80.230309,0,30.2,10,0,0,-1,0,0,0,0
2174017,1.58E+12,0.98,0.01,-0.01,0,-5,0,0,0,0,0,0,0.82,1.25,2.85,0,0,0,0,0,0,0,0,0,0,12.992236,80.230309,0,30.2,10,0,0,-1,0,0,0,0
2174037,1.58E+12,1.04,0.01,-0.05,0,1,0,0,0,0,0,0,0.82,1.25,2.85,0,0,0,0,0,0,0,0,0,0,12.992236,80.230309,0,30.2,10,0,0,-1,0,0,0,0
2174057,1.58E+12,1.01,0.04,-0.08,0,5,-1,0,0,0,0,0,0.82,1.25,2.85,0,0,0,0,0,0,0,0,0,0,12.992236,80.230309,0,30.2,10,0,0,-1,0,0,0,0
2174077,1.58E+12,0.93,0.07,-0.03,0,6,-1,0,0,0,0,0,0.82,1.25,2.85,0,0,0,0,0,0,0,0,0,0,12.992236,80.230309,0,30.2,10,0,0,-1,0,0,0,0
2174097,1.58E+12,0.89,0.07,-0.09,0,4,0,0,0,0,0,0,0.82,1.25,2.84,0,0,0,0,0,0,0,0,0,0,12.992236,80.230309,0,30.2,10,0,0,-1,0,0,0,0
2174117,1.58E+12,0.9,0.07,-0.26,0,2,1,0,0,0,0,0,0.82,1.25,2.84,0,0,0,0,0,0,0,0,0,0,12.992236,80.230309,0,30.2,10,0,0,-1,0,0,0,0
2174137,1.58E+12,0.92,0.05,-0.26,0,0,0,0,0,0,0,0,0.82,1.25,2.84,0,0,0,0,0,0,0,0,0,0,12.992236,80.230309,0,30.2,10,0,0,-1,0,0,0,0
2174157,1.58E+12,0.9,0.02,-0.1,0,-3,-2,0,0,0,0,0,0.82,1.25,2.84,0,0,0,0,0,0,0,0,0,0,12.992236,80.230309,0,30.2,10,0,0,-1,0,0,0,0
2174177,1.58E+12,0.88,0,0.06,0,-6,-1,0,0,0,0,0,0.82,1.25,2.84,0,0,0,0,0,0,0,0,0,0,12.992236,80.230309,0,30.2,10,0,0,-1,0,0,0,0
2174197,1.58E+12,0.94,-0.03,0.07,0,-5,0,0,0,0,0,0,0.82,1.25,2.84,0,0,0,0,0,0,0,0,0,0,12.992236,80.230309,0,30.2,10,0,0,-1,0,0,0,0
2174217,1.58E+12,1.02,-0.04,-0.02,0,0,0,0,0,0,0,0,0.82,1.25,2.84,0,0,0,0,0,0,0,0,0,0,12.992236,80.230309,0,30.2,10,0,0,-1,0,0,0,0
2174237,1.58E+12,1,-0.01,-0.02,0,6,-1,0,0,0,0,0,0.82,1.25,2.84,0,0,0,0,0,0,0,0,0,0,12.992236,80.230309,0,30.2,10,0,0,-1,0,0,0,0
2174257,1.58E+12,0.92,0.03,0.01,0,6,-1,0,0,0,0,0,0.82,1.25,2.84,0,0,0,0,0,0,0,0,0,0,12.992236,80.230309,0,30.2,10,0,0,-1,0,0,0,0
2174277,1.58E+12,0.9,0.03,-0.09,0,4,0,0,0,0,0,0,0.82,1.25,2.84,0,0,0,0,0,0,0,0,0,0,12.992236,80.230309,0,30.2,10,0,0,-1,0,0,0,0
2174297,1.58E+12,0.92,0.04,-0.26,0,3,1,0,0,0,0,0,0.82,1.25,2.84,0,0,0,0,0,0,0,0,0,0,12.992236,80.230309,0,30.2,10,0,0,-1,0,0,0,0
2174317,1.58E+12,0.92,0.03,-0.26,0,0,-1,0,0,0,0,0,0.82,1.25,2.84,0,0,0,0,0,0,0,0,0,0,12.992236,80.230309,0,30.2,10,0,0,-1,0,0,0,0
2174337,1.58E+12,0.89,0.05,-0.09,0,-4,-1,0,0,0,0,0,0.83,1.25,2.83,0,0,0,0,0,0,0,0,0,0,12.992236,80.230309,0,30.2,10,0,0,-1,0,0,0,0
2174357,1.58E+12,0.9,0.04,0,0,-5,0,0,0,0,0,0,0.83,1.25,2.83,0,0,0,0,0,0,0,0,0,0,12.992236,80.230309,0,30.2,10,0,0,-1,0,0,0,0
2174377,1.58E+12,0.99,0.04,-0.05,0,0,0,0,0,0,0,0,0.83,1.25,2.83,0,0,0,0,0,0,0,0,0,0,12.992236,80.230309,0,30.2,10,0,0,-1,0,0,0,0
2174397,1.58E+12,1,0.05,-0.09,0,4,0,0,0,0,0,0,0.83,1.25,2.83,0,0,0,0,0,0,0,0,0,0,12.992236,80.230309,0,30.2,10,0,0,-1,0,0,0,0
2174417,1.58E+12,0.93,0.1,-0.01,0,4,0,0,0,0,0,0,0.83,1.25,2.83,0,0,0,0,0,0,0,0,0,0,12.992236,80.230309,0,30.2,10,0,0,-1,0,0,0,0
2174437,1.58E+12,0.91,0.1,-0.04,0,2,0,0,0,0,0,0,0.83,1.25,2.83,0,0,0,0,0,0,0,0,0,0,12.992236,80.230309,0,30.2,10,0,0,-1,0,0,0,0
2174457,1.58E+12,0.93,0.11,-0.22,0,2,0,0,0,0,0,0,0.83,1.25,2.83,0,0,0,0,0,0,0,0,0,0,12.992236,80.230309,0,30.2,10,0,0,-1,0,0,0,0
2174477,1.58E+12,0.93,0.08,-0.23,0,-1,-1,0,0,0,0,0,0.83,1.25,2.83,0,0,0,0,0,0,0,0,0,0,12.992236,80.230309,0,30.2,10,0,0,-1,0,0,0,0
2174497,1.58E+12,0.88,0.07,-0.06,0,-4,-1,0,0,0,0,0,0.83,1.25,2.83,0,0,0,0,0,0,0,0,0,0,12.992236,80.230309,0,30.2,10,0,0,-1,0,0,0,0
2174517,1.58E+12,0.89,0.01,0.04,0,-6,0,0,0,0,0,0,0.83,1.25,2.83,0,0,0,0,0,0,0,0,0,0,12.992236,80.230309,0,30.2,10,0,0,-1,0,0,0,0
2174537,1.58E+12,0.97,0.01,-0.01,0,-1,-1,0,0,0,0,0,0.82,1.25,2.84,0,0,0,0,0,0,0,0,0,0,12.992236,80.230309,0,30.2,10,0,0,-1,0,0,0,0
